     2.11           OBSERVATION DATA    GPS(GPS)            RINEX VERSION / TYPE
cnvtToRINEX 2.29.0  convertToRINEX OPR  08-Jul-16 08:29 UTC PGM / RUN BY / DATE 
----------------------------------------------------------- COMMENT             
priyomniy                                                   MARKER NAME         
                                                            MARKER NUMBER       
GNSS Observer       Trimble                                 OBSERVER / AGENCY   
0220323854          5700                2.32                REC # / TYPE / VERS 
122                 TRM41249.00                             ANT # / TYPE        
  3501239.1175  2097758.3036  4884932.6689                  APPROX POSITION XYZ 
        1.5520        0.0000        0.0000                  ANTENNA: DELTA H/E/N
     1     1     0                                          WAVELENGTH FACT L1/2
     4    C1    L1    L2    P2                              # / TYPES OF OBSERV 
  2016     7     7     7    31   45.0000000     GPS         TIME OF FIRST OBS   
  2016     7     8     8    32    0.0000000     GPS         TIME OF LAST OBS    
     0                                                      RCV CLOCK OFFS APPL 
    17                                                      LEAP SECONDS        
    31                                                      # OF SATELLITES     
   G01  1264  1264  1264  1264                              PRN / # OF OBS      
   G02  1806  1806  1806  1806                              PRN / # OF OBS      
   G03  1412  1412  1412  1412                              PRN / # OF OBS      
   G05  1728  1728  1728  1728                              PRN / # OF OBS      
   G06  2009  2009  2009  2009                              PRN / # OF OBS      
   G07  1380  1380  1380  1380                              PRN / # OF OBS      
   G08  1654  1654  1654  1654                              PRN / # OF OBS      
   G09  1442  1442  1442  1442                              PRN / # OF OBS      
   G10  1306  1306  1306  1306                              PRN / # OF OBS      
   G11  1180  1180  1180  1180                              PRN / # OF OBS      
   G12  1682  1682  1682  1682                              PRN / # OF OBS      
   G13  1454  1454  1454  1454                              PRN / # OF OBS      
   G14  1656  1656  1655  1655                              PRN / # OF OBS      
   G15  1844  1844  1844  1844                              PRN / # OF OBS      
   G16  1735  1735  1735  1735                              PRN / # OF OBS      
   G17  1986  1986  1986  1986                              PRN / # OF OBS      
   G18  1364  1364  1364  1364                              PRN / # OF OBS      
   G19  1872  1872  1872  1872                              PRN / # OF OBS      
   G20  1676  1676  1676  1676                              PRN / # OF OBS      
   G21  1452  1452  1452  1452                              PRN / # OF OBS      
   G22  1452  1452  1452  1452                              PRN / # OF OBS      
   G23  1444  1444  1444  1444                              PRN / # OF OBS      
   G24  1546  1546  1546  1546                              PRN / # OF OBS      
   G25  1462  1462  1462  1462                              PRN / # OF OBS      
   G26  1682  1682  1682  1682                              PRN / # OF OBS      
   G27  1456  1456  1456  1456                              PRN / # OF OBS      
   G28  1466  1465  1463  1463                              PRN / # OF OBS      
   G29  1436  1436  1436  1436                              PRN / # OF OBS      
   G30  1412  1412  1412  1412                              PRN / # OF OBS      
   G31  1762  1762  1762  1762                              PRN / # OF OBS      
   G32  1810  1810  1810  1810                              PRN / # OF OBS      
CARRIER PHASE MEASUREMENTS: PHASE SHIFTS REMOVED            COMMENT             
                                                            END OF HEADER       
 16  7  7  7 31 45.0000000  0  8G06G12G13G15G17G19G24G28            
  24131333.76614   -572464.78514   -413110.85956  24131336.21156
  22167396.21117   -511456.33617   -379908.87158  22167394.00858
  24018468.29715    708139.40615    523530.41856  24018467.75456
  22890379.32016    580799.41816    439531.50457  22890377.16057
  21709998.23417    304690.77317    230474.97358  21709995.80158
  20548635.26617    -58147.68817    -44135.57858  20548630.75058
  20458142.58617   -174897.23417   -132414.01259  20458142.47759
  24146274.12515    553596.55915    396182.84056  24146272.32856
 16  7  7  7 32  0.0000000  0  8G06G12G13G15G17G19G24G28            
  24122738.375 4   -617627.469 4   -448302.52346  24122741.92246
  22159740.164 7   -551689.766 7   -411259.59848  22159737.39848
  24029973.359 5    768597.625 5    570640.66846  24029972.90246
  22899158.125 6    626931.961 6    475478.91047  22899156.03947
  21714704.930 7    329425.688 7    249748.91448  21714702.35248
  20547978.516 7    -61596.965 7    -46823.32848  20547974.19148
  20455671.789 7   -187880.219 7   -142530.63749  20455671.81349
  24154633.938 6    597529.098 6    430415.94146  24154632.44546
 16  7  7  7 32 15.0000000  0  8G06G12G13G15G17G19G24G28            
  24114155.352 4   -662731.898 4   -483448.85546  24114159.55146
  22152098.109 6   -591846.922 6   -442550.87147  22152095.84047
  24041485.297 4    829094.105 4    617780.71146  24041484.50046
  22907953.641 6    673153.277 6    511495.49647  22907951.73847
  21719437.086 7    354293.910 7    269126.74248  21719434.89548
  20547356.914 7    -64864.152 7    -49369.19148  20547352.44948
  20453226.453 7   -200731.969 7   -152545.00049  20453226.10549
  24162998.922 5    641488.039 5    464669.61746  24162997.65246
 16  7  7  7 32 30.0000000  0  8G06G12G13G15G17G19G24G28            
  24105583.891 4   -707775.449 4   -518547.72346  24105587.50846
  22144471.656 7   -631925.438 7   -473780.89148  22144469.43848
  24053005.570 5    889630.754 5    664952.08646  24053004.16846
  22916766.250 6    719465.273 6    547582.73847  22916764.68847
  21724194.984 7    379297.531 7    288610.07448  21724193.15648
  20546770.023 7    -67947.039 7    -51771.44148  20546766.01648
  20450806.055 7   -213449.840 7   -162455.02749  20450805.96549
  24171369.961 6    685475.531 6    498945.52046  24171367.71546
 16  7  7  7 32 45.0000000  0  8G06G12G13G15G17G19G24G28            
  24097025.500 4   -752757.672 4   -553598.66846  24097028.41446
  22136859.531 6   -671925.656 6   -504949.87548  22136857.59848
  24064532.797 5    950207.049 5    712154.34746  24064531.78546
  22925597.203 6    765867.227 6    583740.05547  22925595.03147
  21728978.625 7    404435.859 7    308198.36748  21728976.47348
  20546218.195 7    -70845.938 7    -54030.32848  20546214.18448
  20448411.539 7   -226034.129 7   -172260.97749  20448411.63749
  24179745.820 5    729491.234 5    533243.44546  24179743.57046
 16  7  7  7 33  0.0000000  0  8G06G12G13G15G17G19G24G28            
  24088476.648 5   -797677.344 5   -588600.98846  24088480.33246
  22129263.117 7   -711846.219 7   -536056.80548  22129260.85948
  24076066.922 4   1010823.695 4    759388.00846  24076066.76646
  22934443.508 6    812359.938 6    619968.11747  22934442.52347
  21733788.055 7    429710.066 7    327892.54748  21733786.08648
  20545701.977 7    -73559.543 7    -56144.82848  20545698.01648
  20446042.586 7   -238483.605 7   -181961.87149  20446042.42249
  24188126.969 6    773536.422 6    567564.34446  24188124.78546
 16  7  7  7 33 15.0000000  0  8G06G12G13G15G17G19G24G28            
  24079940.906 5   -842533.758 5   -623553.98046  24079943.98046
  22121681.492 6   -751686.715 6   -567101.34047  22121679.26647
  24087610.133 4   1071480.859 4    806653.23046  24087609.91846
  22943308.797 6    858943.359 6    656266.85547  22943307.19147
  21738623.680 7    455120.203 7    347692.63748  21738621.48848
  20545221.438 7    -76087.563 7    -58114.72748  20545216.91848
  20443698.922 7   -250797.641 7   -191557.22349  20443699.13749
  24196514.688 6    817611.168 6    601908.26646  24196512.78546
 16  7  7  7 33 30.0000000  0  8G06G12G13G15G17G19G24G28            
  24071417.422 4   -887326.898 4   -658457.78146  24071420.00846
  22114115.516 7   -791447.090 7   -598083.44548  22114113.47348
  24099160.406 5   1132177.699 5    853949.45746  24099159.85546
  22952190.180 6    905616.828 6    692635.75847  22952189.09047
  21743485.023 7    480665.703 7    367598.20748  21743482.42248
  20544775.188 7    -78430.441 7    -59940.34448  20544770.93448
  20441381.297 7   -262976.336 7   -201047.12548  20441381.58648
  24204906.961 5    861715.199 5    636274.98446  24204905.73046
 16  7  7  7 33 45.0000000  0  8G06G12G13G15G17G19G24G28            
  24062904.188 5   -932056.746 5   -693312.05946  24062907.83246
  22106563.766 7   -831128.531 7   -629004.05148  22106561.89148
  24110718.328 5   1192913.129 5    901275.71946  24110717.45346
  22961088.617 6    952379.215 6    729073.94147  22961087.35947
  21748371.469 7    506345.547 7    387608.47748  21748369.16048
  20544364.297 7    -80588.848 7    -61622.22748  20544360.29348
  20439089.492 7   -275020.395 7   -210432.11749  20439089.60249
  24213304.930 5    905847.594 5    670663.83646  24213303.85946
 16  7  7  7 34  0.0000000  0  8G06G12G13G15G17G19G24G28            
  24054404.359 4   -976724.922 4   -728118.40646  24054407.57446
  22099028.211 7   -870732.316 7   -659864.12947  22099025.81347
  24122282.500 5   1253685.176 5    948630.50446  24122282.80546
  22970004.219 6    999228.770 6    765580.05947  22970002.79347
  21753283.305 7    532157.875 7    407721.96948  21753281.21548
  20543988.586 7    -82564.445 7    -63161.65248  20543984.65648
  20436823.125 7   -286931.168 7   -219713.24249  20436823.00849
  24221708.211 5    950006.688 5    705073.47746  24221707.27046
 16  7  7  7 34 15.0000000  0  8G06G12G13G15G17G19G24G28            
  24045916.492 5  -1021329.887 5   -762875.47346  24045919.59446
  22091507.156 6   -910257.258 6   -690662.77747  22091504.51647
  24133853.883 5   1314494.652 5    996014.43846  24133853.82846
  22978935.484 6   1046166.074 6    802154.55547  22978933.83247
  21758220.453 7    558103.531 7    427939.35248  21758218.48048
  20543647.273 7    -84356.285 7    -64557.89548  20543643.53548
  20434582.266 7   -298707.535 7   -228889.63749  20434582.34049
  24230116.883 5    994193.344 5    739504.58646  24230115.61346
 16  7  7  7 34 30.0000000  0  8G06G12G13G15G17G19G24G28            
  24037441.125 5  -1065871.965 5   -797583.51646  24037444.05546
  22084000.477 6   -949703.977 6   -721400.48047  22083997.95347
  24145434.016 5   1375340.160 5   1043426.48446  24145431.93046
  22987884.289 6   1093189.949 6    838796.51247  22987882.69547
  21763183.430 7    584181.441 7    448259.79348  21763180.78948
  20543341.594 7    -85965.148 7    -65811.55548  20543337.23448
  20432366.648 7   -310350.230 7   -237961.87149  20432366.28549
  24238529.719 5   1038406.805 5    773956.62546  24238529.16046
 16  7  7  7 34 45.0000000  0  8G06G12G13G15G17G19G24G28            
  24028976.313 5  -1110351.266 5   -832242.66846  24028980.22746
  22076508.492 6   -989072.938 6   -752077.57848  22076506.38348
  24157018.734 6   1436221.039 6   1090866.11346  24157017.22346
  22996848.781 6   1140299.590 6    875505.28947  22996846.84447
  21768170.977 7    610390.926 7    468682.75848  21768168.27348
  20543069.930 7    -87391.500 7    -66923.00848  20543065.94948
  20430176.422 7   -321859.309 7   -246929.98449  20430176.33649
  24246948.734 5   1082646.496 5    808429.04746  24246947.39146
 16  7  7  7 35  0.0000000  0  8G06G12G13G15G17G19G24G28            
  24020523.547 5  -1154768.203 5   -866853.23446  24020527.12946
  22069031.594 6  -1028364.742 6   -782694.56347  22069029.17247
  24168609.930 5   1497136.246 5   1138332.45746  24168609.28946
  23005829.539 6   1187493.906 6    912280.05947  23005828.34847
  21773182.938 7    636731.105 7    489207.56348  21773180.68048
  20542833.203 7    -88636.090 7    -67892.81649  20542828.98449
  20428011.602 7   -333235.625 7   -255794.65649  20428012.00449
  24255372.508 5   1126911.387 5    842921.12946  24255370.62546
 16  7  7  7 35 15.0000000  0  8G06G12G13G15G17G19G24G28            
  24012083.305 4  -1199122.297 4   -901414.88346  24012086.17646
  22061568.859 6  -1067579.113 6   -813251.21148  22061567.06348
  24180208.914 5   1558085.563 5   1185825.37946  24180207.58246
  23014826.109 6   1234772.660 6    949120.60547  23014824.84047
  21778220.164 7    663201.813 7    509834.08248  21778217.77048
  20542631.000 7    -89698.824 7    -68720.92648  20542626.61348
  20425872.117 7   -344478.602 7   -264555.42649  20425871.97349
  24263800.297 5   1171201.535 5    877432.87946  24263798.39146
 16  7  7  7 35 30.0000000  0  8G06G12G13G15G17G19G24G28            
  24003655.219 4  -1243414.121 4   -935927.98846  24003657.78146
  22054121.594 6  -1106716.922 6   -843748.19948  22054119.48848
  24191813.414 5   1619067.598 5   1233343.79346  24191812.30946
  23023839.133 6   1282134.457 6    986025.86747  23023837.71947
  21783282.203 7    689801.789 7    530561.32848  21783280.15248
  20542463.359 7    -90580.879 7    -69408.25448  20542458.89148
  20423757.664 7   -355589.441 7   -273213.23049  20423757.83249
  24272232.781 5   1215516.012 5    911963.59446  24272231.51646
 16  7  7  7 35 45.0000000  0  8G06G12G13G15G17G19G24G28            
  23995238.688 4  -1287643.934 4   -970392.73446  23995240.64146
  22046688.102 7  -1145778.914 7   -874186.10948  22046686.36748
  24203423.781 5   1680081.313 5   1280886.89546  24203423.25446
  23032867.367 6   1329578.336 6   1022995.09047  23032865.57047
  21788368.727 7    716530.211 7    551388.64848  21788365.76648
  20542329.383 7    -91282.859 7    -69955.25448  20542324.74248
  20421668.766 7   -366568.645 7   -281768.45349  20421668.61349
  24280669.461 5   1259854.152 5    946512.74646  24280669.09846
 16  7  7  7 36  0.0000000  0  8G06G12G13G15G17G19G24G28            
  23986833.672 5  -1331811.148 5  -1004808.69546  23986836.57846
  22039269.297 7  -1184764.738 7   -904564.66448  22039267.21948
  24215040.539 5   1741126.504 5   1328454.53546  24215040.00446
  23041911.492 6   1377104.074 6   1060028.10547  23041909.55147
  21793479.305 7    743386.992 7    572316.00048  21793476.66448
  20542230.500 7    -91804.473 7    -70361.71148  20542225.73048
  20419604.398 7   -377415.469 7   -290220.53549  20419604.81349
  24289112.820 5   1304216.016 5    981080.38346  24289110.56346
 16  7  7  7 36 15.0000000  0  8G06G12G13G15G17G19G24G28            
  23978441.281 5  -1375916.309 5  -1039176.31646  23978443.48846
  22031865.367 7  -1223675.020 7   -934884.35548  22031862.91048
  24226663.164 5   1802201.922 5   1376045.69546  24226662.34046
  23050970.242 6   1424710.469 6   1097123.97747  23050968.69947
  21798614.242 7    770370.898 7    593342.40248  21798611.72748
  20542165.258 7    -92146.684 7    -70628.37148  20542161.01248
  20417565.461 7   -388130.988 7   -298570.29749  20417565.39149
  24297558.156 5   1348600.574 5   1015665.70346  24297557.21546
 16  7  7  7 36 30.0000000  0  8G06G12G13G15G17G19G24G28            
  23970059.867 5  -1419960.375 5  -1073496.29346  23970062.08646
  22024474.961 7  -1262511.156 7   -965146.27748  22024472.55148
  24238290.156 5   1863305.770 5   1423658.98846  24238290.06646
  23060044.758 6   1472395.609 6   1134281.21547  23060042.54747
  21803773.023 7    797480.238 7    614466.55548  21803770.27748
  20542134.281 7    -92311.070 7    -70756.46948  20542129.68848
  20415550.938 7   -398716.652 7   -306818.87549  20415550.86749
  24306008.156 5   1393006.270 5   1050267.50046  24306006.82046
 16  7  7  7 36 45.0000000  0  8G06G12G13G15G17G19G24G28            
  23961689.867 4  -1463943.832 4  -1107769.12546  23961691.85546
  22017098.563 6  -1301273.746 6   -995350.88348  22017096.46948
  24249923.398 5   1924437.070 5   1471293.72746  24249923.14146
  23069133.156 6   1520158.520 6   1171499.03947  23069131.97747
  21808955.063 7    824714.117 7    635687.75048  21808952.73448
  20542136.570 7    -92298.285 7    -70746.50448  20542132.38748
  20413561.250 7   -409172.742 7   -314966.47349  20413561.42649
  24314462.852 5   1437432.172 5   1084885.03946  24314461.11346
 16  7  7  7 37  0.0000000  0  8G06G12G13G15G17G19G24G28            
  23953331.242 5  -1507866.555 5  -1141994.58246  23953333.69546
  22009736.211 6  -1339963.117 6  -1025498.44148  22009733.79348
  24261561.547 5   1985595.102 5   1518949.28546  24261561.23846
  23078236.781 6   1567998.535 6   1208776.94547  23078235.29747
  21814161.148 7    852072.000 7    657005.57448  21814158.94548
  20542172.383 7    -92108.727 7    -70598.80148  20542168.34048
  20411596.203 7   -419499.430 7   -323013.25049  20411596.27349
  24322920.336 5   1481878.023 5   1119518.15646  24322918.76646
 16  7  7  7 37 15.0000000  0  8G06G12G13G15G17G19G24G28            
  23944985.133 5  -1551728.355 5  -1176172.56346  23944987.15646
  22002387.773 6  -1378579.430 6  -1055589.05948  22002385.30948
  24273204.328 5   2046779.180 5   1566625.12546  24273203.57046
  23087355.664 6   1615914.941 6   1246114.37147  23087354.10247
  21819390.570 7    879553.313 7    678419.57448  21819388.68048
  20542241.781 7    -91742.746 7    -70313.61748  20542237.49648
  20409655.805 7   -429697.012 7   -330959.42249  20409655.60249
  24331381.469 5   1526343.250 5   1154166.32046  24331380.03146
 16  7  7  7 37 30.0000000  0  8G06G12G13G15G17G19G24G28            
  23936650.391 5  -1595529.984 5  -1210303.66047  23936651.62947
  21995053.273 7  -1417123.547 7  -1085623.42648  21995050.61348
  24284851.891 4   2107988.074 4   1614320.29746  24284851.23846
  23096487.781 6   1663906.500 6   1283510.36347  23096486.42647
  21824643.727 7    907156.867 7    699928.82048  21824641.33648
  20542344.922 7    -91201.316 7    -69891.73848  20542340.88348
  20407739.789 7   -439766.082 7   -338805.45749  20407739.81349
  24339846.516 4   1570826.977 4   1188828.90246  24339845.04346
 16  7  7  7 37 45.0000000  0  8G06G12G13G15G17G19G24G28            
  23928326.477 6  -1639271.703 6  -1244388.07847  23928328.18847
  21987732.094 7  -1455596.199 7  -1115602.10948  21987729.65248
  24296504.359 3   2169220.645 3   1662033.96545  24296503.19545
  23105633.844 6   1711972.043 6   1320963.99647  23105633.20347
  21829919.281 7    934881.664 7    721532.55148  21829916.96148
  20542481.469 7    -90485.301 7    -69333.79748  20542477.01648
  20405847.953 7   -449707.648 7   -346552.13349  20405847.74649
  24348314.719 4   1615328.395 4   1223505.30546  24348314.21146
 16  7  7  7 38  0.0000000  0  8G06G12G13G15G17G19G24G28            
  23920014.172 6  -1682953.340 6  -1278425.66847  23920016.24647
  21980424.633 7  -1493997.301 7  -1145525.03948  21980422.31348
  24308160.383 3   2230476.199 3   1709765.43045  24308160.38345
  23114794.859 6   1760111.051 6   1358474.87547  23114794.12147
  21835217.961 7    962727.258 7    743230.41448  21835215.86748
  20542650.820 7    -89594.957 7    -68640.02348  20542646.58648
  20403980.500 7   -459521.258 7   -354199.10549  20403980.23449
  24356786.227 5   1659847.137 5   1258195.16846  24356785.81646
 16  7  7  7 38 15.0000000  0  8G06G12G13G15G17G19G24G28            
  23911712.531 6  -1726575.977 6  -1312417.27347  23911715.37547
  21973130.563 6  -1532328.184 6  -1175393.24648  21973128.14548
  24319821.727 3   2291753.168 3   1757513.67245  24319820.93845
  23123969.430 6   1808321.691 6   1396041.57047  23123968.37547
  21840539.656 7    990692.051 7    765021.15248  21840537.72748
  20542853.250 7    -88531.699 7    -67811.51648  20542849.03548
  20402136.734 7   -469208.820 7   -361747.86349  20402136.56349
  24365261.297 4   1704381.777 4   1292897.45746  24365260.85546
 16  7  7  7 38 30.0000000  0  8G06G12G13G15G17G19G24G28            
  23903423.164 6  -1770138.781 6  -1346362.29347  23903425.03147
  21965849.672 7  -1570588.371 7  -1205206.37148  21965847.02748
  24331487.180 4   2353051.434 4   1805278.50445  24331486.83245
  23133157.070 6   1856604.090 6   1433664.19147  23133156.25047
  21845883.883 7   1018776.207 7    786904.89848  21845881.92248
  20543088.219 7    -87295.215 7    -66848.02048  20543084.02348
  20400317.742 7   -478769.172 7   -369197.48449  20400317.82049
  24373740.164 4   1748932.711 4   1327612.41446  24373738.56346
 16  7  7  7 38 45.0000000  0  8G06G12G13G15G17G19G24G28            
  23895144.086 5  -1813641.949 5  -1380260.82847  23895146.94947
  21958582.109 6  -1608778.445 6  -1234964.86748  21958579.94948
  24343154.789 3   2414370.285 3   1853059.45345  24343155.44545
  23142358.609 6   1904957.180 6   1471341.88747  23142357.25847
  21851251.023 7   1046978.660 7    808880.82848  21851248.53548
  20543356.477 7    -85886.180 7    -65750.07448  20543352.21148
  20398522.227 7   -488203.145 7   -376548.63749  20398522.53949
  24382220.250 5   1793499.008 5   1362339.34046  24382219.33646
 16  7  7  7 39  0.0000000  0  8G06G12G13G15G17G19G24G28            
  23886877.344 6  -1857085.910 6  -1414113.23047  23886879.84447
  21951328.383 6  -1646899.016 6  -1264669.19548  21951325.89548
  24354827.320 4   2475708.402 4   1900855.28145  24354828.22745
  23151573.211 6   1953380.008 6   1509073.92647  23151571.43847
  21856639.711 7   1075298.574 7    830948.27748  21856637.63748
  20543657.430 7    -84305.352 7    -64518.25848  20543653.44148
  20396751.117 7   -497510.938 7   -383801.46549  20396751.18449
  24390703.688 4   1838080.059 4   1397077.74646  24390703.03546
 16  7  7  7 39 15.0000000  0  7G06G12G15G17G19G24G28               
  23878621.016 5  -1900469.906 5  -1447918.91447  23878623.97747
  21944087.563 6  -1684949.625 6  -1294319.02048  21944085.16448
  23160801.023 6   2001872.512 6   1546860.27047  23160799.37947
  21862051.570 7   1103736.063 7    853107.34448  21862048.96548
  20543991.109 7    -82552.410 7    -63152.33248  20543986.70748
  20395003.836 7   -506692.520 7   -390955.94549  20395003.99649
  24399190.172 4   1882675.930 4   1431827.73446  24399189.46946
 16  7  7  7 39 30.0000000  0  7G06G12G15G17G19G24G28               
  23870376.602 5  -1943795.543 5  -1481679.12546  23870378.95346
  21936859.406 6  -1722932.113 6  -1323915.76248  21936857.57448
  23170042.078 6   2050432.250 6   1584698.98847  23170040.18047
  21867484.891 7   1132288.992 7    875356.37148  21867482.56648
  20544357.094 7    -80629.398 7    -61653.89548  20544352.87148
  20393280.453 7   -515749.703 7   -398013.49649  20393280.29349
  24407678.914 5   1927284.629 5   1466587.71946  24407677.86746
 16  7  7  7 39 45.0000000  0  7G06G12G15G17G19G24G28               
  23862142.766 5  -1987060.594 5  -1515392.12546  23862146.18846
  21929644.789 6  -1760844.512 6  -1353457.87948  21929642.60548
  23179295.914 6   2099060.688 6   1622591.25447  23179294.03147
  21872940.586 7   1160958.844 7    897696.51248  21872938.21148
  20544755.367 7    -78534.512 7    -60021.51648  20544751.13748
  20391581.141 7   -524680.430 7   -404972.50849  20391581.05949
  24416170.555 5   1971907.805 5   1501358.97346  24416169.11746
 16  7  7  7 40  0.0000000  0  7G06G12G15G17G19G24G28               
  23853922.477 5  -2030264.680 5  -1549057.62146  23853924.35246
  21922443.773 6  -1798686.914 6  -1382945.45748  21922441.16048
  23188562.250 6   2147757.492 6   1660536.78147  23188561.09847
  21878418.172 7   1189745.414 7    920127.59848  21878415.75848
  20545186.797 7    -76267.879 7    -58255.30548  20545182.34448
  20389905.492 7   -533484.328 7   -411832.69149  20389905.37949
  24424664.789 5   2016545.453 5   1536141.51246  24424663.52046
 16  7  7  7 40 15.0000000  0  7G06G12G15G17G19G24G28               
  23845712.695 5  -2073406.547 5  -1582674.66047  23845715.14847
  21915256.242 6  -1836458.223 6  -1412377.63748  21915254.04348
  23197841.992 6   2196523.211 6   1698536.01247  23197840.46547
  21883918.563 7   1218649.223 7    942650.03548  21883916.03548
  20545650.813 7    -73828.797 7    -56354.73048  20545646.46548
  20388254.609 7   -542160.668 7   -418593.47749  20388254.43449
  24433162.039 5   2061198.344 5   1570935.91846  24433160.86746
 16  7  7  7 40 30.0000000  0  7G06G12G15G17G19G24G28               
  23837514.297 5  -2116486.094 5  -1616243.12946  23837517.17646
  21908082.328 7  -1874158.520 7  -1441754.47748  21908079.79748
  23207134.977 6   2245357.277 6   1736588.49647  23207133.59047
  21889440.758 7   1247669.832 7    965263.48048  21889437.96548
  20546147.672 7    -71217.449 7    -54319.91448  20546143.54348
  20386628.133 7   -550709.273 7   -425254.73449  20386627.80549
  24441661.891 5   2105866.301 5   1605742.07046  24441660.59446
 16  7  7  7 40 45.0000000  0  7G06G12G15G17G19G24G28               
  23829328.969 4  -2159503.215 4  -1649762.92247  23829331.93047
  21900921.695 6  -1911788.078 6  -1471076.20748  21900919.37948
  23216440.336 6   2294258.871 6   1774693.61347  23216439.44547
  21894985.508 7   1276806.551 7    987967.41848  21894983.11748
  20546677.656 7    -68434.223 7    -52151.16448  20546672.82448
  20385025.273 7   -559130.711 7   -431816.89549  20385025.47749
  24450165.063 5   2150548.773 5   1640559.52346  24450163.91846
 16  7  7  7 41  0.0000000  0  7G06G12G15G17G19G24G28               
  23821154.133 4  -2202458.496 4  -1683234.55146  23821157.64146
  21893773.664 6  -1949347.797 6  -1500343.51248  21893771.80148
  23225758.906 6   2343226.805 6   1812850.40647  23225757.68047
  21900551.945 7   1306058.375 7   1010761.03548  21900549.52748
  20547239.656 7    -65480.230 7    -49849.36348  20547235.48848
  20383446.656 7   -567426.000 7   -438280.75849  20383446.76649
  24458670.266 6   2195244.746 6   1675387.50846  24458669.45346
 16  7  7  7 41 15.0000000  0  7G06G12G15G17G19G24G28               
  23812991.813 3  -2245352.398 3  -1716658.37146  23812994.51246
  21886639.430 6  -1986838.426 6  -1529556.97748  21886637.48448
  23235089.273 6   2392259.883 6   1851057.96947  23235088.36747
  21906140.063 7   1335424.211 7   1033643.48848  21906137.75848
  20547834.344 7    -62356.309 7    -47415.13748  20547830.07448
  20381892.336 7   -575595.012 7   -444646.22349  20381892.57049
  24467178.063 6   2239953.250 6   1710225.25846  24467177.12146
 16  7  7  7 41 30.0000000  0  7G06G12G15G17G19G24G28               
  23804841.016 3  -2288184.008 3  -1750033.63346  23804844.05546
  21879518.695 6  -2024259.355 6  -1558716.12548  21879516.73448
  23244432.563 6   2441358.164 6   1889316.33647  23244431.43447
  21911750.547 7   1364904.227 7   1056614.92248  21911747.46148
  20548461.164 7    -59062.098 7    -44848.22748  20548456.75448
  20380361.578 7   -583637.852 7   -450913.37149  20380362.02349
  24475688.469 6   2284674.660 6   1745073.04346  24475687.11746
 16  7  7  7 41 45.0000000  0  7G06G12G15G17G19G24G28               
  23796702.297 4  -2330954.902 4  -1783361.57846  23796705.03146
  21872410.758 6  -2061612.547 6  -1587822.49248  21872408.35548
  23253787.250 6   2490519.305 6   1927623.69947  23253785.84447
  21917380.992 7   1394496.234 7   1079673.62548  21917378.49648
  20549119.727 7    -55599.555 7    -42150.13748  20549115.84448
  20378855.039 7   -591555.980 7   -457083.34449  20378855.02049
  24484200.594 6   2329407.113 6   1779929.43846  24484198.96546
 16  7  7  7 42  0.0000000  0  7G06G12G15G17G19G24G28               
  23788574.945 3  -2373664.191 3  -1816641.54346  23788577.99646
  21865315.703 6  -2098897.113 6  -1616875.39548  21865313.16848
  23263154.859 6   2539743.613 6   1965980.27747  23263153.30547
  21923033.430 7   1424200.414 7   1102819.73448  21923031.27748
  20549811.094 7    -51968.152 7    -39320.47748  20549806.46148
  20377372.047 7   -599348.719 7   -463155.61349  20377371.81349
  24492714.992 6   2374150.980 6   1814794.72746  24492714.01646
 16  7  7  7 42 15.0000000  0  7G06G12G15G17G19G24G28               
  23780459.258 5  -2416311.273 5  -1849873.03546  23780462.86746
  21858233.570 7  -2136113.008 7  -1645874.78948  21858231.11748
  23272533.938 6   2589030.918 6   2004385.93047  23272532.50847
  21928707.438 7   1454016.797 7   1126053.27348  21928705.13748
  20550534.117 7    -48167.664 7    -36359.05548  20550530.10948
  20375913.109 7   -607015.898 7   -469130.04749  20375912.91449
  24501232.422 5   2418906.367 5   1849668.98446  24501230.49646
 16  7  7  7 42 30.0000000  0  7G06G12G15G17G19G24G28               
  23772355.922 4  -2458897.156 4  -1883056.80946  23772358.68046
  21851164.492 7  -2173261.469 7  -1674821.62948  21851162.46548
  23281924.297 6   2638379.367 6   2042839.23847  23281922.86747
  21934402.453 7   1483943.695 7   1149372.91848  21934400.01248
  20551289.148 7    -44199.871 7    -33267.27748  20551285.15248
  20374477.875 7   -614558.645 7   -475007.51649  20374477.60249
  24509750.000 5   2463671.727 5   1884551.03946  24509749.05146
 16  7  7  7 42 45.0000000  0  7G06G12G15G17G19G24G28               
  23764263.477 5  -2501420.391 5  -1916191.77346  23764266.87546
  21844108.516 7  -2210341.109 7  -1703714.84448  21844106.44148
  23291326.930 6   2687789.773 6   2081340.81347  23291326.05947
  21940118.797 7   1513982.000 7   1172779.38348  21940116.43848
  20552076.234 7    -40063.629 7    -30044.24248  20552072.09448
  20373066.375 7   -621975.820 7   -480787.13349  20373066.28949
  24518271.109 5   2508448.199 5   1919441.73446  24518270.19146
 16  7  7  7 43  0.0000000  0  7G06G12G15G17G19G24G28               
  23756183.398 5  -2543882.063 5  -1949278.75046  23756186.89546
  21837065.531 7  -2247353.223 7  -1732555.44148  21837062.90648
  23300740.594 6   2737260.301 6   2119889.25047  23300739.68847
  21945855.305 7   1544129.980 7   1196271.30148  21945853.43848
  20552895.242 7    -35760.563 7    -26691.19948  20552890.75048
  20371678.281 7   -629268.684 7   -486469.88349  20371678.46549
  24526793.992 5   2553234.215 5   1954339.88346  24526792.77346
 16  7  7  7 43 15.0000000  0  7G06G12G15G17G19G24G28               
  23748114.875 5  -2586282.102 5  -1982317.72746  23748118.63346
  21830035.195 7  -2284298.297 7  -1761343.80148  21830032.65648
  23310166.766 6   2786790.152 6   2158483.90247  23310165.10247
  21951613.258 7   1574387.082 7   1219848.26248  21951611.14848
  20553745.539 7    -31291.031 7    -23208.45748  20553741.47748
  20370314.234 7   -636437.680 7   -492056.12149  20370314.21949
  24535317.680 5   2598029.289 5   1989245.09046  24535316.97346
 16  7  7  7 43 30.0000000  0  7G06G12G15G17G19G24G28               
  23740059.422 5  -2628619.402 5  -2015307.78946  23740062.05146
  21823017.734 7  -2321175.480 7  -1790079.26648  21823015.62548
  23319603.039 6   2836379.539 6   2197124.95347  23319601.86347
  21957391.891 7   1604753.668 7   1243510.52748  21957389.99248
  20554628.156 7    -26654.422 7    -19595.52048  20554623.52048
  20368973.695 7   -643481.863 7   -497545.09849  20368973.93049
  24543844.578 5   2642833.988 5   2024157.78946  24543843.12546
 16  7  7  7 43 45.0000000  0  6G06G12G15G17G19G24                  
  23732014.234 6  -2670893.609 6  -2048248.69146  23732017.70346
  21816012.523 7  -2357984.746 7  -1818761.80148  21816010.38748
  23329051.016 6   2886028.406 6   2235812.35547  23329050.02347
  21963191.398 7   1635229.563 7   1267257.96148  21963188.87148
  20555542.211 7    -21850.750 7    -15852.40248  20555537.99248
  20367657.172 7   -650401.133 7   -502936.74249  20367657.10249
 16  7  7  7 44  0.0000000  0  6G06G12G15G17G19G24                  
  23723981.836 6  -2713105.723 6  -2081141.27346  23723985.16846
  21809021.102 7  -2394727.141 7  -1847392.23448  21809018.49648
  23338509.391 6   2935735.078 6   2274544.80147  23338508.48047
  21969011.516 7   1665813.340 7   1291089.46948  21969008.96948
  20556487.594 7    -16881.297 7    -11980.10248  20556483.53948
  20366363.898 7   -657196.570 7   -508231.89549  20366364.00449
 16  7  7  7 44 15.0000000  0  6G06G12G15G17G19G24                  
  23715960.992 6  -2755253.813 6  -2113983.91046  23715963.52746
  21802042.445 7  -2431401.305 7  -1875969.50848  21802039.72748
  23347979.781 6   2985500.410 6   2313322.94947  23347978.19147
  21974851.750 7   1696505.926 7   1315005.76648  21974849.26648
  20557465.156 7    -11744.961 7     -7977.76648  20557460.58248
  20365095.055 7   -663866.898 7   -513429.55949  20365094.68049
 16  7  7  7 44 30.0000000  0  6G06G12G15G17G19G24                  
  23707952.617 5  -2797336.926 5  -2146775.96546  23707955.02346
  21795076.758 7  -2468006.410 7  -1904492.95348  21795074.12948
  23357460.664 6   3035324.762 6   2352147.09047  23357459.94947
  21980712.852 7   1727307.680 7   1339007.11348  21980710.93448
  20558474.680 7     -6441.160 7     -3844.93448  20558470.23048
  20363849.359 7   -670410.941 7   -518528.81349  20363849.35949
 16  7  7  7 44 45.0000000  0  6G06G12G15G17G19G24                  
  23699956.820 5  -2839354.523 5  -2179516.93046  23699959.36346
  21788124.297 7  -2504542.195 7  -1932962.38748  21788122.02048
  23366953.289 6   3085208.023 6   2391017.12547  23366951.97747
  21986595.148 7   1758218.656 7   1363093.58648  21986592.96548
  20559515.523 7      -969.992 7       418.31648  20559511.02048
  20362628.242 7   -676828.590 7   -523529.58249  20362628.16449
 16  7  7  7 45  0.0000000  0  6G06G12G15G17G19G24                  
  23691973.977 6  -2881305.625 6  -2212206.07447  23691977.09447
  21781184.664 7  -2541008.063 7  -1961377.33648  21781182.37148
  23376457.586 6   3135150.363 6   2429933.20347  23376455.78147
  21992498.305 7   1789239.262 7   1387265.46948  21992496.05148
  20560588.563 7      4669.285 7      4812.56648  20560584.06348
  20361430.969 8   -683119.172 8   -528431.33649  20361431.38349
 16  7  7  7 45 15.0000000  0  6G06G12G15G17G19G24                  
  23684004.398 6  -2923189.793 6  -2244843.09046  23684006.72746
  21774259.070 7  -2577403.832 7  -1989737.66448  21774256.72748
  23385971.422 6   3185151.348 6   2468894.97747  23385971.02347
  21998422.234 7   1820369.109 7   1411522.48448  21998419.94548
  20561693.609 7     10476.641 7      9337.77048  20561689.61348
  20360258.227 7   -689282.594 7   -533234.00049  20360258.31649
 16  7  7  7 45 30.0000000  0  6G06G12G15G17G19G24                  
  23676046.109 6  -2965007.602 6  -2277428.37946  23676049.26246
  21767346.320 7  -2613730.238 7  -2018043.94948  21767343.94948
  23395496.984 6   3235209.738 6   2507901.47747  23395496.62947
  22004366.805 7   1851606.844 7   1435863.57448  22004364.76248
  20562830.375 7     16450.988 7     13993.10549  20562826.45749
  20359109.641 7   -695319.203 7   -537937.85949  20359109.31649
 16  7  7  7 45 45.0000000  0  6G06G12G15G17G19G24                  
  23668101.555 6  -3006759.293 6  -2309962.16446  23668103.85246
  21760446.453 7  -2649987.871 7  -2046296.62548  21760444.16048
  23405033.961 5   3285324.426 5   2546951.83247  23405033.09047
  22010331.477 7   1882951.656 7   1460288.09048  22010329.25848
  20563999.406 7     22591.508 7     18777.91848  20563994.71948
  20357985.016 7   -701229.934 7   -542543.62149  20357984.88749
 16  7  7  7 46  0.0000000  0  6G06G12G15G17G19G24                  
  23660168.281 5  -3048443.680 5  -2342443.50046  23660171.11346
  21753560.148 7  -2686175.816 7  -2074495.02348  21753557.89548
  23414581.781 6   3335496.160 6   2586046.66447  23414580.14847
  22016316.680 7   1914404.164 7   1484796.52348  22016314.12948
  20565199.430 7     28898.961 7     23692.80948  20565195.07448
  20356884.352 7   -707014.133 7   -547050.79349  20356883.73849
 16  7  7  7 46 15.0000000  0  6G06G12G15G17G19G24                  
  23652248.859 6  -3090061.531 6  -2374872.98446  23652251.46546
  21746687.086 7  -2722295.145 7  -2102639.94948  21746684.43048
  23424140.047 6   3385723.387 6   2625184.72347  23424138.10247
  22022321.891 7   1945962.988 7   1509387.80148  22022319.59048
  20566431.203 7     35372.020 7     28736.75048  20566426.86748
  20355807.430 7   -712672.488 7   -551459.90249  20355807.44149
 16  7  7  7 46 30.0000000  0  6G06G12G15G17G19G24                  
  23644341.992 6  -3131612.633 6  -2407250.46546  23644344.23046
  21739826.703 7  -2758346.031 7  -2130731.53548  21739824.35248
  23433708.133 6   3436005.422 6   2664365.49247  23433706.35247
  22028347.727 7   1977627.613 7   1534061.53148  22028345.16048
  20567694.336 7     42010.500 7     33909.58648  20567690.30548
  20354754.500 7   -718205.039 7   -555770.98849  20354754.87549
 16  7  7  7 46 45.0000000  0  6G06G12G15G17G19G24                  
  23636447.961 5  -3173097.363 5  -2439576.23046  23636450.28946
  21732979.602 7  -2794328.910 7  -2158770.12948  21732976.70748
  23443286.969 6   3486341.113 6   2703588.10547  23443284.69147
  22034393.102 7   2009397.133 7   1558816.98848  22034390.50048
  20568989.055 7     48813.574 7     39210.68448  20568984.72348
  20353725.391 7   -723612.301 7   -559984.43449  20353725.66849
 16  7  7  7 47  0.0000000  0  6G06G12G15G17G19G24                  
  23628566.680 6  -3214514.797 6  -2471849.54346  23628569.02346
  21726144.695 7  -2830243.262 7  -2186755.32448  21726142.41448
  23452875.930 6   3536730.621 6   2742852.61747  23452873.67647
  22040458.906 7   2041271.820 7   1583654.40248  22040456.38748
  20570314.813 7     55781.609 7     44640.32048  20570310.78948
  20352720.695 7   -728894.086 7   -564100.12149  20352720.51249
 16  7  7  7 47 15.0000000  0  6G06G12G15G17G19G24                  
  23620697.945 5  -3255865.684 5  -2504071.00047  23620700.34447
  21719323.625 7  -2866090.133 7  -2214687.94148  21719321.03548
  23462474.852 6   3587172.594 6   2782158.01647  23462472.91847
  22046544.188 7   2073250.305 7   1608572.68848  22046541.66848
  20571671.906 7     62913.449 7     50197.59448  20571667.89848
  20351738.969 7   -734051.016 7   -568118.50049  20351738.89149
 16  7  7  7 47 30.0000000  0  6G06G12G15G17G19G24                  
  23612841.727 5  -3297148.691 5  -2536239.54747  23612844.24247
  21712515.352 6  -2901868.527 6  -2242567.20748  21712512.73048
  23472083.617 6   3637667.617 6   2821504.77747  23472081.80947
  22052649.391 7   2105333.344 7   1633572.43848  22052646.81348
  20573060.703 7     70209.836 7     55883.09048  20573056.23048
  20350781.883 7   -739082.066 7   -572038.81349  20350781.66049
 16  7  7  7 47 45.0000000  0  6G06G12G15G17G19G24                  
  23604998.773 5  -3338364.246 5  -2568355.54746  23605001.45746
  21705719.734 6  -2937579.059 6  -2270393.59848  21705716.96548
  23481702.602 6   3688214.512 6   2860891.93847  23481700.48047
  22058774.031 7   2137519.609 7   1658652.63348  22058771.59848
  20574480.398 7     77669.754 7     61696.00048  20574476.16448
  20349848.086 7   -743987.867 7   -575861.51649  20349848.34849
 16  7  7  7 48  0.0000000  0  6G06G12G15G17G19G24                  
  23597169.180 5  -3379511.223 5  -2600418.11747  23597170.82847
  21698937.477 7  -2973220.863 7  -2298166.42248  21698934.67248
  23491331.172 6   3738813.590 6   2900319.76647  23491329.26247
  22064918.406 7   2169809.734 7   1683813.76248  22064916.11348
  20575930.828 7     85294.105 7     67637.05148  20575926.90648
  20348938.609 7   -748767.535 7   -579585.93849  20348938.59449
 16  7  7  7 48 15.0000000  0  6G06G12G15G17G19G24                  
  23589351.578 5  -3420589.441 5  -2632427.10547  23589353.32447
  21692167.875 7  -3008794.082 7  -2325885.80548  21692165.30548
  23500969.211 6   3789464.426 6   2939787.92647  23500967.56347
  22071083.242 7   2202203.270 7   1709055.46948  22071080.50048
  20577413.203 7     93082.582 7     73706.00048  20577408.77748
  20348053.008 7   -753421.461 7   -583212.37149  20348053.07849
 16  7  7  7 48 30.0000000  0  6G06G12G15G17G19G24                  
  23581547.766 5  -3461599.352 5  -2664382.85947  23581549.77047
  21685411.289 6  -3044299.453 6  -2353552.32448  21685408.82848
  23510617.563 6   3840165.645 6   2979295.33647  23510616.10247
  22077266.766 7   2234699.016 7   1734376.81648  22077264.54348
  20578926.422 7    101034.027 7     79901.92648  20578922.18048
  20347191.531 7   -757950.246 7   -586741.30149  20347191.29349
 16  7  7  7 48 45.0000000  0  6G06G12G15G17G19G24                  
  23573757.508 5  -3502540.559 5  -2696285.09047  23573759.32047
  21678667.969 6  -3079736.953 6  -2381165.95748  21678665.25448
  23520275.555 6   3890916.961 6   3018841.78147  23520273.83247
  22083469.789 7   2267296.879 7   1759777.74648  22083467.53948
  20580470.445 7    109148.359 7     86224.78148  20580465.98448
  20346353.320 7   -762353.797 7   -590172.64549  20346353.37549
 16  7  7  7 49  0.0000000  0  6G06G12G15G17G19G24                  
  23565979.336 5  -3543411.363 5  -2728132.43447  23565981.58647
  21671937.563 7  -3115105.066 7  -2408725.52348  21671934.84048
  23529942.680 6   3941719.340 6   3058428.00847  23529941.64847
  22089692.891 7   2299998.063 7   1785259.16848  22089690.24648
  20582045.984 7    117426.668 7     92675.40248  20582041.43448
  20345539.414 7   -766630.551 7   -593505.18449  20345539.27049
 16  7  7  7 49 15.0000000  0  6G06G12G15G17G19G24                  
  23558215.398 5  -3584212.848 5  -2759925.77747  23558217.47347
  21665220.133 6  -3150405.230 6  -2436232.13348  21665217.39148
  23539619.602 6   3992571.051 6   3098052.68847  23539618.48447
  22095934.594 7   2332800.738 7   1810819.68048  22095932.71548
  20583652.016 7    125867.586 7     99252.74248  20583647.48848
  20344749.594 7   -770781.840 7   -596739.95349  20344749.32049
 16  7  7  7 49 30.0000000  0  6G06G12G15G17G19G24                  
  23550463.969 5  -3624943.430 5  -2791663.85247  23550466.99647
  21658515.992 6  -3185635.996 6  -2463684.67248  21658513.60548
  23549306.211 6   4043472.801 6   3137716.35247  23549304.79347
  22102196.031 7   2365705.590 7   1836459.81348  22102193.86748
  20585289.328 7    134472.074 7    105957.53548  20585284.99648
  20343983.602 7   -774806.516 7   -599876.06649  20343983.15649
 16  7  7  7 49 45.0000000  0  6G06G12G15G17G19G24                  
  23542727.070 5  -3665603.949 5  -2823347.30947  23542729.16047
  21651825.086 6  -3220798.590 6  -2491084.09048  21651822.01648
  23559001.070 6   4094423.121 6   3177417.85247  23559000.44547
  22108477.156 7   2398711.254 7   1862178.50048  22108474.62548
  20586957.539 7    143238.867 7    112788.80548  20586953.27048
  20343241.719 7   -778705.734 7   -602914.42649  20343241.44149
 16  7  7  7 50  0.0000000  0  6G06G12G15G17G19G24                  
  23535002.344 5  -3706193.770 5  -2854975.68846  23535005.25846
  21645146.242 7  -3255892.617 7  -2518430.07048  21645144.26248
  23568706.102 6   4145421.895 6   3217157.12947  23568705.18047
  22114776.789 7   2431817.707 7   1887975.72348  22114774.83648
  20588656.602 7    152168.141 7    119746.68048  20588652.40248
  20342523.914 7   -782478.863 7   -605854.51649  20342523.37149
 16  7  7  7 50 15.0000000  0  6G06G12G15G17G19G24                  
  23527292.648 5  -3746711.633 5  -2886548.00047  23527294.81347
  21638481.602 6  -3290917.133 6  -2545721.89548  21638479.39548
  23578420.188 6   4196469.555 6   3256934.47347  23578419.09447
  22121096.695 7   2465025.750 7   1913852.10948  22121094.03148
  20590386.992 7    161260.590 7    126831.70748  20590383.14148
  20341829.617 7   -786125.156 7   -608695.79349  20341829.52049
 16  7  7  7 50 30.0000000  0  6G06G12G15G17G19G24                  
  23519596.172 5  -3787157.953 5  -2918064.59047  23519597.81647
  21631830.008 6  -3325872.613 6  -2572959.91848  21631827.67248
  23588143.031 6   4247564.910 6   3296749.01647  23588142.38747
  22127434.453 7   2498334.039 7   1939806.61348  22127432.17248
  20592148.164 7    170515.297 7    134043.16448  20592143.98048
  20341159.969 7   -789645.199 7   -611438.68849  20341159.69149
 16  7  7  7 50 45.0000000  0  6G06G12G15G17G19G24                  
  23511912.852 5  -3827532.352 5  -2949525.12947  23511915.09447
  21625191.016 6  -3360759.328 6  -2600144.35548  21625188.71948
  23597875.328 6   4298707.930 6   3336600.68447  23597874.56347
  22133792.211 7   2531742.625 7   1965839.26248  22133789.68848
  20593939.961 7    179932.012 7    141380.85948  20593935.57448
  20340514.383 7   -793038.680 7   -614082.96549  20340514.15249
 16  7  7  7 51  0.0000000  0  6G06G12G15G17G19G24                  
  23504244.039 5  -3867833.961 5  -2980928.92247  23504245.99647
  21618565.570 6  -3395576.625 6  -2627274.71148  21618563.30148
  23607617.023 6   4349898.449 6   3376489.36347  23607615.49647
  22140168.375 7   2565251.387 7   1991949.97348  22140166.34048
  20595762.867 7    189511.234 7    148845.18848  20595758.39148
  20339892.656 7   -796305.023 7   -616628.17249  20339892.55149
 16  7  7  7 51 15.0000000  0  6G06G12G15G17G19G24                  
  23496587.875 5  -3908062.871 5  -3012276.10546  23496590.53546
  21611953.391 7  -3430324.715 7  -2654351.12948  21611950.75448
  23617367.180 6   4401135.590 6   3416414.37547  23617365.67247
  22146564.398 7   2598859.707 7   2018138.26248  22146561.95748
  20597616.773 7    199252.375 7    156435.69148  20597612.19548
  20339295.344 7   -799445.008 7   -619074.90649  20339295.14549
 16  7  7  7 51 30.0000000  0  6G06G12G15G17G19G24                  
  23488946.305 5  -3948218.777 5  -3043566.37147  23488949.60247
  21605353.867 7  -3465003.504 7  -2681373.55548  21605351.67248
  23627126.180 6   4452419.063 6   3456375.49647  23627124.98847
  22152978.602 7   2632567.395 7   2044403.97748  22152976.52748
  20599501.039 7    209155.172 7    164152.14148  20599496.79748
  20338721.273 7   -802458.293 7   -621422.92649  20338721.32449
 16  7  7  7 51 45.0000000  0  6G06G12G15G17G19G24                  
  23481319.664 5  -3988301.391 5  -3074799.52047  23481322.14847
  21598767.977 7  -3499613.258 7  -2708342.18048  21598765.58248
  23636893.414 6   4503748.191 6   3496372.19147  23636892.45747
  22159411.688 7   2666373.969 7   2070746.74648  22159409.55148
  20601416.352 7    219219.387 7    171994.37948  20601412.47348
  20338172.477 7   -805344.992 7   -623672.30149  20338171.93049
 16  7  7  7 52  0.0000000  0  6G06G12G15G17G19G24                  
  23473705.875 5  -4028311.422 5  -3105976.13747  23473708.44947
  21592194.797 7  -3534154.758 7  -2735257.62948  21592192.39848
  23646669.586 6   4555121.746 6   3536403.50447  23646668.73447
  22165863.109 7   2700278.074 7   2097165.51248  22165861.35948
  20603361.930 7    229443.906 7    179961.53948  20603357.94548
  20337647.000 7   -808105.926 7   -625823.68049  20337646.86349
 16  7  7  7 52 15.0000000  0  6G06G12G15G17G19G24                  
  23466106.469 6  -4068245.840 6  -3137093.83647  23466108.97347
  21585635.172 7  -3568625.410 7  -2762117.86748  21585632.96148
  23656454.109 6   4606542.059 6   3576471.25047  23656453.41047
  22172334.500 7   2734282.152 7   2123662.18048  22172331.98848
  20605338.234 7    239831.102 7    188055.45348  20605334.30948
  20337146.164 7   -810738.434 7   -627874.99649  20337146.07449
 16  7  7  7 52 30.0000000  0  6G06G12G15G17G19G24                  
  23458521.281 5  -4108106.570 5  -3168154.11747  23458523.32047
  21579089.383 7  -3603027.410 7  -2788924.61348  21579086.35948
  23666247.398 6   4658006.410 6   3616573.30147  23666246.41847
  22178823.367 7   2768383.609 7   2150234.73048  22178821.53948
  20607345.383 7    250378.730 7    196274.38348  20607341.00448
  20336669.117 7   -813244.871 7   -629828.06349  20336668.79349
 16  7  7  7 52 45.0000000  0  6G06G12G15G17G19G24                  
  23450950.602 6  -4147892.285 6  -3199155.94147  23450952.66047
  21572555.836 7  -3637359.570 7  -2815676.94148  21572552.93848
  23676049.242 6   4709515.391 6   3656710.12547  23676048.94947
  22185331.453 7   2802583.125 7   2176883.68448  22185329.20748
  20609383.500 7    261087.457 7    204618.83648  20609378.91048
  20336216.305 7   -815623.895 7   -631681.84849  20336216.19949
 16  7  7  7 53  0.0000000  0  6G06G12G15G17G19G24                  
  23443393.789 5  -4187602.879 5  -3230099.22747  23443396.53547
  21566035.711 7  -3671622.090 7  -2842375.01248  21566033.55948
  23685859.961 6   4761068.203 6   3696881.12147  23685859.05147
  22191857.977 7   2836879.996 7   2203608.49648  22191855.77748
  20611451.859 7    271956.742 7    213088.41048  20611447.83648
  20335787.719 7   -817876.043 7   -633436.78549  20335787.98849
 16  7  7  7 53 15.0000000  0  6G06G12G15G17G19G24                  
  23435851.461 5  -4227237.609 5  -3260983.40647  23435853.88347
  21559529.156 7  -3705814.508 7  -2869018.44948  21559526.47348
  23695678.234 5   4812665.055 5   3737086.42247  23695677.88747
  22198403.344 7   2871274.594 7   2230409.46548  22198400.76648
  20613550.836 7    282987.031 7    221683.43449  20613546.86749
  20335383.594 7   -820000.641 7   -635092.32049  20335383.24249
 16  7  7  7 53 30.0000000  0  6G06G12G15G17G19G24                  
  23428323.672 5  -4266796.160 5  -3291808.25447  23428325.86747
  21553035.828 7  -3739936.910 7  -2895607.33248  21553033.43048
  23705504.523 6   4864305.441 6   3777325.62947  23705504.56347
  22204966.563 7   2905766.414 7   2257286.19548  22204964.62148
  20615680.188 7    294177.906 7    230403.57848  20615676.16048
  20335003.375 7   -821997.664 7   -636648.44949  20335003.26249
 16  7  7  7 53 45.0000000  0  6G06G12G15G17G19G24                  
  23420810.414 5  -4306277.977 5  -3322573.30547  23420812.84047
  21546556.375 7  -3773988.926 7  -2922141.37548  21546553.85948
  23715340.313 6   4915989.191 6   3817598.60947  23715339.50047
  22211549.109 7   2940355.512 7   2284238.71148  22211546.36348
  20617840.633 7    305529.477 7    239248.94148  20617836.15648
  20334647.563 7   -823866.816 7   -638104.94549  20334647.61749
 16  7  7  7 54  0.0000000  0  6G06G12G15G17G19G24                  
  23413311.594 5  -4345683.418 5  -3353278.81347  23413313.82047
  21540089.367 7  -3807971.148 7  -2948621.01248  21540087.07848
  23725183.891 6   4967715.203 6   3857904.55147  23725182.82047
  22218149.328 7   2975040.715 7   2311266.12948  22218146.98048
  20620031.148 7    317040.875 7    248218.86748  20620026.84848
  20334316.305 7   -825608.949 7   -639462.45749  20334316.23849
 16  7  7  7 54 15.0000000  0  6G06G12G15G17G19G24                  
  23405827.930 5  -4385011.793 5  -3383924.25447  23405829.68847
  21533636.391 7  -3841883.109 7  -2975045.91448  21533634.03948
  23735034.547 6   5019483.473 6   3898243.41447  23735033.85247
  22224767.703 7   3009822.199 7   2338368.55948  22224765.69548
  20622252.016 7    328712.355 7    257313.50848  20622247.74648
  20334008.930 7   -827223.336 7   -640720.43449  20334008.84849
 16  7  7  7 54 30.0000000  0  6G06G12G15G17G19G24                  
  23398358.414 5  -4424262.371 5  -3414509.12547  23398360.46947
  21527196.688 7  -3875724.527 7  -3001415.84848  21527193.77748
  23744894.680 6   5071293.977 6   3938615.19147  23744893.29747
  22231404.914 7   3044699.949 7   2365546.01248  22231402.83248
  20624503.602 7    340543.891 7    266532.87548  20624499.37548
  20333726.125 7   -828709.668 7   -641878.61349  20333725.96549
 16  7  7  7 54 45.0000000  0  6G06G12G15G17G19G24                  
  23390904.883 6  -4463434.984 6  -3445033.20747  23390906.91847
  21520769.961 7  -3909495.375 7  -3027730.77748  21520767.31648
  23754761.531 6   5123146.191 6   3979019.48847  23754760.71147
  22238060.375 7   3079673.578 7   2392798.16048  22238057.53548
  20626785.773 7    352535.320 7    275876.84448  20626781.41048
  20333467.883 7   -830067.770 7   -642936.89549  20333467.78149
 16  7  7  7 55  0.0000000  0  6G06G12G15G17G19G24                  
  23383465.039 6  -4502529.219 6  -3475496.21947  23383467.30147
  21514356.742 7  -3943195.699 7  -3053990.77048  21514354.67648
  23764636.125 6   5175039.652 6   4019455.91447  23764635.21147
  22244733.688 7   3114742.855 7   2420124.85948  22244731.36748
  20629097.758 7    364686.449 7    285345.25048  20629093.64148
  20333233.633 7   -831297.766 7   -643895.32849  20333233.80949
 16  7  7  7 55 15.0000000  0  6G06G12G15G17G19G24                  
  23376040.680 6  -4541544.480 6  -3505897.69547  23376043.38747
  21507957.438 7  -3976825.082 7  -3080195.47748  21507954.76248
  23774519.195 6   5226974.328 6   4059924.45347  23774517.92247
  22251425.406 7   3149907.621 7   2447525.95748  22251422.93848
  20631440.430 7    376997.414 7    294938.21948  20631436.35948
  20333024.078 7   -832399.441 7   -644753.78949  20333024.32449
 16  7  7  7 55 30.0000000  0  6G06G12G15G17G19G24                  
  23368631.250 6  -4580480.879 6  -3536237.71947  23368633.63747
  21501571.695 7  -4010383.938 7  -3106345.23048  21501568.77748
  23784409.445 6   5278949.457 6   4100424.50447  23784408.66847
  22258135.117 7   3185167.234 7   2475000.96548  22258132.80548
  20633813.648 7    389467.520 7    304655.19148  20633809.25048
  20332838.727 7   -833373.168 7   -645512.54349  20332838.84049
 16  7  7  7 55 45.0000000  0  6G06G12G15G17G19G24                  
  23361237.055 6  -4619338.098 6  -3566516.05547  23361239.53547
  21495198.953 7  -4043872.059 7  -3132439.86348  21495196.23848
  23794308.102 6   5330964.555 6   4140955.71547  23794306.75847
  22264862.531 7   3220521.301 7   2502549.56348  22264860.38748
  20636216.508 7    402096.602 7    314496.02348  20636212.25448
  20332677.906 7   -834218.914 7   -646171.56649  20332677.85549
 16  7  7  7 56  0.0000000  0  6G06G12G15G17G19G24                  
  23353857.484 6  -4658114.824 6  -3596731.68447  23353859.85547
  21488839.852 7  -4077288.391 7  -3158478.55948  21488836.96548
  23804213.539 6   5383020.262 6   4181518.57047  23804212.56647
  22271608.617 7   3255970.441 7   2530172.25848  22271606.51248
  20638650.211 6    414885.426 6    324461.33248  20638646.23448
  20332541.570 7   -834935.566 7   -646730.00449  20332541.45749
 16  7  7  7 56 15.0000000  0  6G06G12G15G17G19G24                  
  23346493.703 6  -4696811.352 6  -3626884.80947  23346496.47747
  21482494.492 7  -4110633.816 7  -3184462.00448  21482492.13348
  23814127.031 6   5435115.430 6   4222112.16047  23814125.71147
  22278372.352 7   3291514.039 7   2557868.54348  22278370.53548
  20641114.078 7    427833.129 7    334550.45748  20641110.02748
  20332429.258 7   -835523.789 7   -647188.37949  20332429.38749
 16  7  7  7 56 30.0000000  0  6G06G12G15G17G19G24                  
  23339145.563 6  -4735428.250 6  -3656975.87547  23339147.81347
  21476162.938 7  -4143909.008 7  -3210390.72748  21476160.02348
  23824047.711 6   5487248.813 6   4262735.52747  23824045.79347
  22285153.984 7   3327150.715 7   2585637.36348  22285151.35948
  20643607.977 7    440938.668 7    344762.55948  20643603.54748
  20332342.328 7   -835984.277 7   -647547.19949  20332341.77049
 16  7  7  7 56 45.0000000  0  6G06G12G15G17G19G24                  
  23331812.211 6  -4773964.066 6  -3687003.76647  23331814.60947
  21469844.320 7  -4177112.953 7  -3236263.92248  21469841.12948
  23833975.867 6   5539421.008 6   4303389.14547  23833974.14147
  22291953.086 7   3362880.922 7   2613479.05948  22291951.27748
  20646132.008 7    454202.777 7    355098.22348  20646128.12148
  20332278.766 7   -836316.238 7   -647805.87949  20332278.58649
 16  7  7  7 57  0.0000000  0  6G06G12G15G17G19G24                  
  23324494.773 6  -4812418.449 6  -3716968.19947  23324496.85547
  21463539.094 7  -4210245.387 7  -3262081.39848  21463536.66848
  23843910.867 6   5591631.820 6   4344072.84446  23843909.40246
  22298769.867 7   3398704.637 7   2641393.61748  22298767.74648
  20648686.477 7    467625.398 7    365557.40648  20648681.84848
  20332240.016 7   -836519.289 7   -647964.10249  20332239.94549
 16  7  7  7 57 15.0000000  0  6G06G12G15G17G19G24                  
  23317192.781 6  -4850790.918 6  -3746868.79747  23317194.37947
  21457247.922 7  -4243306.129 7  -3287843.00848  21457245.43048
  23853853.844 6   5643880.844 6   4384786.34046  23853852.19146
  22305604.625 7   3434621.621 7   2669380.86348  22305603.16448
  20651270.781 7    481206.410 7    376140.01248  20651266.59848
  20332225.750 7   -836593.254 7   -648021.74649  20332225.61749
 16  7  7  7 57 30.0000000  0  6G06G12G15G17G19G24                  
  23309906.828 6  -4889080.586 6  -3776704.88347  23309908.17647
  21450970.656 7  -4276294.586 7  -3313548.29348  21450967.98048
  23863803.922 6   5696168.344 6   4425529.80547  23863802.16847
  22312457.641 7   3470632.164 7   2697441.01648  22312455.10548
  20653885.273 7    494946.270 7    386846.39848  20653880.98848
  20332236.648 7   -836537.660 7   -647978.42649  20332236.50449
 16  7  7  7 57 45.0000000  0  6G06G12G15G17G19G24                  
  23302635.789 6  -4927288.176 6  -3806477.00847  23302637.37547
  21444706.266 7  -4309211.613 7  -3339197.91048  21444704.09448
  23873760.891 6   5748492.820 6   4466302.09847  23873759.65647
  22319327.523 7   3506734.875 7   2725572.98448  22319325.23048
  20656529.922 7    508843.707 7    397675.56648  20656525.96148
  20332271.781 7   -836353.355 7   -647834.81649  20332271.77049
 16  7  7  7 58  0.0000000  0  6G06G12G15G17G19G24                  
  23295380.961 6  -4965413.152 6  -3836184.75847  23295382.71547
  21438456.313 7  -4342057.066 7  -3364791.76648  21438453.73848
  23883725.094 6   5800854.168 6   4507103.10947  23883723.84047
  22326215.188 7   3542929.660 7   2753776.69948  22326212.71948
  20659204.500 7    522898.633 7    408627.45748  20659200.51648
  20332331.633 7   -836039.859 7   -647590.54349  20332331.73049
 16  7  7  7 58 15.0000000  0  6G06G12G15G17G19G24                  
  23288141.813 6  -5003455.348 6  -3865828.00447  23288143.78947
  21432219.633 7  -4374831.137 7  -3390329.99648  21432217.34048
  23893696.313 6   5853251.781 6   4547932.37947  23893695.10947
  22333120.445 7   3579216.148 7   2782051.87548  22333117.92648
  20661909.133 7    537110.672 7    419701.77048  20661904.60548
  20332415.930 7   -835597.855 7   -647246.13349  20332415.63749
 16  7  7  7 58 30.0000000  0  6G06G12G15G17G19G24                  
  23280918.375 6  -5041414.242 6  -3895406.32847  23280920.35247
  21425996.477 7  -4407533.621 7  -3415812.43848  21425993.70348
  23903674.008 6   5905685.488 6   4588789.76646  23903672.05946
  22340042.453 7   3615594.164 7   2810398.36348  22340040.06648
  20664643.539 7    551479.770 7    430898.46148  20664639.15648
  20332524.070 7   -835026.754 7   -646801.12149  20332524.05549
 16  7  7  7 58 45.0000000  0  6G06G12G15G17G19G24                  
  23273711.539 6  -5079288.813 6  -3924918.95347  23273712.65247
  21419786.859 7  -4440163.637 7  -3441238.41048  21419784.67248
  23913658.969 6   5958155.480 6   4629675.44146  23913657.77346
  22346982.992 7   3652064.039 7   2838816.42248  22346980.70348
  20667407.594 7    566006.430 7    442217.94148  20667403.11348
  20332657.578 7   -834326.016 7   -646255.08249  20332657.44149
 16  7  7  7 59  0.0000000  0  6G06G12G15G17G19G24                  
  23266520.008 6  -5117078.652 6  -3954365.58247  23266521.78147
  21413591.359 7  -4472721.035 7  -3466607.80148  21413588.59448
  23923650.367 6   6010661.484 6   4670589.16447  23923649.07847
  22353940.445 7   3688625.531 7   2867305.87148  22353938.28148
  20670202.203 7    580690.641 7    453660.18048  20670197.71148
  20332815.500 7   -833495.426 7   -645607.88349  20332815.43049
 16  7  7  7 59 15.0000000  0  7G06G12G15G17G19G24G32               
  23259344.734 6  -5154784.391 6  -3983746.62947  23259346.24247
  21407409.695 7  -4505206.789 7  -3491921.36748  21407407.14148
  23933648.383 6   6063202.121 6   4711529.89147  23933647.64547
  22360915.078 7   3725277.387 7   2895865.73448  22360912.79748
  20673026.063 7    595531.047 7    465224.13748  20673021.79348
  20332998.008 7   -832536.105 7   -644860.36349  20332997.73849
  24439723.45316    -91993.15616    -64428.71156  24439724.04356
 16  7  7  7 59 30.0000000  0  7G06G12G15G17G19G24G32               
  23252184.906 6  -5192406.859 6  -4013062.81347  23252187.03547
  21401241.430 7  -4537621.941 7  -3517179.91848  21401239.07848
  23943652.984 6   6115775.883 6   4752496.43047  23943652.20747
  22367906.539 7   3762018.145 7   2924494.86348  22367904.34848
  20675879.297 7    610526.453 7    476908.85948  20675875.41048
  20333204.961 7   -831448.832 7   -644013.13749  20333204.76649
  24433136.164 6   -126608.371 6    -91401.58646  24433137.62946
 16  7  7  7 59 45.0000000  0  7G06G12G15G17G19G24G32               
  23245041.477 6  -5229944.914 6  -4042313.20747  23245044.10247
  21395086.445 7  -4569965.770 7  -3542382.88748  21395083.66848
  23953664.258 5   6168383.180 5   4793489.08647  23953662.77347
  22374915.141 7   3798848.484 7   2953193.81648  22374912.70748
  20678762.539 7    625677.305 7    488714.71548  20678758.48448
  20333436.820 7   -830233.055 7   -643065.78549  20333436.29349
  24426568.695 6   -161118.781 6   -118292.82046  24426570.19946
 16  7  7  8  0  0.0000000  0  7G06G12G15G17G19G24G32               
  23237913.969 6  -5267400.563 6  -4071499.39847  23237916.59447
  21388944.852 7  -4602240.461 7  -3567531.99248  21388942.30148
  23963679.938 5   6221021.152 5   4834505.64146  23963679.67246
  22381940.070 7   3835765.539 7   2981960.33648  22381937.87148
  20681674.828 7    640981.031 7    500639.68848  20681670.98448
  20333691.813 7   -828890.840 7   -642019.91049  20333691.69149
  24420021.398 6   -195526.578 6   -145104.10546  24420023.06346
 16  7  7  8  0 15.0000000  0  7G06G12G15G17G19G24G32               
  23230801.836 6  -5304772.578 6  -4100620.41447  23230805.01247
  21382816.609 7  -4634444.988 7  -3592626.41448  21382813.77048
  23973703.016 6   6273690.438 6   4875546.59846  23973702.52746
  22388981.828 7   3872769.887 7   3010794.88348  22388979.55548
  20684616.102 7    656438.344 7    512684.34848  20684612.15648
  20333971.750 7   -827421.371 7   -640874.86749  20333971.09449
  24413494.023 6   -229830.563 6   -171834.47746  24413495.30546
 16  7  7  8  0 30.0000000  0  7G06G12G15G17G19G24G32               
  23223707.273 6  -5342059.957 6  -4129675.49247  23223709.37947
  21376701.773 7  -4666578.699 7  -3617665.66448  21376699.03148
  23983730.836 5   6326391.207 5   4916612.09846  23983730.86346
  22396040.008 7   3909861.875 7   3039697.71948  22396037.41448
  20687586.680 7    672049.719 7    524849.06348  20687583.10548
  20334275.703 7   -825823.785 7   -639629.99649  20334275.33249
  24406985.438 6   -264029.785 6   -198483.22746  24406986.78546
 16  7  7  8  0 45.0000000  0  7G06G12G15G17G19G24G32               
  23216627.438 6  -5379262.480 6  -4158664.44147  23216628.93447
  21370600.586 7  -4698641.648 7  -3642649.77048  21370598.01648
  23993765.961 5   6379123.066 5   4957701.81647  23993765.66847
  22403115.320 7   3947041.078 7   3068668.50848  22403113.06348
  20690586.852 7    687814.844 7    537133.57048  20690582.53948
  20334603.500 7   -824098.402 7   -638285.55149  20334603.93049
  24400497.547 6   -298124.113 6   -225050.24246  24400498.40646
 16  7  7  8  1  0.0000000  0  7G06G12G15G17G19G24G32               
  23209564.211 6  -5416379.105 6  -4187586.44947  23209566.53147
  21364512.859 7  -4730632.891 7  -3667578.00848  21364510.21548
  24003806.531 5   6431886.359 5   4998816.03947  24003806.42647
  22410206.852 7   3984307.969 7   3097707.62548  22410204.81648
  20693616.211 7    703734.152 7    549538.22348  20693611.98048
  20334956.664 7   -822244.551 7   -636840.98849  20334956.55149
  24394030.633 6   -332112.594 6   -251534.76246  24394031.11746
 16  7  7  8  1 15.0000000  0  7G06G12G15G17G19G24G32               
  23202518.273 6  -5453408.301 6  -4216440.32447  23202520.57047
  21358438.586 7  -4762551.375 7  -3692449.54348  21358436.02348
  24013853.109 5   6484681.938 5   5039955.40646  24013853.17246
  22417315.125 7   4021663.512 7   3126815.82448  22417313.80548
  20696674.992 7    719808.672 7    562063.81648  20696671.01248
  20335334.070 7   -820260.762 7   -635295.18849  20335333.65649
  24387582.750 6   -365993.770 6   -277935.68046  24387583.54346
 16  7  7  8  1 30.0000000  0  7G06G12G15G17G19G24G32               
  23195488.250 6  -5490350.738 6  -4245226.62147  23195490.16047
  21352378.391 7  -4794398.016 7  -3717265.09848  21352376.00848
  24023905.898 5   6537508.293 5   5081118.77347  24023905.59047
  22424440.781 7   4059106.391 7   3155992.07048  22424438.55148
  20699763.500 7    736037.090 7    574709.33648  20699759.32448
  20335735.859 7   -818148.156 7   -633649.00449  20335735.84049
  24381155.305 6   -399768.402 6   -304253.54746  24381156.50846
 16  7  7  8  1 45.0000000  0  7G06G12G15G17G19G24G32               
  23188474.250 6  -5527204.738 6  -4273943.99247  23188477.20347
  21346332.125 7  -4826171.309 7  -3742023.49648  21346330.01648
  24033965.031 5   6590366.305 5   5122306.80947  24033964.14547
  22431582.570 7   4096637.398 7   3185236.99648  22431580.59448
  20702880.969 7    752420.621 7    587475.71948  20702876.75448
  20336162.852 7   -815905.348 7   -631901.37149  20336163.10549
  24374748.984 6   -433434.855 6   -330487.14846  24374749.87946
 16  7  7  8  2  0.0000000  0  7G06G12G15G17G19G24G32               
  23181478.445 6  -5563970.383 6  -4302592.50447  23181481.75447
  21340299.711 7  -4857871.598 7  -3766725.01648  21340297.18448
  24044029.094 6   6643255.336 6   5163519.00447  24044028.32447
  22438741.141 7   4134255.969 7   3214550.15248  22438739.05548
  20706028.125 7    768958.570 7    600362.43048  20706024.29348
  20336614.516 7   -813532.297 7   -630052.24249  20336614.24649
  24368362.953 6   -466993.332 6   -356636.60946  24368363.44546
 16  7  7  8  2 15.0000000  0  7G06G12G15G17G19G24G32               
  23174498.969 6  -5600648.492 6  -4331172.80147  23174501.55147
  21334280.617 7  -4889500.117 7  -3791370.60248  21334278.51248
  24054099.758 6   6696173.773 6   5204754.10947  24054098.56647
  22445915.961 7   4171960.605 7   3243930.38348  22445913.92648
  20709204.188 7    785649.543 7    613368.37948  20709200.02748
  20337090.578 7   -811030.660 7   -628102.91849  20337090.60249
  24361997.914 6   -500444.781 6   -382702.66446  24361998.22746
 16  7  7  8  2 30.0000000  0  7G06G12G15G17G19G24G32               
  23167535.867 6  -5637237.242 6  -4359683.46947  23167538.72347
  21328276.352 7  -4921055.141 7  -3815958.91848  21328273.66048
  24064175.836 6   6749122.793 6   5246013.05547  24064174.46547
  22453107.633 7   4209752.602 7   3273378.66448  22453105.18048
  20712410.117 7    802494.980 7    626494.68448  20712405.84048
  20337591.242 7   -808398.633 7   -626051.99249  20337591.54349
  24355652.508 6   -533787.293 6   -408683.83246  24355653.98446
 16  7  7  8  2 45.0000000  0  7G06G12G15G17G19G24G32               
  23160590.906 6  -5673735.676 6  -4388123.78947  23160592.81647
  21322285.531 7  -4952536.152 7  -3840489.56648  21322283.33248
  24074257.039 6   6802102.555 6   5287295.94547  24074256.04347
  22460315.945 7   4247632.238 7   3302895.25848  22460313.61348
  20715645.328 7    819495.047 7    639741.48848  20715640.69548
  20338117.180 7   -805635.648 7   -623899.02349  20338117.25049
  24349328.523 6   -567020.141 6   -434579.57446  24349329.92646
 16  7  7  8  3  0.0000000  0  7G06G12G15G17G19G24G32               
  23153662.781 6  -5710143.113 6  -4416493.15647  23153664.78547
  21316308.859 7  -4983942.656 7  -3864962.15648  21316306.67248
  24084345.516 6   6855112.941 6   5328602.69147  24084343.63747
  22467540.625 7   4285599.391 7   3332480.03148  22467538.25048
  20718909.516 7    836649.824 7    653108.84448  20718905.19548
  20338667.883 7   -802741.328 7   -621643.70749  20338667.45349
  24343025.328 6   -600142.715 6   -460389.38346  24343027.07046
 16  7  7  8  3 15.0000000  0  7G06G12G15G17G19G24G32               
  23146752.047 6  -5746461.211 6  -4444792.96147  23146753.63747
  21310346.672 7  -5015276.566 7  -3889378.18448  21310344.17648
  24094437.555 6   6908151.758 6   5369931.60547  24094436.73847
  22474782.227 7   4323652.027 7   3362131.42648  22474779.61748
  20722202.883 7    853957.250 7    666595.13748  20722198.64848
  20339243.188 7   -799717.738 7   -619287.66449  20339242.98449
  24336743.180 5   -633156.582 5   -486114.48046  24336744.98846
 16  7  7  8  3 30.0000000  0  7G06G12G15G17G19G24G32               
  23139858.398 6  -5782687.563 6  -4473021.26247  23139860.05947
  21304398.203 7  -5046535.879 7  -3913736.07848  21304395.82448
  24104536.930 6   6961220.574 6   5411283.89147  24104535.57047
  22482039.789 7   4361791.727 7   3391850.64848  22482037.41848
  20725526.094 7    871419.176 7    680201.83248  20725521.40648
  20339843.773 7   -796562.648 7   -616829.15649  20339843.78549
  24330482.070 6   -666059.684 6   -511753.26646  24330483.80946
 16  7  7  8  3 45.0000000  0  7G06G12G15G17G19G24G32               
  23132981.602 6  -5818823.406 6  -4501179.03147  23132983.67247
  21298463.758 7  -5077721.895 7  -3938036.86348  21298461.26648
  24114640.633 6   7014317.512 6   5452658.07847  24114639.65647
  22489313.883 7   4400016.719 7   3421636.34448  22489311.49248
  20728877.711 7    889033.797 7    693927.50048  20728873.34448
  20340468.969 7   -793277.504 7   -614269.30949  20340468.88749
  24324242.000 6   -698853.121 6   -537306.57446  24324243.00446
 16  7  7  8  4  0.0000000  0  7G06G12G15G17G19G24G32               
  23126122.742 5  -5854866.891 5  -4529264.81347  23126125.30147
  21292543.563 7  -5108833.254 7  -3962279.47348  21292541.02048
  24124749.813 6   7067443.695 6   5494055.06347  24124749.34047
  22496604.016 7   4438328.164 7   3451489.39548  22496601.92248
  20732259.055 7    906802.344 7    707773.12148  20732254.86348
  20341119.250 7   -789860.887 7   -611607.01649  20341119.23449
  24318021.789 6   -731535.188 6   -562773.12546  24318023.25046
 16  7  7  8  4 15.0000000  0  7G06G12G15G17G19G24G32               
  23119281.008 6  -5890817.980 6  -4557278.57847  23119284.23847
  21286637.219 7  -5139870.000 7  -3986463.95348  21286634.48048
  24134864.852 6   7120598.410 6   5535474.27347  24134864.25447
  22503911.117 7   4476725.438 7   3481409.32448  22503909.11748
  20735669.617 7    924724.262 7    721738.23448  20735665.08648
  20341794.156 7   -786312.875 7   -608842.33649  20341793.96549
  24311824.977 6   -764105.945 6   -588152.93846  24311824.94146
 16  7  7  8  4 30.0000000  0  7G06G12G15G17G19G24G32               
  23112457.633 6  -5926676.730 6  -4585220.43847  23112460.24647
  21280745.281 7  -5170832.477 7  -4010590.55148  21280742.60948
  24144985.313 6   7173780.922 6   5576915.15247  24144984.37147
  22511233.984 7   4515207.984 7   3511395.70348  22511231.89848
  20739109.031 7    942799.074 7    735822.50848  20739104.87148
  20342494.281 7   -782634.094 7   -605975.76249  20342494.05949
  24305647.992 5   -796565.535 5   -613446.11746  24305648.39146
 16  7  7  8  4 45.0000000  0  7G06G12G15G17G19G24G32               
  23105651.422 6  -5962443.902 6  -4613090.94147  23105653.29747
  21274867.055 7  -5201721.680 7  -4034660.05548  21274864.75048
  24155110.773 6   7226989.746 6   5618376.53547  24155110.35947
  22518572.930 7   4553774.301 7   3541447.36748  22518570.83248
  20742577.266 7    961025.207 7    750024.67648  20742573.32048
  20343219.086 7   -778825.457 7   -603007.99249  20343218.72749
  24299491.688 6   -828914.809 6   -638653.32046  24299492.73446
 16  7  7  8  5  0.0000000  0  7G06G12G15G17G19G24G32               
  23098863.734 6  -5998118.043 6  -4640888.95747  23098864.45347
  21269003.219 7  -5232536.516 7  -4058671.59848  21269000.87948
  24165241.195 6   7280225.578 6   5659858.95747  24165240.33647
  22525927.930 7   4592425.039 7   3571564.80948  22525925.43448
  20746074.523 7    979403.711 7    764345.58248  20746070.66848
  20343968.453 7   -774885.941 7   -599938.25049  20343968.65249
  24293356.969 6   -861152.363 6   -663773.49246  24293357.84046
 16  7  7  8  5 15.0000000  0  7G06G12G15G17G19G24G32               
  23092091.539 5  -6033698.949 5  -4668614.31347  23092093.57447
  21263153.414 7  -5263276.992 7  -4082625.20748  21263150.94548
  24175376.680 6   7333487.902 6   5701362.03947  24175376.03147
  22533298.820 7   4631159.969 7   3601747.85248  22533296.45748
  20749600.992 7    997934.289 7    778785.01648  20749597.10248
  20344743.344 7   -770815.578 7   -596766.54349  20344743.19549
  24287243.773 5   -893278.141 5   -688806.53946  24287244.85246
 16  7  7  8  5 30.0000000  0  7G06G12G15G17G19G24G32               
  23085338.609 5  -6069185.902 5  -4696266.44547  23085340.37147
  21257318.039 7  -5293942.551 7  -4106520.43448  21257315.36348
  24185516.844 6   7386776.727 6   5742885.73046  24185516.49646
  22540685.594 7   4669979.207 7   3631996.59848  22540683.57848
  20753156.125 7   1016616.973 7    793342.94148  20753151.68848
  20345542.813 7   -766613.828 7   -593492.46149  20345542.96949
  24281151.633 6   -925291.371 6   -713751.91846  24281152.98446
 16  7  7  8  5 45.0000000  0  7G06G12G15G17G19G24G32               
  23078604.156 6  -6104578.070 6  -4723844.71547  23078605.59847
  21251497.250 7  -5324532.832 7  -4130357.00848  21251494.50448
  24195663.250 6   7440092.215 6   5784430.19547  24195661.64547
  22548089.008 7   4708882.918 7   3662311.16448  22548086.70748
  20756740.258 7   1035451.914 7    808019.49648  20756736.07448
  20346367.570 7   -762280.453 7   -590115.80549  20346367.26249
  24275081.469 5   -957191.395 5   -738609.08246  24275082.58646
 16  7  7  8  6  0.0000000  0  7G06G12G15G17G19G24G32               
  23071887.430 6  -6139875.770 6  -4751349.41847  23071889.14147
  21245690.281 7  -5355048.418 7  -4154135.37948  21245687.58648
  24205813.914 6   7493433.348 6   5825994.68046  24205812.82846
  22555508.211 7   4747870.043 7   3692690.71948  22555506.06348
  20760353.547 7   1054438.461 7    822814.19548  20760349.49248
  20347217.094 7   -757815.813 7   -586636.87549  20347217.16849
  24269032.195 4   -988978.598 4   -763378.31646  24269033.09046
 16  7  7  8  6 15.0000000  0  7G06G12G15G17G19G24G32               
  23065188.250 6  -6175080.293 6  -4778781.48047  23065190.32047
  21239897.344 7  -5385490.781 7  -4177856.70348  21239894.46948
  24215968.609 6   7546798.195 6   5867577.62146  24215967.55546
  22562943.055 7   4786938.684 7   3723133.78948  22562940.85548
  20763995.000 7   1073574.574 7    837725.41848  20763990.48448
  20348091.445 7   -753221.504 7   -583056.89549  20348091.32049
  24263005.250 5  -1020654.387 5   -788060.74646  24263006.00846
 16  7  7  8  6 30.0000000  0  7G06G12G15G17G19G24G32               
  23058507.063 6  -6210189.531 6  -4806139.28947  23058509.31347
  21234118.602 7  -5415857.984 7  -4201519.44948  21234116.03548
  24226128.008 6   7600188.168 6   5909180.18046  24226127.39846
  22570392.930 7   4826090.434 7   3753641.61748  22570391.25448
  20767665.094 7   1092862.027 7    852754.63748  20767660.58648
  20348990.781 7   -748495.707 7   -579374.46149  20348990.68449
  24256998.531 5  -1052216.645 5   -812654.70746  24257000.05946
 16  7  7  8  6 45.0000000  0  7G06G12G15G17G19G24G32               
  23051843.789 6  -6245202.977 6  -4833422.46547  23051846.44147
  21228354.023 7  -5446149.898 7  -4225123.53548  21228351.27048
  24236292.680 6   7653602.832 6   5950801.93446  24236291.90646
  22577859.250 7   4865325.035 7   3784214.01248  22577857.19548
  20771363.805 7   1112300.383 7    867901.41448  20771359.82448
  20349914.727 7   -743638.629 7   -575589.72749  20349914.45749
  24251014.016 4  -1083665.070 4   -837159.95346  24251015.27346
 16  7  7  8  7  0.0000000  0  7G06G12G15G17G19G24G32               
  23045199.727 5  -6280120.984 5  -4860631.28547  23045201.45347
  21222603.828 7  -5476367.066 7  -4248669.37548  21222601.59048
  24246461.813 6   7707041.309 6   5992442.27346  24246460.59846
  22585340.938 7   4904641.602 7   3814850.28548  22585338.80548
  20775091.578 7   1131888.945 7    883165.23048  20775087.44548
  20350864.313 7   -738650.590 7   -571702.94549  20350864.02349
  24245050.992 3  -1115000.008 3   -861576.75846  24245052.24246
 16  7  7  8  7 15.0000000  0  7G06G12G15G17G19G24G32               
  23038573.070 5  -6314942.242 5  -4887764.71947  23038574.82447
  21216868.313 7  -5506508.516 7  -4272156.21148  21216866.14148
  24256635.016 5   7760504.191 5   6034101.60246  24256634.38746
  22592838.469 7   4944040.844 7   3845550.98048  22592836.10948
  20778847.977 7   1151628.199 7    898546.45748  20778844.03548
  20351838.641 7   -733530.215 7   -567713.06349  20351838.70349
  24239109.844 5  -1146220.289 5   -885904.21146  24239111.01646
 16  7  7  8  7 30.0000000  0  7G06G12G15G17G19G24G32               
  23031964.914 5  -6349667.133 5  -4914823.02747  23031966.72747
  21211146.859 7  -5536574.766 7  -4295584.44948  21211144.05148
  24266812.438 5   7813990.270 5   6075778.96946  24266812.50846
  22600351.031 7   4983521.586 7   3876315.17248  22600349.19548
  20782632.961 7   1171517.590 7    914044.68448  20782628.85248
  20352837.813 7   -728278.883 7   -563621.11349  20352838.06349
  24233190.969 4  -1177326.367 4   -910142.68846  24233191.62146
 16  7  7  8  7 45.0000000  0  7G06G12G15G17G19G24G32               
  23025376.117 6  -6384294.656 6  -4941805.46947  23025377.80147
  21205439.883 7  -5566565.230 7  -4318953.63348  21205436.84448
  24276995.219 5   7867499.910 5   6117474.78946  24276995.62146
  22607880.086 7   5023084.273 7   3907143.22348  22607877.37948
  20786446.070 7   1191557.426 7    929660.12148  20786442.02048
  20353862.273 7   -722895.699 7   -559426.43049  20353862.16849
  24227293.469 3  -1208317.305 3   -934291.44946  24227294.24646
 16  7  7  8  8  0.0000000  0  7G06G12G15G17G19G24G32               
  23018804.742 6  -6418825.219 6  -4968712.39147  23018806.18847
  21199746.859 7  -5596480.582 7  -4342264.28948  21199744.18848
  24287182.555 5   7921032.008 5   6159188.05946  24287182.36746
  22615423.742 7   5062727.871 7   3938034.32448  22615421.84848
  20790287.883 7   1211746.688 7    945392.02048  20790283.62948
  20354911.578 8   -717381.246 8   -555129.45749  20354911.48849
  24221417.273 3  -1239193.590 3   -958350.88346  24221418.97346
 16  7  7  8  8 15.0000000  0  7G06G12G15G17G19G24G32               
  23012252.234 6  -6453258.238 6  -4995543.27747  23012253.85547
  21194068.555 7  -5626320.344 7  -4365516.05148  21194066.06348
  24297372.961 5   7974586.715 5   6200919.01646  24297373.03146
  22622982.953 6   5102452.344 6   3968988.43848  22622981.60248
  20794158.531 7   1232085.387 7    961240.34848  20794153.84048
  20355986.117 8   -711735.191 8   -550729.94149  20355985.64549
  24215564.414 3  -1269954.664 3   -982320.54346  24215566.01646
 16  7  7  8  8 30.0000000  0  7G06G12G15G17G19G24G32               
  23005718.484 6  -6487592.715 6  -5022297.39147  23005719.70747
  21188404.766 7  -5656083.844 7  -4388708.37548  21188401.84848
  24307568.859 5   8028164.000 5   6242667.51646  24307568.70346
  22630557.930 7   5142258.098 7   4000005.88748  22630555.87948
  20798057.102 7   1252573.922 7    977205.43848  20798052.82048
  20357085.477 7   -705956.992 7   -546227.46549  20357085.06349
  24209733.039 4  -1300599.727 4  -1006199.78146  24209734.39146
 16  7  7  8  8 45.0000000  0  7G06G12G15G17G19G24G32               
  22999203.477 6  -6521829.094 6  -5048975.05147  22999205.33247
  21182755.664 7  -5685771.852 7  -4411841.88348  21182752.80948
  24317768.133 5   8081762.777 5   6284432.76646  24317768.44946
  22638147.828 7   5182143.902 7   4031085.70748  22638146.30148
  20801984.320 7   1273211.277 7    993286.49248  20801979.86348
  20358209.906 7   -700047.328 7   -541622.53949  20358209.94549
  24203922.703 4  -1331129.242 4  -1029988.99646  24203925.05946
 16  7  7  8  9  0.0000000  0  7G06G12G15G17G19G24G32               
  22992707.188 6  -6555966.844 6  -5075575.85547  22992709.36347
  21177120.336 7  -5715384.047 7  -4434916.32048  21177118.03948
  24327971.961 5   8135382.820 5   6326214.59046  24327972.14146
  22645753.078 7   5222109.859 7   4062227.99248  22645751.06648
  20805940.133 7   1293997.453 7   1009483.50048  20805936.01648
  20359359.914 7   -694006.012 7   -536915.02349  20359359.57449
  24198135.125 5  -1361542.762 5  -1053687.81346  24198137.65646
 16  7  7  8  9 15.0000000  0  7G06G12G15G17G19G24G32               
  22986230.070 5  -6590005.020 5  -5102099.07047  22986232.03947
  21171500.367 7  -5744919.793 7  -4457931.18048  21171497.35548
  24338179.539 5   8189024.367 5   6368013.16846  24338179.98046
  22653373.250 7   5262156.250 7   4093432.94948  22653371.88748
  20809923.672 7   1314932.680 7   1025796.66048  20809919.67648
  20360534.727 7   -687832.285 7   -532104.33249  20360534.45749
  24192369.961 5  -1391839.461 5  -1077295.59446  24192372.13746
 16  7  7  8  9 30.0000000  0  7G06G12G15G17G19G24G32               
  22979771.109 5  -6623944.145 5  -5128545.12546  22979773.39846
  21165894.031 7  -5774379.707 7  -4480886.95348  21165891.00848
  24348390.820 5   8242686.266 5   6409827.60246  24348391.71546
  22661009.250 6   5302281.863 6   4124699.62948  22661007.61348
  20813935.609 7   1336015.898 7   1042225.12148  20813931.80148
  20361734.094 7   -681527.316 7   -527191.37549  20361734.12549
  24186626.938 4  -1422019.899 4  -1100812.78946  24186628.15246
 16  7  7  8  9 45.0000000  0  8G06G12G15G17G19G24G25G32            
  22973331.766 5  -6657784.926 5  -5154914.56346  22973332.76646
  21160302.328 7  -5803764.840 7  -4503784.45748  21160299.21548
  24358606.211 5   8296367.121 5   6451656.80146  24358606.79746
  22668660.023 7   5342485.352 7   4156027.00448  22668657.89848
  20817975.273 7   1357245.895 7   1058767.97748  20817971.02348
  20362958.758 7   -675091.820 7   -522176.70749  20362959.14849
  24328282.75815   -125151.02715    -74970.24256  24328283.70356
  24180906.063 5  -1452084.895 5  -1124240.03946  24180906.80146
 16  7  7  8 10  0.0000000  0  8G06G12G15G17G19G24G25G32            
  22966910.891 5  -6691527.109 5  -5181207.15646  22966912.36346
  21154724.594 7  -5833075.188 7  -4526623.68048  21154722.14848
  24368825.594 5   8350066.574 5   6493500.47747  24368825.23847
  22676325.258 7   5382766.375 7   4187414.80548  22676322.90648
  20822043.336 7   1378622.199 7   1075424.83248  20822039.28948
  20364208.500 7   -668525.914 7   -517060.42649  20364208.33649
  24319316.172 5   -172268.516 5   -111685.12946  24319317.52346
  24175206.539 6  -1482034.293 6  -1147577.21546  24175207.62146
 16  7  7  8 10 15.0000000  0  8G06G12G15G17G19G24G25G32            
  22960508.836 5  -6725170.895 5  -5207423.07846  22960510.79346
  21149161.383 7  -5862311.211 7  -4549404.99248  21149158.98048
  24379047.961 5   8403783.695 5   6535357.93446  24379047.88746
  22684005.102 7   5423124.063 7   4218862.33248  22684003.05948
  20826139.219 7   1400144.109 7   1092195.14848  20826134.56348
  20365482.383 8   -661830.500 8   -511843.22349  20365482.28549
  24310354.273 5   -219365.527 5   -148384.09446  24310355.43846
  24169529.484 6  -1511868.402 6  -1170824.53946  24169530.30546
 16  7  7  8 10 30.0000000  0  8G06G12G15G17G19G24G25G32            
  22954124.844 5  -6758717.590 5  -5233563.31646  22954127.04746
  21143611.320 7  -5891474.461 7  -4572129.59048  21143608.90648
  24389273.070 5   8457516.457 5   6577227.57446  24389272.75046
  22691698.586 6   5463556.633 6   4250368.21148  22691697.29348
  20830261.594 7   1421809.836 7   1109077.52048  20830257.26248
  20366780.984 7   -655006.648 7   -506525.93849  20366780.93849
  24301395.102 5   -266443.590 5   -185068.25046  24301396.80546
  24163874.211 6  -1541588.504 6  -1193983.03946  24163875.05146
 16  7  7  8 10 45.0000000  0  8G06G12G15G17G19G24G25G32            
  22947760.180 6  -6792165.832 6  -5259626.87547  22947762.15247
  21138076.188 7  -5920563.879 7  -4594796.66848  21138073.38348
  24399500.594 5   8511265.531 5   6619109.93446  24399500.48446
  22699407.328 6   5504064.641 6   4281932.87548  22699405.78148
  20834411.984 7   1443619.992 7   1126072.45348  20834407.57048
  20368104.133 7   -648053.465 7   -501107.87549  20368104.37949
  24292439.984 5   -313501.629 5   -221736.86346  24292442.35946
  24158240.656 6  -1571193.465 6  -1217051.81646  24158241.76646
 16  7  7  8 11  0.0000000  0  8G06G12G15G17G19G24G25G32            
  22941414.586 6  -6825514.063 6  -5285612.50047  22941415.69547
  21132554.438 7  -5949578.230 7  -4617405.24648  21132552.08248
  24409731.898 5   8565031.754 5   6661005.65647  24409731.94147
  22707130.344 6   5544649.191 6   4313557.17648  22707128.20348
  20838590.133 7   1465575.578 7   1143180.69548  20838586.16048
  20369452.516 7   -640969.918 7   -495588.24249  20369451.93449
  24283489.516 5   -360538.332 5   -258388.76646  24283491.53146
  24152629.289 6  -1600681.707 6  -1240029.65646  24152630.80146
 16  7  7  8 11 15.0000000  0  8G06G12G15G17G19G24G25G32            
  22935087.047 6  -6858762.445 6  -5311520.30547  22935088.79747
  21127047.820 7  -5978517.797 7  -4639955.55148  21127044.89848
  24419966.727 5   8618814.305 5   6702914.08247  24419966.47747
  22714867.953 7   5585309.438 7   4345240.46548  22714865.97348
  20842795.727 7   1487675.988 7   1160401.78548  20842791.15248
  20370824.984 7   -633756.016 7   -489967.01649  20370825.14549
  24274542.320 5   -407553.992 5   -295024.32846  24274544.43846
  24147039.938 6  -1630053.473 6  -1262916.74246  24147040.76246
 16  7  7  8 11 30.0000000  0  8G06G12G15G17G19G24G25G32            
  22928779.367 6  -6891909.957 6  -5337349.51647  22928780.32047
  21121555.422 7  -6007381.863 7  -4662447.03148  21121552.32048
  24430204.047 5   8672613.391 5   6744835.41846  24430203.42646
  22722619.602 7   5626045.699 7   4376982.99248  22722617.74648
  20847028.781 7   1509921.641 7   1177736.05948  20847024.32848
  20372222.422 8   -626411.441 8   -484243.98049  20372222.77749
  24265600.055 5   -454547.973 5   -331642.97746  24265601.58246
  24141472.984 6  -1659307.879 6  -1285712.37146  24141473.85546
 16  7  7  8 11 45.0000000  0  8G06G12G15G17G19G24G25G32            
  22922490.875 6  -6924956.188 6  -5363099.83247  22922492.18847
  21116076.750 7  -6036170.301 7  -4684879.57448  21116073.75048
  24440445.641 5   8726428.828 5   6786769.46147  24440444.56647
  22730386.094 7   5666857.707 7   4408784.52748  22730384.53148
  20851289.844 7   1532312.180 7   1195183.21148  20851285.12548
  20373645.102 7   -618936.047 7   -478419.00449  20373645.38349
  24256662.047 5   -501520.105 5   -368244.60946  24256662.48046
  24135928.539 6  -1688444.621 6  -1308416.32446  24135928.91446
 16  7  7  8 12  0.0000000  0  8G06G12G15G17G19G24G25G32            
  22916221.414 5  -6957900.602 5  -5388770.77047  22916223.82447
  21110612.906 7  -6064882.836 7  -4707252.97348  21110610.19148
  24450689.438 5   8780260.527 5   6828716.20746  24450688.98846
  22738166.883 6   5707745.512 6   4440645.13348  22738165.56648
  20855578.258 7   1554847.793 7   1212743.43048  20855573.75448
  20375092.578 7   -611329.574 7   -472491.89149  20375092.33249
  24247727.711 5   -548469.945 5   -404828.87946  24247728.61746
  24130406.414 6  -1717463.207 6  -1331028.18846  24130407.12146
 16  7  7  8 12 15.0000000  0  8G06G12G15G17G19G24G25G32            
  22909971.398 5  -6990742.805 5  -5414362.06647  22909974.04747
  21105163.555 7  -6093519.133 7  -4729566.96948  21105160.84048
  24460935.664 5   8834108.074 5   6870675.28547  24460935.31347
  22745961.945 6   5748708.836 6   4472564.59048  22745960.28148
  20859894.086 7   1577528.109 7   1230416.38748  20859889.78148
  20376564.844 7   -603591.879 7   -466462.52349  20376565.16049
  24238798.164 5   -595397.473 5   -441395.76646  24238798.76246
  24124906.844 6  -1746363.367 6  -1353547.79746  24124907.77746
 16  7  7  8 12 30.0000000  0  8G06G12G15G17G19G24G25G32            
  22903741.422 6  -7023482.254 6  -5439873.29747  22903744.46147
  21099729.336 7  -6122079.047 7  -4751821.44148  21099726.13748
  24471185.938 5   8887971.371 5   6912646.66447  24471184.99247
  22753771.055 7   5789747.664 7   4504542.88348  22753769.44148
  20864237.414 7   1600353.297 7   1248202.23048  20864233.60248
  20378062.383 7   -595722.773 7   -460330.76249  20378062.12949
  24229871.438 5   -642302.355 5   -477944.98446  24229873.36746
  24119429.875 6  -1775144.609 6  -1375974.74246  24119431.08646
 16  7  7  8 12 45.0000000  0  8G06G12G15G17G19G24G25G32            
  22897531.563 6  -7056118.043 6  -5465303.75047  22897533.53547
  21094308.875 7  -6150561.902 7  -4774015.86748  21094306.26648
  24481438.820 5   8941850.652 5   6954630.47747  24481437.94147
  22761595.297 7   5830862.254 7   4536580.20748  22761593.08648
  20868608.539 7   1623323.523 7   1266101.12148  20868603.92648
  20379585.297 7   -587721.785 7   -454096.22749  20379584.72349
  24220950.586 5   -689183.875 5   -514476.00446  24220952.07446
  24113975.539 6  -1803806.148 6  -1398308.38747  24113976.57047
 16  7  7  8 13  0.0000000  0  8G06G12G15G17G19G24G25G32            
  22891340.422 6  -7088650.363 6  -5490653.62147  22891341.87547
  21088903.484 7  -6178968.180 7  -4796150.62548  21088900.78148
  24491694.523 6   8995745.141 6   6996626.14146  24491693.89546
  22769433.328 6   5872051.660 6   4568675.82447  22769431.35547
  20873007.484 7   1646437.984 7   1284112.38348  20873002.69548
  20381132.234 7   -579589.301 7   -447759.23449  20381132.19149
  24212033.813 5   -736042.484 5   -550989.16046  24212035.51646
  24108544.188 6  -1832348.168 6  -1420548.93446  24108545.01646
 16  7  7  8 13 15.0000000  0  9G02G06G12G15G17G19G24G25G32         
  24346756.69514   -120286.43414    -72095.31356  24346755.12556
  22885170.102 6  -7121078.051 6  -5515921.93447  22885172.18047
  21083512.313 7  -6207296.988 7  -4818225.01648  21083509.88348
  24501953.742 5   9049655.203 5   7038633.95747  24501952.73047
  22777285.742 7   5913316.656 7   4600830.35247  22777283.48847
  20877433.281 7   1669697.266 7   1302236.48848  20877428.61748
  20382705.313 7   -571324.559 7   -441319.18449  20382705.19149
  24203121.508 5   -782877.242 5   -587483.75446  24203122.95346
  24103135.125 6  -1860769.730 6  -1442695.60546  24103136.22746
 16  7  7  8 13 30.0000000  0  9G02G06G12G15G17G19G24G25G32         
  24338148.477 3   -165518.418 3   -107340.95346  24338147.45746
  22879018.227 6  -7153403.121 6  -5541110.26647  22879021.19147
  21078135.938 7  -6235550.418 7  -4840240.67648  21078133.46948
  24512214.359 6   9103578.180 6   7080651.82447  24512214.14547
  22785152.125 7   5954654.586 7   4633041.71147  22785149.85947
  20881886.203 7   1693098.797 7   1320471.42248  20881882.18448
  20384303.148 7   -562929.570 7   -434777.64849  20384302.68849
  24194212.664 4   -829690.359 4   -623961.46946  24194214.39546
  24097749.734 6  -1889072.789 6  -1464749.93446  24097750.73846
 16  7  7  8 13 45.0000000  0  9G02G06G12G15G17G19G24G25G32         
  24329544.336 4   -210737.300 4   -142576.38146  24329542.52746
  22872886.680 6  -7185625.539 6  -5566218.62147  22872888.98047
  21072773.969 7  -6263728.734 7  -4862197.79748  21072771.14148
  24522478.484 6   9157513.230 6   7122679.07047  24522478.71547
  22793032.359 7   5996064.691 7   4665309.29747  22793029.73447
  20886366.453 7   1716641.996 7   1338816.76648  20886362.07848
  20385925.180 7   -554405.094 7   -428135.20349  20385924.88349
  24185308.555 4   -876482.199 4   -660422.63746  24185309.97346
  24092386.641 6  -1917257.559 6  -1486712.07046  24092386.94146
 16  7  7  8 14  0.0000000  0  9G02G06G12G15G17G19G24G25G32         
  24320941.820 5   -255943.137 5   -177801.65646  24320939.62546
  22866775.250 6  -7217745.438 6  -5591247.10247  22866776.78147
  21067425.961 7  -6291832.516 7  -4884096.84448  21067422.78548
  24532744.180 6   9211459.676 6   7164715.23447  24532743.97347
  22800925.797 7   6037546.281 7   4697632.60947  22800923.35247
  20890873.422 7   1740326.063 7   1357271.80548  20890869.20348
  20387571.750 8   -545751.441 8   -421392.10249  20387571.94949
  24176407.938 4   -923252.973 4   -696867.35546  24176409.70746
  24087045.531 6  -1945324.172 6  -1508582.17246  24087046.49246
 16  7  7  8 14 15.0000000  0  9G02G06G12G15G17G19G24G25G32         
  24312341.727 5   -301135.207 5   -213016.22746  24312340.07846
  22860682.039 6  -7249762.195 6  -5616195.21947  22860683.15247
  21062092.133 7  -6319861.254 7  -4905937.40648  21062089.23848
  24543011.711 6   9265417.496 6   7206760.24247  24543011.54347
  22808833.211 7   6079099.520 7   4730011.73048  22808831.17648
  20895407.617 7   1764151.301 7   1375836.96948  20895403.00848
  20389243.125 7   -536968.367 7   -414548.15649  20389243.38349
  24167512.289 4   -970002.348 4   -733295.37146  24167513.97746
  24081727.336 6  -1973272.117 6  -1530359.77747  24081728.54347
 16  7  7  8 14 30.0000000  0  9G02G06G12G15G17G19G24G25G32         
  24303745.133 5   -346313.008 5   -248219.67246  24303742.41046
  22854608.938 6  -7281675.230 6  -5641062.50847  22854610.84847
  21056772.953 7  -6347814.547 7  -4927719.19148  21056770.09048
  24553282.156 6   9319386.637 6   7248814.05546  24553281.41046
  22816753.906 6   6120724.211 6   4762446.54748  22816752.13748
  20899968.000 7   1788117.484 7   1394511.92648  20899964.00848
  20390939.242 7   -528055.391 7   -407602.98449  20390938.91849
  24158620.008 4  -1016729.949 4   -769706.45746  24158621.72746
  24076431.516 6  -2001100.910 6  -1552044.54346  24076432.40646
 16  7  7  8 14 45.0000000  0  9G02G06G12G15G17G19G24G25G32         
  24295151.461 6   -391475.441 6   -283411.07446  24295148.12546
  22848556.297 6  -7313483.523 6  -5665848.14847  22848558.07847
  21051468.172 7  -6375691.617 7  -4949441.58248  21051465.39848
  24563553.859 6   9373367.355 6   7290876.91846  24563553.56346
  22824688.805 7   6162420.781 7   4794937.35247  22824686.94947
  20904555.094 7   1812225.195 7   1413297.15248  20904550.93048
  20392660.414 8   -519011.633 8   -400555.90649  20392659.87149
  24149732.516 4  -1063434.949 4   -806099.92246  24149734.69946
  24071158.727 6  -2028809.535 6  -1573635.67246  24071159.40246
 16  7  7  8 15  0.0000000  0  9G02G06G12G15G17G19G24G25G32         
  24286560.570 6   -436622.188 6   -318590.33646  24286556.62146
  22842523.398 6  -7345186.574 6  -5690551.82847  22842524.92247
  21046177.852 7  -6403492.375 7  -4971104.50848  21046174.75848
  24573828.234 5   9427359.430 5   7332948.60946  24573827.99246
  22832637.234 7   6204189.219 7   4827484.14548  22832634.92648
  20909169.820 7   1836474.238 7   1432192.51248  20909165.44548
  20394405.883 7   -509837.340 7   -393407.12149  20394405.58249
  24140848.922 4  -1110117.164 4   -842475.66046  24140851.57046
  24065909.172 6  -2056397.668 6  -1595132.92646  24065909.42246
 16  7  7  8 15 15.0000000  0  9G02G06G12G15G17G19G24G25G32         
  24277971.453 6   -481752.684 6   -353756.94946  24277968.50846
  22836510.922 6  -7376783.879 6  -5715173.08247  22836512.50047
  21040902.039 7  -6431216.383 7  -4992707.62548  21040899.32048
  24584104.719 5   9481362.848 5   7375029.14846  24584105.37546
  22840598.914 6   6246029.422 6   4860086.88748  22840597.00448
  20913811.516 7   1860864.555 7   1451197.94548  20913806.95748
  20396176.602 8   -500532.113 8   -386156.29749  20396176.45349
  24131969.906 4  -1156776.242 4   -878833.32846  24131972.34446
  24060682.570 6  -2083864.836 6  -1616535.90247  24060682.82047
 16  7  7  8 15 30.0000000  0  9G02G06G12G15G17G19G24G25G32         
  24269387.305 6   -526865.207 6   -388909.52746  24269383.67246
  22830518.844 6  -7408273.785 6  -5739710.65247  22830519.82447
  21035640.914 7  -6458862.281 7  -5014249.88348  21035638.37548
  24594383.250 5   9535378.461 5   7417119.18846  24594383.47346
  22848574.344 6   6287942.254 6   4892746.20347  22848572.63747
  20918479.516 7   1885397.223 7   1470314.30548  20918475.52748
  20397972.680 7   -491094.719 7   -378802.49249  20397972.29349
  24123095.375 4  -1203410.816 4   -915171.92646  24123097.69146
  24055478.930 6  -2111209.523 6  -1637843.43447  24055479.28947
 16  7  7  8 15 45.0000000  0  9G02G06G12G15G17G19G24G25G32         
  24260805.594 6   -571959.953 6   -424048.23446  24260802.92246
  22824546.031 6  -7439656.359 6  -5764164.57447  22824547.67247
  21030395.031 7  -6486430.363 7  -5035731.50448  21030392.27748
  24604664.367 5   9589405.570 5   7459218.19546  24604664.12946
  22856564.125 6   6329927.176 6   4925461.72747  22856562.05147
  20923175.008 7   1910071.418 7   1489540.92648  20923170.66048
  20399793.703 7   -481525.406 7   -371345.88749  20399793.32049
  24114226.305 3  -1250021.117 3   -951491.63346  24114228.20346
  24050298.273 6  -2138431.867 6  -1659055.63347  24050299.21147
 16  7  7  8 16  0.0000000  0  9G02G06G12G15G17G19G24G25G32         
  24252227.461 6   -617036.742 6   -459172.98447  24252225.25047
  22818595.023 6  -7470931.375 6  -5788534.73447  22818596.73847
  21025163.969 7  -6513920.715 7  -5057152.56348  21025160.80548
  24614947.664 5   9643443.605 5   7501325.69946  24614948.18846
  22864567.617 6   6371983.816 6   4958233.11747  22864565.38347
  20927897.234 7   1934887.027 7   1508877.78148  20927893.08648
  20401639.609 7   -471824.516 7   -363786.75449  20401639.53149
  24105361.156 4  -1296607.211 4   -987792.46146  24105362.73046
  24045141.523 6  -2165531.754 6  -1680172.40247  24045142.70347
 16  7  7  8 16 15.0000000  0  9G02G06G12G15G17G19G24G25G32         
  24243654.172 6   -662094.844 6   -494283.16046  24243650.90246
  22812664.297 6  -7502098.320 6  -5812820.64547  22812665.77047
  21019947.602 7  -6541333.027 7  -5078512.80148  21019944.87548
  24625232.547 3   9697492.543 3   7543441.70346  24625233.07046
  22872584.531 6   6414111.922 6   4991060.19147  22872581.82047
  20932646.438 7   1959843.859 7   1528324.64848  20932641.68048
  20403510.672 7   -461991.445 7   -356124.62949  20403510.96549
  24096501.500 5  -1343168.770 5  -1024074.16846  24096502.32846
  24040007.500 6  -2192508.754 6  -1701193.43847  24040009.37947
 16  7  7  8 16 30.0000000  0  9G02G06G12G15G17G19G24G25G32         
  24235082.977 6   -707133.633 6   -529378.25446  24235080.28546
  22806753.406 6  -7533156.453 6  -5837021.75847  22806755.35947
  21014746.000 7  -6568666.723 7  -5099811.77348  21014743.55948
  24635519.859 4   9751552.441 4   7585566.23846  24635519.89146
  22880614.758 6   6456311.824 6   5023943.21947  22880612.90247
  20937422.656 7   1984942.098 7   1547881.73048  20937417.91448
  20405407.070 7   -452026.027 7   -348359.37949  20405407.10249
  24087645.727 5  -1389705.250 5  -1060336.34446  24087646.99246
  24034897.766 6  -2219362.199 6  -1722118.17647  24034899.27347
 16  7  7  8 16 45.0000000  0  9G02G06G12G15G17G19G24G25G32         
  24226515.914 6   -752153.254 6   -564458.45346  24226513.38746
  22800864.055 6  -7564105.828 6  -5861138.14847  22800865.64147
  21009559.172 7  -6595922.102 7  -5121049.73048  21009557.10948
  24645809.039 3   9805622.910 3   7627699.04346  24645809.12546
  22888658.570 6   6498582.840 6   5056881.65647  22888656.44147
  20942224.938 7   2010181.039 7   1567548.43448  20942220.82048
  20407328.609 7   -441928.730 7   -340491.35249  20407328.32049
  24078795.000 5  -1436216.969 5  -1096579.21546  24078795.41046
  24029811.234 6  -2246092.172 6  -1742946.72347  24029812.46547
 16  7  7  8 17  0.0000000  0  9G02G06G12G15G17G19G24G25G32         
  24217953.031 6   -797152.719 6   -599522.92247  24217950.14847
  22794996.469 6  -7594945.578 6  -5885169.12147  22794997.11747
  21004387.875 7  -6623098.680 7  -5142226.27348  21004385.69548
  24656100.539 3   9859703.734 3   7669839.87946  24656100.58646
  22896716.039 6   6540925.219 6   5089875.70747  22896713.88747
  20947055.023 7   2035560.996 7   1587325.01248  20947050.02348
  20409275.086 7   -431699.027 7   -332520.16449  20409275.28949
  24069947.563 5  -1482703.254 5  -1132802.25846  24069949.13346
  24024749.094 6  -2272697.961 6  -1763678.48447  24024749.87147
 16  7  7  8 17 15.0000000  0  9G02G06G12G15G17G19G24G25G32         
  24209393.547 5   -842131.152 5   -634571.02046  24209391.15646
  22789148.484 6  -7625674.871 6  -5909114.02747  22789149.74247
  20999231.438 7  -6650195.758 7  -5163340.87548  20999228.82048
  24666394.070 3   9913795.023 3   7711988.87946  24666393.79346
  22904787.078 6   6583339.188 6   5122925.52347  22904784.99647
  20951911.438 7   2061082.328 7   1607211.75848  20951906.98048
  20411247.414 7   -421336.000 7   -324445.08649  20411246.95749
  24061107.484 5  -1529163.426 5  -1169004.99246  24061108.74646
  24019708.969 6  -2299178.746 6  -1784312.84047  24019710.22347
 16  7  7  8 17 30.0000000  0  9G02G06G12G15G17G19G24G25G32         
  24200838.344 5   -887088.883 5   -669602.94546  24200836.07446
  22783322.000 6  -7656293.801 6  -5932972.91447  22783323.59047
  20994090.180 7  -6677213.785 7  -5184393.87148  20994087.98448
  24676689.086 4   9967896.043 4   7754145.45746  24676688.73446
  22912871.516 6   6625823.789 6   5156030.37147  22912869.66447
  20956795.000 7   2086744.148 7   1627207.96948  20956790.46548
  20413244.734 7   -410840.367 7   -316266.67249  20413244.50849
  24052270.758 5  -1575597.895 5  -1205187.68846  24052272.32846
  24014693.844 6  -2325534.816 6  -1804850.03147  24014694.66047
 16  7  7  8 17 45.0000000  0  9G02G06G12G15G17G19G24G25G32         
  24192286.672 5   -932026.141 5   -704618.94946  24192284.86346
  22777515.719 6  -7686802.695 6  -5956746.07447  22777517.60547
  20988963.938 7  -6704153.285 7  -5205385.69148  20988960.94948
  24686985.875 5  10022005.883 5   7796308.95746  24686985.78546
  22920969.375 6   6668378.309 6   5189189.70747  22920967.39547
  20961705.063 7   2112545.570 7   1647312.96948  20961700.38348
  20415266.828 7   -400212.965 7   -307985.59049  20415266.60549
  24043439.016 5  -1622007.313 5  -1241350.86746  24043440.82446
  24009702.234 5  -2351766.625 5  -1825290.38347  24009703.18847
 16  7  7  8 18  0.0000000  0  9G02G06G12G15G17G19G24G25G32         
  24183739.375 5   -976942.625 5   -739618.77346  24183736.86346
  22771731.000 6  -7717201.402 6  -5980433.34447  22771732.82047
  20983852.195 7  -6731014.293 7  -5226316.34048  20983849.33648
  24697284.086 5  10076123.926 5   7838478.80546  24697284.13746
  22929080.242 6   6711002.375 6   5222403.25047  22929078.52747
  20966640.836 7   2138486.258 7   1667526.47748  20966636.36348
  20417314.164 7   -389453.742 7   -299601.78949  20417314.34849
  24034613.055 5  -1668391.559 5  -1277494.41846  24034613.78546
  24004733.688 5  -2377874.020 5  -1845633.78947  24004735.55147
 16  7  7  8 18 15.0000000  0  9G02G06G12G15G17G19G24G25G32         
  24175197.016 5  -1021837.359 5   -774601.67246  24175193.05546
  22765967.734 6  -7747488.773 6  -6004033.90647  22765969.31347
  20978756.203 7  -6757795.832 7  -5247185.07048  20978753.07848
  24707584.430 5  10130250.816 5   7880655.54346  24707583.96946
  22937204.688 6   6753696.410 6   5255671.31648  22937202.80948
  20971603.758 7   2164566.668 7   1687848.86748  20971599.01648
  20419386.969 7   -378561.922 7   -291114.65649  20419387.08649
  24025791.234 5  -1714749.801 5  -1313617.71146  24025792.26246
  23999789.906 6  -2403855.973 6  -1865879.46147  23999790.96547
 16  7  7  8 18 30.0000000  0  9G02G06G12G15G17G19G24G25G32         
  24166657.359 5  -1066710.309 5   -809567.57846  24166654.27046
  22760225.680 6  -7777664.871 6  -6027547.74647  22760227.07047
  20973674.664 7  -6784498.348 7  -5267992.21948  20973671.74648
  24717886.234 5  10184385.730 5   7922838.54346  24717885.77746
  22945342.727 6   6796459.734 6   5288993.36347  22945340.29747
  20976592.953 7   2190786.098 7   1708279.59048  20976588.86748
  20421484.516 7   -367537.824 7   -282524.45749  20421484.57849
  24016974.453 5  -1761082.270 5  -1349720.91046  24016975.29346
  23994870.000 6  -2429712.621 6  -1886027.49247  23994870.67247
 16  7  7  8 18 45.0000000  0  9G02G06G12G15G17G19G24G25G32         
  24158122.031 5  -1111560.621 5   -844515.82446  24158120.05546
  22754504.289 6  -7807728.914 6  -6050974.26647  22754506.92247
  20968608.367 7  -6811121.258 7  -5288737.33648  20968605.48048
  24728189.531 5  10238528.758 5   7965027.90646  24728188.46546
  22953493.773 6   6839292.699 6   5322369.67647  22953491.41447
  20981609.227 7   2217144.711 7   1728818.75448  20981605.10248
  20423607.813 7   -356380.836 7   -273830.71149  20423607.73849
  24008162.242 5  -1807388.480 5  -1385803.63746  24008163.65246
  23989973.172 5  -2455443.336 5  -1906077.38747  23989974.50047
 16  7  7  8 19  0.0000000  0  9G02G06G12G15G17G19G24G25G32         
  24149591.672 5  -1156388.219 5   -879446.34846  24149589.96946
  22748804.758 6  -7837680.625 6  -6074313.23847  22748806.82447
  20963557.742 7  -6837664.438 7  -5309420.34048  20963554.80948
  24738494.336 5  10292679.676 5   8007223.40246  24738493.03146
  22961657.672 6   6882195.066 6   5355800.07447  22961655.37547
  20986651.547 7   2243642.500 7   1749466.37548  20986647.12948
  20425756.297 7   -345091.313 7   -265033.68049  20425755.95749
  23999355.898 5  -1853668.230 5  -1421865.76646  23999357.05546
  23985100.992 5  -2481047.781 5  -1926028.89547  23985101.85247
 16  7  7  8 19 15.0000000  0  9G02G06G12G15G17G19G24G25G32         
  24141065.813 5  -1201193.156 5   -914359.28146  24141062.80146
  22743126.398 6  -7867520.051 6  -6097564.75447  22743129.07047
  20958521.531 7  -6864128.254 7  -5330041.48448  20958518.99248
  24748799.984 5  10346837.719 5   8049424.43046  24748799.31346
  22969834.367 6   6925165.754 6   5389283.71147  22969832.33247
  20991719.844 7   2270278.574 7   1770221.75048  20991715.52748
  20427929.516 7   -333669.359 7   -256133.46149  20427929.93849
  23990554.078 5  -1899921.938 5  -1457907.59046  23990555.33646
  23980252.141 5  -2506526.320 5  -1945882.27747  23980253.26647
 16  7  7  8 19 30.0000000  0  9G02G06G12G15G17G19G24G25G32         
  24132543.680 5  -1245974.480 5   -949253.76646  24132541.14146
  22737469.797 6  -7897246.621 6  -6120728.28547  22737471.56347
  20953500.844 7  -6890512.281 7  -5350600.46548  20953498.66448
  24759107.188 5  10401002.836 5   8091630.96946  24759106.58646
  22978024.406 6   6968204.984 6   5422820.75447  22978022.39847
  20996815.594 7   2297053.055 7   1791084.97748  20996810.69148
  20430128.523 7   -322114.941 7   -247130.04349  20430128.12949
  23981757.445 5  -1946149.094 5  -1493928.73446  23981759.46946
  23975427.734 5  -2531878.258 5  -1965637.03147  23975428.71947
 16  7  7  8 19 45.0000000  0  8G02G06G12G17G19G24G25G32            
  24124026.547 5  -1290731.813 5   -984129.55146  24124024.44146
  22731834.797 6  -7926859.605 6  -6143803.34847  22731836.21547
  20948495.375 7  -6916816.012 7  -5371096.87548  20948492.89148
  22986227.617 6   7011312.918 6   5456411.32847  22986225.84047
  21001936.898 7   2323966.176 7   1812056.23048  21001932.20748
  20432352.453 7   -310427.840 7   -238023.21549  20432352.19149
  23972964.898 5  -1992349.254 5  -1529928.83646  23972967.17646
  23970628.070 5  -2557103.102 5  -1985292.73847  23970628.51247
 16  7  7  8 20  0.0000000  0  8G02G06G12G17G19G24G25G32            
  24115513.789 4  -1335465.145 4  -1018986.61346  24115511.27046
  22726221.102 6  -7956359.121 6  -6166789.98047  22726222.96547
  20943505.375 7  -6943039.652 7  -5391530.87948  20943502.76648
  22994444.070 6   7054488.887 6   5490054.92247  22994442.12947
  21007084.219 7   2351017.031 7   1833134.81648  21007079.46548
  20434601.594 7   -298607.902 7   -228812.87549  20434601.69549
  23964179.016 5  -2038522.719 5  -1565908.14546  23964180.93846
  23965851.656 5  -2582200.953 5  -2004849.49247  23965853.04747
 16  7  7  8 20 15.0000000  0  8G02G06G12G17G19G24G25G32            
  24107006.648 5  -1380172.559 5  -1053823.57046  24107002.80146
  22720629.344 6  -7985743.145 6  -6189686.60547  22720631.39547
  20938530.641 7  -6969181.551 7  -5411901.18848  20938527.87948
  23002673.320 6   7097734.266 6   5523752.59047  23002671.52747
  21012258.773 7   2378207.121 7   1854321.89148  21012254.42248
  20436876.273 7   -286653.852 7   -219498.04749  20436876.34849
  23955397.602 5  -2084667.727 5  -1601865.27346  23955399.60946
  23961100.570 5  -2607169.973 5  -2024305.86346  23961101.34846
 16  7  7  8 20 30.0000000  0  8G02G06G12G17G19G24G25G32            
  24098504.320 4  -1424854.477 4  -1088640.61346  24098500.70346
  22715059.680 6  -8015012.070 6  -6212493.55147  22715061.37547
  20933570.969 7  -6995242.395 7  -5432208.32848  20933568.91448
  23010915.711 6   7141048.129 6   5557503.63748  23010913.72748
  21017458.859 7   2405535.352 7   1875616.60948  21017454.63348
  20439176.766 7   -274566.398 7   -210079.26649  20439176.25049
  23946622.281 5  -2130784.871 5  -1637800.67646  23946623.34446
  23956372.891 6  -2632010.613 6  -2043662.19946  23956374.41846
 16  7  7  8 20 45.0000000  0  8G02G06G12G17G19G24G25G32            
  24090006.664 5  -1469509.059 5  -1123436.34446  24090003.64546
  22709511.844 6  -8044164.359 6  -6235209.60247  22709513.80547
  20928627.852 7  -7021221.012 7  -5452451.41048  20928625.02048
  23019171.227 6   7184431.215 6   5591308.62147  23019169.47747
  21022685.586 7   2433002.594 7   1897019.64848  21022681.75448
  20441502.156 7   -262344.316 7   -200555.57049  20441502.18049
  23937851.711 5  -2176872.742 5  -1673713.28546  23937852.77346
  23951671.352 6  -2656721.387 6  -2062917.31647  23951672.21147
 16  7  7  8 21  0.0000000  0  8G02G06G12G17G19G24G25G32            
  24081514.188 4  -1514135.371 4  -1158210.04746  24081511.94146
  22703987.367 6  -8073198.922 6  -6257833.90647  22703988.00047
  20923700.109 7  -7047116.297 7  -5472629.55148  20923696.96148
  23027440.250 6   7227884.195 6   5625168.04348  23027438.53948
  21027938.867 7   2460609.508 7   1918531.51648  21027934.75848
  20443853.859 7   -249986.629 7   -190926.21549  20443853.83249
  23929087.094 4  -2222930.527 4  -1709602.42246  23929088.55546
  23946993.086 5  -2681301.348 5  -2082070.53146  23946994.17646
 16  7  7  8 21 15.0000000  0  8G02G06G12G17G19G24G25G32            
  24073028.203 4  -1558734.355 4  -1192962.46946  24073024.81646
  22698484.586 6  -8102116.699 6  -6280367.26247  22698485.40647
  20918788.000 7  -7072929.535 7  -5492743.76248  20918785.01648
  23035721.695 6   7271405.395 6   5659080.65647  23035720.14847
  21033218.570 7   2488354.492 7   1940150.97748  21033214.74248
  20446230.883 7   -237494.926 7   -181192.43049  20446231.02349
  23920327.711 4  -2268959.383 4  -1745469.03546  23920329.58646
  23942340.578 4  -2705751.520 4  -2101122.58646  23942342.07046
 16  7  7  8 21 30.0000000  0  8G02G06G12G17G19G24G25G32            
  24064546.156 5  -1603304.926 5  -1227692.77746  24064543.39546
  22693003.805 6  -8130916.734 6  -6302808.84047  22693005.29747
  20913892.039 7  -7098659.953 7  -5512793.43448  20913888.61748
  23044016.367 6   7314995.355 6   5693046.82447  23044014.77047
  21038524.977 7   2516237.902 7   1961878.30548  21038520.36748
  20448633.773 7   -224868.480 7   -171353.65649  20448633.99249
  23911574.398 4  -2314958.520 4  -1781312.48446  23911576.27046
  23937712.516 5  -2730071.039 5  -2120072.86346  23937714.21946
 16  7  7  8 21 45.0000000  0  8G02G06G12G17G19G24G25G32            
  24056069.578 4  -1647849.227 4  -1262402.58646  24056067.09846
  22687545.125 6  -8159601.031 6  -6325160.24647  22687546.92647
  20909010.617 7  -7124309.629 7  -5532780.19148  20909007.89148
  23052324.313 6   7358651.402 6   5727064.49247  23052322.37547
  21043856.406 7   2544257.383 7   1983711.66448  21043852.44148
  20451061.688 7   -212109.293 7   -161411.44149  20451061.79749
  23902826.336 4  -2360930.129 4  -1817134.49246  23902827.79346
  23933108.688 5  -2754262.004 5  -2138922.94546  23933110.66846
 16  7  7  8 22  0.0000000  0  8G02G06G12G17G19G24G25G32            
  24047597.820 4  -1692365.605 4  -1297090.61346  24047595.01646
  22682108.984 6  -8188168.004 6  -6347420.18447  22682111.18047
  20904145.352 7  -7149877.406 7  -5552703.13348  20904142.48048
  23060644.992 6   7402374.676 6   5761134.53547  23060642.71947
  21049214.633 7   2572413.914 7   2005651.81348  21049210.05948
  20453515.219 7   -199216.465 7   -151365.08649  20453515.36349
  23894083.359 4  -2406872.852 4  -1852933.97346  23894085.57046
  23928529.602 5  -2778322.918 5  -2157671.67246  23928531.99246
 16  7  7  8 22 15.0000000  0  8G02G06G12G17G19G24G25G32            
  24039132.594 4  -1736852.652 4  -1331755.79746  24039129.58646
  22676695.883 6  -8216616.293 6  -6369587.67647  22676697.13347
  20899295.844 7  -7175362.141 7  -5572561.35948  20899292.96148
  23068977.602 6   7446166.129 6   5795257.76247  23068975.73047
  21054599.008 7   2600708.082 7   2027699.20348  21054594.62148
  20455994.367 7   -186188.809 7   -141213.67249  20455994.23849
  23885347.227 4  -2452785.547 4  -1888710.08246  23885348.75046
  23923976.867 5  -2802252.520 5  -2176318.09046  23923978.23446
 16  7  7  8 22 30.0000000  0  8G02G06G12G17G19G24G25G32            
  24030672.641 5  -1781311.512 5  -1366399.02046  24030669.50046
  22671304.766 6  -8244947.000 6  -6391663.55547  22671305.91847
  20894461.703 7  -7200765.000 7  -5592355.78948  20894459.06648
  23077323.789 6   7490023.461 6   5829432.28547  23077321.76647
  21060008.906 7   2629138.148 7   2049852.50048  21060005.12148
  20458498.742 7   -173027.660 7   -130958.25049  20458498.66049
  23876615.234 4  -2498669.508 4  -1924463.79746  23876617.25446
  23919448.227 4  -2826051.949 4  -2194863.09046  23919449.82846
 16  7  7  8 22 45.0000000  0  8G02G06G12G17G19G24G25G32            
  24022218.000 5  -1825742.543 5  -1401020.58246  24022214.84846
  22665935.773 6  -8273160.539 6  -6413648.12547  22665936.91447
  20889643.328 7  -7226086.641 7  -5612086.94148  20889640.66048
  23085681.891 6   7533945.898 6   5863657.53947  23085680.15647
  21065444.688 7   2657703.289 7   2072111.01648  21065440.28548
  20461028.602 7   -159734.117 7   -120599.65649  20461028.41849
  23867890.484 5  -2544525.270 5  -1960195.53546  23867891.21146
  23914944.367 6  -2849721.754 6  -2213307.07046  23914945.72346
 16  7  7  8 23  0.0000000  0  8G02G06G12G17G19G24G25G32            
  24013768.906 5  -1870145.750 5  -1435620.44146  24013764.84846
  22660588.555 6  -8301256.852 6  -6435541.34447  22660590.40647
  20884840.125 7  -7251327.375 7  -5631755.03148  20884837.38348
  23094052.578 6   7577933.016 6   5897933.20747  23094050.16847
  21070905.922 7   2686402.734 7   2094474.22348  21070901.76648
  20463583.188 7   -146308.207 7   -110137.91049  20463583.77349
  23859168.734 5  -2590353.066 5  -1995905.47346  23859170.29346
  23910464.773 6  -2873262.012 6  -2231650.12547  23910466.60947
 16  7  7  8 23 15.0000000  0  8G02G06G12G17G19G24G25G32            
  24005324.125 5  -1914520.320 5  -1470198.00046  24005320.84846
  22655264.234 6  -8329235.367 6  -6457342.76647  22655266.61747
  20880052.273 7  -7276486.871 7  -5651359.82848  20880049.69148
  23102434.852 6   7621984.867 6   5932259.31647  23102433.36347
  21076392.773 7   2715236.637 7   2116942.19548  21076388.40648
  20466163.516 7   -132749.719 7    -99572.87149  20466163.90249
  23850453.813 5  -2636152.504 5  -2031593.31646  23850454.78146
  23906009.195 6  -2896672.199 6  -2249891.81346  23906011.41046
 16  7  7  8 23 30.0000000  0  8G02G06G12G17G19G24G25G32            
  23996885.047 5  -1958867.137 5  -1504753.89846  23996882.08246
  22649963.258 6  -8357096.844 6  -6479052.99247  22649964.88347
  20875279.758 7  -7301566.074 7  -5670902.06348  20875277.53948
  23110829.758 6   7666100.016 6   5966634.73847  23110828.28547
  21081905.453 7   2744203.563 7   2139513.80948  21081900.96148
  20468768.648 7   -119059.672 7    -88905.30549  20468768.54349
  23841743.703 5  -2681924.516 5  -2067259.79746  23841744.90646
  23901578.977 5  -2919953.180 5  -2268032.83647  23901580.84847
 16  7  7  8 23 45.0000000  0  8G02G06G12G17G19G24G25G32            
  23988451.672 5  -2003185.266 5  -1539287.44546  23988448.64846
  22644683.680 6  -8384840.223 6  -6500671.21147  22644684.74647
  20870522.711 7  -7326564.086 7  -5690381.02748  20870520.39548
  23119236.859 6   7710278.824 6   6001059.73847  23119234.98847
  21087442.852 7   2773303.996 7   2162189.46148  21087438.74648
  20471399.000 7   -105237.320 7    -78134.65249  20471399.17249
  23833039.617 5  -2727668.270 5  -2102904.27746  23833039.60246
  23897173.656 5  -2943104.004 5  -2286072.43047  23897174.93447
 16  7  7  8 24  0.0000000  0  8G02G06G12G17G19G24G25G32            
  23980023.695 5  -2047474.246 5  -1573798.30147  23980020.52047
  22639426.914 6  -8412465.301 6  -6522197.24247  22639427.77047
  20865781.297 7  -7351480.875 7  -5709796.70748  20865778.98048
  23127655.844 6   7754521.219 6   6035534.31347  23127654.25047
  21093005.586 7   2802537.516 7   2184968.82048  21093001.25448
  20474054.695 7    -91282.777 7    -67260.99249  20474054.57849
  23824339.172 5  -2773383.715 5  -2138526.68446  23824340.30946
  23892793.633 6  -2966124.531 6  -2304010.48447  23892794.17247
 16  7  7  8 24 15.0000000  0  8G02G06G12G17G19G24G25G32            
  23971601.305 5  -2091734.207 5  -1608286.54747  23971598.75847
  22634192.234 6  -8439972.203 6  -6543631.19547  22634193.52047
  20861054.977 7  -7376316.781 7  -5729149.36348  20861052.36748
  23136086.672 6   7798826.273 6   6070057.70747  23136085.07047
  21098593.688 7   2831903.477 7   2207851.38348  21098589.63748
  20476735.180 7    -77196.656 7    -56284.80949  20476735.22749
  23815645.461 5  -2819071.234 5  -2174127.32446  23815646.43046
  23888437.430 6  -2989014.980 6  -2321847.19947  23888438.03147
 16  7  7  8 24 30.0000000  0  8G02G06G12G17G19G24G25G32            
  23963184.547 5  -2135964.398 5  -1642751.56347  23963181.95347
  22628980.508 6  -8467360.328 6  -6564972.56347  22628982.16047
  20856344.969 7  -7401071.516 7  -5748438.76248  20856342.07048
  23144529.219 6   7843194.160 6   6104630.05947  23144528.03547
  21104207.500 7   2861401.816 7   2230837.08648  21104202.85548
  20479440.438 7    -62978.645 7    -45205.84849  20479440.53549
  23806957.086 6  -2864730.320 6  -2209705.79746  23806957.64846
  23884105.766 6  -3011774.867 6  -2339582.17647  23884107.14847
 16  7  7  8 24 45.0000000  0  8G02G06G12G17G19G24G25G32            
  23954773.867 6  -2180164.422 6  -1677193.11347  23954771.38747
  22623791.125 6  -8494629.070 6  -6586220.92247  22623793.69547
  20851649.820 7  -7425744.664 7  -5767664.59448  20851646.91848
  23152984.688 6   7887624.781 6   6139251.31647  23152983.05547
  21109845.992 7   2891032.563 7   2253925.96548  21109841.80548
  20482171.133 7    -48628.398 7    -34023.85549  20482171.05549
  23798274.563 5  -2910360.699 5  -2245261.91846  23798274.95346
  23879799.867 6  -3034403.715 6  -2357215.02047  23879800.72347
 16  7  7  8 25  0.0000000  0  8G02G06G12G17G19G24G25G32            
  23946367.797 5  -2224334.246 5  -1711611.11747  23946365.59047
  22618625.078 6  -8521778.355 6  -6607376.19148  22618626.82448
  20846969.852 7  -7450336.305 7  -5786826.90648  20846966.62948
  23161451.891 6   7932117.594 6   6173921.02747  23161450.02747
  21115509.344 7   2920795.383 7   2277117.77048  21115505.38748
  20484927.055 7    -34146.094 7    -22738.94949  20484926.87549
  23789595.570 5  -2955962.289 5  -2280795.60946  23789596.73046
  23875519.164 6  -3056901.469 6  -2374745.74247  23875519.46947
 16  7  7  8 25 15.0000000  0  8G02G06G12G17G19G24G25G32            
  23937968.719 5  -2268474.801 5  -1746006.31646  23937965.65246
  22613481.313 6  -8548809.250 6  -6628439.21547  22613482.50847
  20842305.383 7  -7474847.762 7  -5805926.74248  20842302.38748
  23169929.727 6   7976671.109 6   6208638.03947  23169927.57447
  21121197.820 7   2950688.359 7   2300411.00448  21121193.55548
  20487708.086 7    -19533.164 7    -11352.25849  20487707.71949
  23780923.039 5  -3001536.504 5  -2316307.96946  23780924.26646
  23871262.641 6  -3079269.367 6  -2392175.26647  23871263.65647
 16  7  7  8 25 30.0000000  0  8G02G06G12G17G19G24G25G32            
  23929574.797 5  -2312584.203 5  -1780377.24246  23929571.49646
  22608360.594 6  -8575719.953 6  -6649408.59447  22608361.31347
  20837656.680 7  -7499277.363 7  -5824962.79748  20837653.89848
  23178419.664 6   8021286.504 6   6243403.26647  23178417.72747
  21126911.266 7   2980712.879 7   2323806.72748  21126906.91848
  20490513.945 7     -4788.246 7       137.27749  20490513.79749
  23772255.984 4  -3047081.656 4  -2351797.66846  23772257.50046
  23867031.141 6  -3101505.613 6  -2409502.21947  23867032.44147
 16  7  7  8 25 45.0000000  0  8G02G06G12G17G19G24G25G32            
  23921187.117 5  -2356662.383 5  -1814723.84447  23921183.98447
  22603262.648 6  -8602510.438 6  -6670284.28147  22603263.63347
  20833023.109 7  -7523625.391 7  -5843935.28548  20833020.57048
  23186921.688 6   8065963.250 6   6278216.29347  23186919.62947
  21132649.797 7   3010868.297 7   2347304.43848  21132645.78948
  20493344.867 7     10088.441 7     11729.49249  20493344.53549
  23763594.930 4  -3092597.926 4  -2387264.87946  23763595.60246
  23862825.117 6  -3123610.328 6  -2426726.67647  23862825.62547
 16  7  7  8 26  0.0000000  0  8G02G06G12G17G19G24G25G32            
  23912805.500 5  -2400708.930 5  -1849045.78546  23912802.12146
  22598187.367 6  -8629180.242 6  -6691065.94547  22598189.18847
  20828405.641 7  -7547891.500 7  -5862843.93848  20828403.06348
  23195434.383 6   8110701.211 6   6313077.02047  23195433.12547
  21138413.266 7   3041154.434 7   2370904.00048  21138408.94148
  20496200.492 7     25096.973 7     23424.44949  20496200.82849
  23754938.289 4  -3138085.070 4  -2422709.37946  23754939.60946
  23858643.414 6  -3145583.188 6  -2443848.38347  23858644.84847
 16  7  7  8 26 15.0000000  0  8G02G06G12G17G19G24G25G32            
  23904429.469 5  -2444723.289 5  -1883342.65246  23904425.95346
  22593135.023 6  -8655728.965 6  -6711753.23847  22593136.70347
  20823803.789 7  -7572075.684 7  -5881688.75448  20823800.86348
  23203959.414 6   8155500.223 6   6347985.31347  23203958.23047
  21144201.242 7   3071571.250 7   2394605.42648  21144196.84448
  20499081.898 7     40237.449 7     35222.21149  20499081.86749
  23746288.867 4  -3183542.801 4  -2458130.95346  23746289.53946
  23854487.734 6  -3167423.828 6  -2460867.06646  23854487.86346
 16  7  7  8 26 30.0000000  0  8G02G06G12G17G19G24G25G32            
  23896059.430 5  -2488705.887 5  -1917614.76646  23896056.41846
  22588105.984 6  -8682156.949 6  -6732346.44947  22588107.89847
  20819217.063 7  -7596178.641 7  -5900470.27048  20819214.11348
  23212496.328 6   8200359.320 6   6382940.43047  23212494.88747
  21150013.852 7   3102117.754 7   2418407.88348  21150009.93848
  20501987.852 7     55508.969 7     47122.08649  20501988.09049
  23737644.078 5  -3228971.676 5  -2493530.05146  23737644.97346
  23850355.547 6  -3189132.668 6  -2477783.04346  23850356.60246
 16  7  7  8 26 45.0000000  0  8G02G06G12G17G19G24G25G32            
  23887696.453 5  -2532656.961 5  -1951862.30546  23887692.87546
  22583099.711 6  -8708464.359 6  -6752845.72747  22583101.44547
  20814645.914 7  -7620200.340 7  -5919188.47748  20814643.20748
  23221043.703 6   8245277.762 6   6417941.77747  23221042.79347
  21155851.219 7   3132793.172 7   2442310.79748  21155847.41848
  20504919.070 7     70911.535 7     59124.07449  20504919.08249
  23729003.781 4  -3274372.070 4  -2528906.95346  23729005.61746
  23846250.414 6  -3210710.020 6  -2494596.55547  23846250.15247
 16  7  7  8 27  0.0000000  0  8G02G06G12G17G19G24G25G32            
  23879337.750 5  -2576574.285 5  -1986083.59046  23879334.62546
  22578116.773 6  -8734649.250 6  -6773249.53147  22578118.54747
  20810090.672 7  -7644139.059 7  -5937842.02048  20810087.94948
  23229603.180 6   8290257.047 6   6452990.55147  23229601.91047
  21161713.719 7   3163598.805 7   2466315.17648  21161709.65248
  20507875.313 7     86446.629 7     71229.33649  20507875.43849
  23720370.820 5  -3319742.152 5  -2564260.24246  23720372.22746
  23842169.563 6  -3232154.031 6  -2511306.16046  23842169.85546
 16  7  7  8 27 15.0000000  0  8G02G06G12G17G19G24G25G32            
  23870987.406 5  -2620458.551 5  -2020279.07846  23870984.82846
  22573157.477 6  -8760712.086 6  -6793558.22347  22573159.25047
  20805550.484 7  -7667995.664 7  -5956431.57048  20805548.17248
  23238173.703 6   8335296.090 6   6488085.87947  23238172.16047
  21167600.234 7   3194533.680 7   2490420.26248  21167596.16448
  20510856.766 7    102113.234 7     83437.07049  20510856.47349
  23711742.719 5  -3365082.641 5  -2599590.46146  23711743.97346
  23838114.641 6  -3253465.242 6  -2527912.28546  23838114.73846
 16  7  7  8 27 30.0000000  0  8G02G06G12G17G19G24G25G32            
  23862642.781 5  -2664308.930 5  -2054448.12546  23862640.10246
  22568221.914 6  -8786652.363 6  -6813771.38747  22568223.15647
  20801026.531 7  -7691769.727 7  -5974956.80548  20801023.64848
  23246755.992 6   8380394.883 6   6523227.77747  23246754.19947
  21173511.805 7   3225597.746 7   2514626.02348  21173507.48048
  20513863.078 7    117911.840 7     95747.66049  20513862.71549
  23703119.805 4  -3410393.172 4  -2634897.33647  23703121.98447
  23834084.609 6  -3274643.262 6  -2544414.65247  23834085.18847
 16  7  7  8 27 45.0000000  0  8G02G06G12G17G19G24G25G32            
  23854305.977 5  -2708125.656 5  -2088591.03146  23854302.23046
  22563308.422 6  -8812470.195 6  -6833889.15247  22563310.24647
  20796518.164 7  -7715461.609 7  -5993418.01248  20796515.14848
  23255349.203 6   8425552.754 6   6558415.71147  23255347.25447
  21179447.328 7   3256790.348 7   2538931.90248  21179443.05148
  20516894.250 7    133841.547 7    108160.40649  20516894.21549
  23694503.672 5  -3455674.070 5  -2670181.13746  23694504.80146
  23830079.852 6  -3295688.266 6  -2560813.34847  23830080.68847
 16  7  7  8 28  0.0000000  0  8G02G06G12G17G19G24G25G32            
  23845972.922 5  -2751907.965 5  -2122707.08246  23845970.65646
  22558418.828 6  -8838164.785 6  -6853910.92247  22558420.33247
  20792025.742 7  -7739070.488 7  -6011814.53948  20792022.79748
  23263953.875 6   8470769.926 6   6593649.86347  23263951.37947
  21185407.617 7   3288111.680 7   2563338.13748  21185403.55948
  20519950.492 7    149903.254 7    120676.02349  20519950.61349
  23685892.336 5  -3500924.590 5  -2705441.27046  23685893.93846
  23826100.398 6  -3316599.598 6  -2577107.89547  23826101.02047
 16  7  7  8 28 15.0000000  0  8G02G06G12G17G19G24G25G32            
  23837649.383 5  -2795655.586 5  -2156796.10946  23837645.76246
  22553552.805 6  -8863735.938 6  -6873836.48447  22553554.38347
  20787548.719 7  -7762596.828 7  -6030146.75448  20787545.85248
  23272569.352 6   8516045.965 6   6628929.87947  23272567.39147
  21191392.305 7   3319561.309 7   2587844.33648  21191388.02348
  20523031.859 7    166096.676 7    133294.25849  20523032.36349
  23677286.719 5  -3546144.832 5  -2740677.78947  23677288.91047
  23822146.289 6  -3337377.133 6  -2593298.18047  23822147.50447
 16  7  7  8 28 30.0000000  0  8G02G06G12G17G19G24G25G32            
  23829330.406 5  -2839368.074 5  -2190857.75446  23829327.37946
  22548710.500 6  -8889183.352 6  -6893665.63747  22548711.90247
  20783087.398 7  -7786040.324 7  -6048414.41048  20783084.66448
  23281196.930 6   8561380.785 6   6664255.69547  23281194.01647
  21197401.359 7   3351138.914 7   2612450.24248  21197397.11348
  20526138.625 7    182421.555 7    146014.93449  20526138.54349
  23668687.891 5  -3591334.625 5  -2775890.58247  23668689.61747
  23818217.898 6  -3358020.672 6  -2609384.08247  23818219.02047
 16  7  7  8 28 45.0000000  0  8G02G06G12G17G19G24G25G32            
  23821019.359 5  -2883045.773 5  -2224892.26646  23821016.18446
  22543891.461 6  -8914507.523 6  -6913398.75847  22543892.72347
  20778641.766 7  -7809401.625 7  -6066618.02048  20778639.64148
  23289834.633 6   8606773.188 6   6699626.37547  23289832.07447
  21203434.391 7   3382843.402 7   2637155.02048  21203430.00848
  20529270.211 7    198877.270 7    158837.55949  20529270.34449
  23660094.492 5  -3636494.629 5  -2811080.17646  23660095.78146
  23814315.117 6  -3378530.773 6  -2625365.97747  23814315.84047
 16  7  7  8 29  0.0000000  0  8G02G06G12G17G19G24G25G32            
  23812714.141 5  -2926687.141 5  -2258898.50047  23812711.64547
  22539096.266 6  -8939706.832 6  -6933034.57447  22539097.55547
  20774212.336 7  -7832679.398 7  -6084756.53548  20774209.96548
  23298483.242 6   8652224.270 6   6735042.79347  23298481.54347
  21209491.469 7   3414675.871 7   2661959.53548  21209487.74648
  20532426.672 7    215465.004 7    171763.05149  20532427.02049
  23651507.070 5  -3681623.395 5  -2846245.41846  23651508.23846
  23810437.797 6  -3398905.949 6  -2641242.74646  23810438.09046
 16  7  7  8 29 15.0000000  0  8G02G06G12G17G19G24G25G32            
  23804416.156 5  -2970293.506 5  -2292877.41847  23804414.03947
  22534324.188 6  -8964782.449 6  -6952574.01247  22534326.17247
  20769798.297 7  -7855875.023 7  -6102831.04348  20769795.82048
  23307143.313 6   8697732.184 6   6770503.48047  23307141.00847
  21215573.438 7   3446634.398 7   2686862.27748  21215569.55148
  20535607.898 7    232183.402 7    184790.35949  20535608.31649
  23642924.883 5  -3726722.309 5  -2881387.41046  23642926.53146
  23806586.406 6  -3419147.500 6  -2657015.38746  23806586.08246
 16  7  7  8 29 30.0000000  0  8G02G06G12G17G19G24G25G32            
  23796125.422 5  -3013863.129 5  -2326827.79347  23796123.46147
  22529576.242 6  -8989732.836 6  -6972015.86747  22529577.46547
  20765400.359 7  -7878986.996 7  -6120840.36348  20765397.70348
  23315813.977 6   8743297.984 6   6806009.27347  23315812.25447
  21221678.852 7   3478720.180 7   2711864.18448  21221675.17248
  20538814.633 7    249033.969 7    197920.66049  20538814.80549
  23634349.273 5  -3771789.973 5  -2916505.05547  23634350.50047
  23802759.695 6  -3439253.926 6  -2672682.72747  23802759.75047
 16  7  7  8 29 45.0000000  0  8G02G06G12G17G19G24G25G32            
  23787840.430 5  -3057396.176 5  -2360749.59846  23787838.87946
  22524852.133 6  -9014558.246 6  -6991360.33647  22524853.94147
  20761018.188 7  -7902015.816 7  -6138784.89548  20761015.46548
  23324496.367 6   8788920.797 6   6841559.48047  23324494.13347
  21227808.977 7   3510932.285 7   2736964.51648  21227804.75048
  20542046.359 7    266015.793 7    211153.24649  20542046.36349
  23625778.594 5  -3816826.844 5  -2951598.69947  23625780.32847
  23798959.563 6  -3459225.621 6  -2688245.09047  23798959.78147
 16  7  7  8 30  0.0000000  0  8G02G06G12G17G19G24G25G32            
  23779564.477 5  -3100892.715 5  -2394642.94947  23779561.32847
  22520151.828 6  -9039258.957 6  -7010607.62947  22520153.22347
  20756651.719 7  -7924961.992 7  -6156665.02748  20756649.10248
  23333188.703 6   8834600.074 6   6877153.68847  23333186.82047
  21233962.547 7   3543269.824 7   2762162.58648  21233958.09048
  20545302.297 7    283128.063 7    224487.46549  20545302.46949
  23617213.805 6  -3861833.242 6  -2986668.62546  23617215.57446
  23795184.133 6  -3479062.902 6  -2703702.71947  23795184.62147
 16  7  7  8 30 15.0000000  0  8G02G06G12G17G19G24G25G32            
  23771294.297 5  -3144351.824 5  -2428507.19546  23771291.12946
  22515475.070 6  -9063834.000 6  -7029757.00847  22515477.04747
  20752300.953 7  -7947824.859 7  -6174480.23848  20752297.93848
  23341891.805 6   8880336.086 6   6912792.10947  23341889.90647
  21240140.281 7   3575733.125 7   2787458.66448  21240136.16848
  20548583.922 7    300371.680 7    237924.03949  20548584.34049
  23608655.875 6  -3906808.488 6  -3021714.26246  23608656.88346
  23791434.961 6  -3498764.977 6  -2719054.98847  23791435.82047
 16  7  7  8 30 30.0000000  0  8G02G06G12G17G19G24G25G32            
  23763031.344 5  -3187773.898 5  -2462342.53146  23763028.02046
  22510822.805 6  -9088283.609 6  -7048808.64547  22510824.19147
  20747966.172 7  -7970604.789 7  -6192230.84048  20747963.31348
  23350605.789 6   8926127.973 6   6948474.07047  23350604.21947
  21246341.703 7   3608321.422 7   2812852.14148  21246337.37148
  20551890.289 7    317746.066 7    251462.51249  20551890.33249
  23600103.039 6  -3951752.922 6  -3056735.88346  23600103.84846
  23787711.961 6  -3518332.129 6  -2734302.12547  23787712.56647
 16  7  7  8 30 45.0000000  0  8G02G06G12G17G19G24G25G32            
  23754775.625 5  -3231158.418 5  -2496148.61346  23754772.27046
  22506194.211 6  -9112607.551 6  -7067762.36747  22506195.64147
  20743646.484 7  -7993301.695 7  -6209916.73048  20743643.97348
  23359330.375 6   8971975.527 6   6984199.41047  23359328.18047
  21252566.516 7   3641034.391 7   2838342.75448  21252562.14148
  20555221.172 7    335251.066 7    265102.75849  20555221.58649
  23591556.094 5  -3996666.520 5  -3091733.50446  23591556.49646
  23784013.641 6  -3537764.250 6  -2749444.03546  23784014.59046
 16  7  7  8 31  0.0000000  0  8G02G06G12G17G19G24G25G32            
  23746526.406 5  -3274505.445 5  -2529925.51646  23746522.55146
  22501589.117 7  -9136805.727 7  -7086618.08247  22501590.46147
  20739343.695 7  -8015915.605 7  -6227537.96548  20739340.73448
  23368065.148 6   9017878.398 6   7019967.86747  23368062.90647
  21258815.398 7   3673871.539 7   2863930.13748  21258810.87948
  20558577.367 7    352886.492 7    278844.63349  20558577.39549
  23583014.953 5  -4041549.277 5  -3126707.07846  23583015.54746
  23780342.203 6  -3557061.309 6  -2764480.70347  23780343.27747
 16  7  7  8 31 15.0000000  0  8G02G06G12G17G19G24G25G32            
  23738284.914 5  -3317814.129 5  -2563672.51246  23738281.20346
  22497008.688 7  -9160877.395 7  -7105375.21947  22497010.04347
  20735055.852 7  -8038446.055 7  -6245094.14848  20735053.65648
  23376811.195 6   9063836.570 6   7055779.40647  23376808.68047
  21265087.648 7   3706833.012 7   2889614.39148  21265083.59848
  20561958.203 7    370652.809 7    292688.50849  20561958.32049
  23574480.219 5  -4086400.684 5  -3161656.23446  23574480.78546
  23776695.852 6  -3576222.676 6  -2779411.62947  23776696.48447
 16  7  7  8 31 30.0000000  0  8G02G06G12G17G19G24G25G32            
  23730050.680 5  -3361084.203 5  -2597389.43846  23730047.50846
  22492451.906 6  -9184822.332 6  -7124033.59848  22492453.21548
  20730784.484 7  -8060892.984 7  -6262585.25848  20730781.79348
  23385567.500 6   9109849.809 6   7091633.84047  23385564.79347
  21271383.672 7   3739918.594 7   2915395.34048  21271379.67248
  20565363.930 7    388549.945 7    306634.31349  20565363.71149
  23565951.133 5  -4131220.609 5  -3196580.81646  23565951.89846
  23773074.539 6  -3595248.234 6  -2794236.73047  23773075.49247
 16  7  7  8 31 45.0000000  0  8G02G06G12G17G19G24G25G32            
  23721823.969 5  -3404314.719 5  -2631075.54346  23721821.04746
  22487919.820 6  -9208639.633 6  -7142592.52748  22487921.44148
  20726529.047 7  -8083255.793 7  -6280010.82848  20726526.22348
  23394333.383 6   9155918.520 6   7127531.50447  23394331.54347
  21277703.484 7   3773128.461 7   2941273.16048  21277699.31348
  20568794.359 7    406578.309 7    320682.37149  20568794.71149
  23557427.383 5  -4176008.328 5  -3231480.33246  23557428.60546
  23769480.750 6  -3614137.191 6  -2808955.37147  23769481.20347
 16  7  7  8 32  0.0000000  0  8G02G06G12G17G19G24G25G32            
  23713606.102 5  -3447505.504 5  -2664730.69546  23713601.69146
  22483412.016 6  -9232329.344 6  -7161052.03548  22483413.53148
  20722289.695 7  -8105534.586 7  -6297370.91848  20722286.69548
  23403110.836 6   9202042.137 6   7163471.96547  23403108.52047
  21284046.391 7   3806462.086 7   2967247.39848  21284042.48048
  20572250.320 7    424737.629 7    334832.48449  20572250.15649
  23548911.219 5  -4220763.988 5  -3266354.83646  23548912.15646
  23765912.195 6  -3632889.648 6  -2823567.64847  23765913.01247
 16  7  7  8 32 15.0000000  0  8G02G06G12G17G19G24G25G32            
  23705394.211 5  -3490657.066 5  -2698355.25847  23705391.34047
  22478927.789 6  -9255891.961 6  -7179412.50847  22478929.64147
  20718065.992 7  -8127730.020 7  -6314666.06348  20718063.47348
  23411897.766 6   9248219.586 6   7199454.38747  23411895.85547
  21290412.930 7   3839918.309 7   2993317.16848  21290408.95348
  20575730.328 7    443027.008 7    349083.94549  20575730.57049
  23540401.125 5  -4265488.320 5  -3301204.95346  23540402.13346
  23762369.492 6  -3651506.238 6  -2838074.07047  23762370.75047
 16  7  7  8 32 30.0000000  0  8G02G06G12G17G19G24G25G32            
  23697189.883 5  -3533768.215 5  -2731948.33247  23697187.37147
  22474468.609 6  -9279326.355 6  -7197673.06347  22474469.78547
  20713858.539 7  -8149841.180 7  -6331895.53148  20713855.56648
  23420695.305 6   9294451.418 6   7235479.15247  23420693.60247
  21296803.336 7   3873497.668 7   3019482.89548  21296798.81348
  20579235.758 7    461447.457 7    363437.52049  20579236.16449
  23531896.258 6  -4310180.305 6  -3336029.86746  23531897.63746
  23758853.164 6  -3669985.875 6  -2852473.78547  23758854.05547
 16  7  7  8 32 45.0000000  0  8G02G06G12G17G19G24G25G32            
  23688994.148 5  -3576838.973 5  -2765509.96146  23688991.98046
  22470033.242 6  -9302632.520 6  -7215833.69147  22470034.69147
  20709666.641 7  -8171868.313 7  -6349059.52348  20709664.13348
  23429503.398 6   9340737.090 6   7271545.90647  23429501.67247
  21303216.188 7   3907199.637 7   3045744.16448  21303212.14148
  20582765.797 7    479998.164 7    377892.60248  20582766.02348
  23523397.938 5  -4354840.133 5  -3370829.71147  23523399.07447
  23755362.742 6  -3688328.738 6  -2866766.92247  23755363.67647
 16  7  7  8 33  0.0000000  0  8G02G06G12G17G19G24G25G32            
  23680805.625 5  -3619868.414 5  -2799039.36746  23680803.50446
  22465622.977 6  -9325809.633 6  -7233893.76647  22465624.48047
  20705491.094 7  -8193810.754 7  -6366157.52748  20705488.67248
  23438321.414 6   9387076.898 6   7307654.83247  23438319.98847
  21309652.766 7   3941024.395 7   3072101.10948  21309648.39148
  20586320.773 7    498680.031 7    392449.89849  20586321.11749
  23514904.852 5  -4399467.098 5  -3405603.93046  23514906.94146
  23751898.336 6  -3706534.043 6  -2880952.87947  23751898.91847
 16  7  7  8 33 15.0000000  0  8G02G06G12G17G19G24G25G32            
  23672625.461 5  -3662856.047 5  -2832536.18846  23672622.74246
  22461237.078 6  -9348857.332 6  -7251853.01247  22461238.17647
  20701331.594 7  -8215668.293 7  -6383189.37548  20701328.89848
  23447149.875 6   9433470.691 6   7343805.81347  23447148.64847
  21316113.016 7   3974971.688 7   3098553.53548  21316109.01648
  20589900.859 7    517493.109 7    407109.43449  20589901.16049
  23506419.313 5  -4444061.051 5  -3440352.44947  23506420.75847
  23748460.789 6  -3724601.566 6  -2895031.46147  23748460.17647
 16  7  7  8 33 30.0000000  0  8G02G06G12G17G19G24G25G32            
  23664452.891 5  -3705803.340 5  -2866001.58247  23664451.20347
  22456875.047 6  -9371777.121 6  -7269712.58647  22456876.59447
  20697188.422 7  -8237442.578 7  -6400156.34448  20697185.78548
  23455988.711 6   9479916.551 6   7379997.35947  23455986.78147
  21322595.602 7   4009039.617 7   3125099.96148  21322591.73848
  20593505.477 7    536435.473 7    421869.69949  20593505.82449
  23497939.555 5  -4488623.535 5  -3475076.44947  23497940.19547
  23745048.086 6  -3742532.895 6  -2909003.92647  23745048.20347
 16  7  7  8 33 45.0000000  0  8G02G06G12G17G19G24G25G32            
  23656288.078 5  -3748708.797 5  -2899434.34446  23656286.53146
  22452538.664 6  -9394567.488 6  -7287471.32447  22452540.29747
  20693061.031 7  -8259132.301 7  -6417057.42648  20693058.32448
  23464836.922 6   9526415.270 6   7416230.10947  23464835.12947
  21329101.828 7   4043229.051 7   3151741.05948  21329097.41048
  20597134.883 7    555508.324 7    436731.64849  20597135.10949
  23489466.211 5  -4533153.195 5  -3509774.87147  23489466.75047
  23741661.500 6  -3760326.582 6  -2922869.12547  23741662.01647
 16  7  7  8 34  0.0000000  0  8G02G06G12G17G19G24G25G32            
  23648132.008 5  -3791571.977 5  -2932834.20346  23648129.18446
  22448226.398 6  -9417228.023 6  -7305128.87548  22448228.05548
  20688949.719 7  -8280737.047 7  -6433892.28948  20688946.94548
  23473695.438 6   9572966.621 6   7452503.85247  23473693.23847
  21335630.930 7   4077539.836 7   3178476.73048  21335626.78548
  20600789.188 7    574711.813 7    451695.39149  20600789.32849
  23480998.266 5  -4577649.785 5  -3544447.51247  23480998.86347
  23738301.625 6  -3777982.336 6  -2936626.84447  23738301.94147
 16  7  7  8 34 15.0000000  0  8G02G06G12G17G19G24G25G32            
  23639983.578 5  -3834392.563 5  -2966200.89147  23639980.22347
  22443939.500 6  -9439758.582 6  -7322685.14547  22443940.72347
  20684854.773 7  -8302257.188 7  -6450661.23048  20684851.66448
  23482563.930 6   9619570.547 6   7488818.58247  23482561.96947
  21342183.227 7   4111971.469 7   3205306.56348  21342179.02048
  20604468.234 7    594045.406 7    466760.50449  20604468.49649
  23472537.047 5  -4622113.383 5  -3579094.45347  23472538.12147
  23734967.836 6  -3795500.145 6  -2950277.09447  23734968.89147
 16  7  7  8 34 30.0000000  0  8G02G06G12G17G19G24G25G32            
  23631843.094 6  -3877171.090 6  -2999534.77347  23631839.53147
  22439676.383 6  -9462159.734 6  -7340140.60948  22439677.64848
  20680775.469 7  -8323693.367 7  -6467364.74648  20680772.23848
  23491441.250 6   9666225.801 6   7525173.28947  23491440.10247
  21348758.039 7   4146522.879 7   3232229.73448  21348753.72748
  20608172.156 7    613508.570 7    481926.60249  20608172.35949
  23464081.672 5  -4666544.613 5  -3613716.17247  23464083.37547
  23731660.742 6  -3812880.633 6  -2963820.32447  23731661.72347
 16  7  7  8 34 45.0000000  0  8G02G06G12G17G19G24G25G32            
  23623710.852 6  -3919905.980 6  -3032834.64547  23623707.29347
  22435438.109 6  -9484429.910 6  -7357493.97348  22435439.86748
  20676712.297 7  -8345044.316 7  -6484001.84048  20676709.64548
  23500329.867 6   9712933.355 6   7561568.75847  23500328.43047
  21355356.070 7   4181194.984 7   3259246.93448  21355352.19548
  20611900.758 7    633102.336 7    497194.45749  20611900.86749
  23455633.516 6  -4710942.156 6  -3648311.63747  23455634.76247
  23728379.867 6  -3830122.438 6  -2977255.50847  23728380.80147
 16  7  7  8 35  0.0000000  0  8G02G06G12G17G19G24G25G32            
  23615586.984 6  -3962598.059 6  -3066101.18847  23615583.10947
  22431225.000 6  -9506570.055 6  -7374746.02047  22431226.20747
  20672665.438 7  -8366310.980 7  -6500573.26648  20672662.84848
  23509227.820 6   9759691.855 6   7598003.92247  23509226.32847
  21361976.820 7   4215986.438 7   3286357.15248  21361972.96948
  20615653.969 7    652825.504 7    512563.14549  20615654.41449
  23447190.820 5  -4755306.973 5  -3682881.60547  23447192.14547
  23725124.617 6  -3847226.480 6  -2990583.34847  23725125.64847
 16  7  7  8 35 15.0000000  0  8G02G06G12G17G19G24G25G32            
  23607471.680 6  -4005246.148 6  -3099333.43047  23607467.44547
  22427037.445 6  -9528579.039 6  -7391895.85948  22427038.82048
  20668634.891 7  -8387492.465 7  -6517078.32048  20668631.70348
  23518135.234 6   9806501.918 6   7634479.24647  23518133.92247
  21368619.953 7   4250897.605 7   3313560.64148  21368616.00048
  20619431.602 7    672679.160 7    528033.51649  20619431.97349
  23438754.813 6  -4799638.129 6  -3717425.33247  23438756.50847
  23721896.789 6  -3864191.793 6  -3003803.08247  23721897.56647
 16  7  7  8 35 30.0000000  0  8G02G06G12G17G19G24G25G32            
  23599363.914 6  -4047849.426 6  -3132530.75847  23599360.43447
  22422874.148 7  -9550456.238 7  -7408943.00447  22422875.79747
  20664620.367 7  -8408588.207 7  -6533516.55148  20664617.50848
  23527053.008 6   9853363.656 6   7670994.87947  23527051.34847
  21375286.273 7   4285928.664 7   3340857.53548  21375282.00048
  20623234.992 7    692663.223 7    543605.50849  20623234.86749
  23430325.969 5  -4843935.113 5  -3751942.44547  23430327.12547
  23718694.797 6  -3881017.824 6  -3016914.27347  23718696.09447
 16  7  7  8 35 45.0000000  0  9G02G06G12G14G17G19G24G25G32         
  23591264.500 6  -4090409.531 6  -3165694.44147  23591261.75847
  22418735.461 6  -9572203.324 6  -7425888.77047  22418737.34447
  20660622.063 7  -8429600.078 7  -6549889.43848  20660619.39148
  24709427.45315    -85370.14115    -51036.22755  24709425.98855
  23535980.273 6   9900274.785 6   7707548.99647  23535978.38347
  21381974.750 7   4321077.352 7   3368246.10548  21381970.54348
  20627062.188 7    712775.891 7    559277.70349  20627062.34049
  23421902.547 5  -4888199.742 5  -3786434.33247  23421904.12947
  23715518.617 6  -3897706.355 6  -3029918.30547  23715520.05947
 16  7  7  8 36  0.0000000  0  9G02G06G12G14G17G19G24G25G32         
  23583173.281 5  -4132926.805 5  -3198824.78546  23583170.96146
  22414621.680 6  -9593820.520 6  -7442733.31647  22414623.43847
  20656639.250 7  -8450528.539 7  -6566197.32848  20656636.33648
  24703320.039 5   -117464.746 5    -76045.01246  24703319.22346
  23544916.492 6   9947234.648 6   7744141.08647  23544914.68847
  21388685.289 7   4356342.797 7   3395725.62948  21388681.35948
  20630913.484 7    733016.305 7    575049.44149  20630913.80549
  23413484.867 5  -4932432.371 5  -3820901.29747  23413486.80147
  23712369.898 6  -3914257.664 6  -3042815.43047  23712370.32447
 16  7  7  8 36 15.0000000  0  9G02G06G12G14G17G19G24G25G32         
  23575090.641 5  -4175401.527 5  -3231921.94947  23575088.62147
  22410532.430 6  -9615308.453 6  -7459477.18047  22410534.52747
  20652672.297 7  -8471374.387 7  -6582440.84848  20652669.53148
  24697232.133 5   -149458.234 5   -100974.97346  24697231.35946
  23553861.352 6   9994242.188 6   7780770.32047  23553859.75447
  21395418.273 7   4391724.004 7   3423295.38748  21395414.35948
  20634789.602 7    753383.828 7    590920.22349  20634789.62949
  23405073.789 5  -4976633.691 5  -3855343.84047  23405075.43447
  23709245.578 6  -3930672.504 6  -3055606.20747  23709247.03947
 16  7  7  8 36 30.0000000  0  9G02G06G12G14G17G19G24G25G32         
  23567016.586 5  -4217832.863 5  -3264985.26247  23567013.59047
  22406468.656 6  -9636666.313 6  -7476119.62947  22406470.27747
  20648721.359 7  -8492137.035 7  -6598619.52748  20648718.48448
  24691162.547 5   -181349.801 5   -125825.55946  24691162.14546
  23562815.906 6  10041297.609 6   7817436.83247  23562814.26647
  21402173.063 7   4427221.004 7   3450955.43048  21402169.23448
  20638689.570 7    773878.957 7    606890.43849  20638689.78149
  23396667.867 5  -5020803.176 5  -3889761.60547  23396670.18847
  23706147.922 6  -3946950.273 6  -3068290.16847  23706149.21547
 16  7  7  8 36 45.0000000  0  9G02G06G12G14G17G19G24G25G32         
  23558950.891 5  -4260221.102 5  -3298015.04347  23558947.62947
  22402429.555 6  -9657894.359 6  -7492660.95747  22402430.51247
  20644786.492 7  -8512816.789 7  -6614733.61348  20644783.58248
  24685113.609 5   -213139.590 5   -150596.80146  24685112.57446
  23571779.406 6  10088400.156 6   7854140.07847  23571778.22747
  21408949.703 7   4462832.992 7   3478705.02048  21408945.99648
  20642613.969 7    794501.098 7    622959.62948  20642614.13348
  23388269.258 5  -5064941.180 5  -3924154.82847  23388270.85247
  23703077.141 6  -3963091.266 6  -3080867.55547  23703077.25047
 16  7  7  8 37  0.0000000  0  9G02G06G12G14G17G19G24G25G32         
  23550892.758 6  -4302566.090 6  -3331011.10947  23550889.16847
  22398414.453 6  -9678992.434 6  -7509100.98447  22398415.96147
  20640867.016 7  -8533413.738 7  -6630783.18448  20640864.02048
  24679083.086 5   -244827.520 5   -175288.68045  24679082.28945
  23580751.891 6  10135549.465 6   7890879.78147  23580749.92647
  21415748.547 7   4498559.590 7   3506543.92248  21415744.41448
  20646562.648 7    815250.176 7    639127.73049  20646562.13749
  23379876.727 5  -5109047.555 5  -3958523.41447  23379878.19547
  23700031.148 6  -3979095.355 6  -3093338.27347  23700032.48847
 16  7  7  8 37 15.0000000  0  9G02G06G12G14G17G19G24G25G32         
  23542843.250 6  -4344866.496 6  -3363972.45747  23542839.90647
  22394424.438 6  -9699959.359 6  -7525438.83647  22394426.10247
  20636963.367 7  -8553926.770 7  -6646767.36748  20636960.40248
  24673073.570 5   -276412.434 5   -199900.28946  24673071.69146
  23589732.898 6  10182746.191 6   7927656.41847  23589730.92647
  21422568.570 7   4534401.480 7   3534472.66448  21422564.89848
  20650535.078 8    836126.828 8    655395.24249  20650535.37949
  23371489.797 6  -5153121.277 6  -3992866.55147  23371491.05547
  23697012.211 6  -3994961.484 6  -3105701.48847  23697012.71947
 16  7  7  8 37 30.0000000  0  9G02G06G12G14G17G19G24G25G32         
  23534801.922 6  -4387121.320 6  -3396898.24647  23534799.16047
  22390460.023 6  -9720794.418 6  -7541673.93047  22390461.01647
  20633076.086 7  -8574355.453 7  -6662685.82448  20633073.29348
  24667082.430 5   -307893.609 5   -224431.09845  24667081.21945
  23598723.109 6  10229990.652 6   7964470.25447  23598721.29347
  21429411.227 7   4570358.754 7   3562491.30948  21429407.44548
  20654532.438 7    857131.492 7    671762.50049  20654531.89149
  23363108.969 6  -5197161.875 6  -4027183.88347  23363110.43047
  23694018.250 6  -4010689.098 6  -3117956.75447  23694020.57847
 16  7  7  8 37 45.0000000  0  9G02G06G12G14G17G19G24G25G32         
  23526769.477 6  -4429330.277 6  -3429788.35546  23526767.43046
  22386520.016 6  -9741497.074 6  -7557805.87547  22386521.60247
  20629204.898 7  -8594699.305 7  -6678538.16448  20629202.23448
  24661112.438 5   -339270.434 5   -248880.55146  24661110.36746
  23607722.242 6  10277282.629 6   8001321.11347  23607720.81647
  21436275.758 7   4606431.336 7   3590599.80148  21436271.87948
  20658553.539 7    878264.234 7    688229.55149  20658553.84449
  23354734.000 6  -5241168.844 6  -4061475.00447  23354735.62547
  23691052.438 6  -4026277.695 6  -3130103.70347  23691053.95347
 16  7  7  8 38  0.0000000  0  9G02G06G12G14G17G19G24G25G32         
  23518746.500 6  -4471492.551 6  -3462642.04347  23518743.65647
  22382605.750 6  -9762066.719 6  -7573834.16847  22382607.10247
  20625349.859 7  -8614957.965 7  -6694324.13348  20625346.37148
  24655161.055 5   -370542.402 5   -273248.31646  24655158.98046
  23616730.438 6  10324622.188 6   8038209.03947  23616729.29347
  21443162.188 7   4642619.430 7   3618798.31348  21443158.40648
  20662599.313 7    899525.594 7    704796.83249  20662599.45749
  23346367.422 6  -5285141.750 6  -4095739.59047  23346368.18447
  23688112.758 6  -4041726.855 6  -3142142.01647  23688113.41847
 16  7  7  8 38 15.0000000  0  9G02G06G12G14G17G19G24G25G32         
  23510732.586 6  -4513607.477 6  -3495458.83647  23510729.38747
  22378717.117 6  -9782502.969 6  -7589758.50848  22378718.76248
  20621510.664 7  -8635131.152 7  -6710043.49248  20621507.83248
  24649229.672 5   -401708.875 5   -297533.86346  24649228.27046
  23625747.961 6  10372009.395 6   8075134.12147  23625746.27747
  21450070.266 7   4678922.777 7   3647086.61348  21450066.67248
  20666669.844 7    920915.410 7    721464.21549  20666670.43449
  23338005.438 6  -5329080.242 6  -4129977.38347  23338006.78147
  23685199.898 6  -4057036.207 6  -3154071.37147  23685200.13747
 16  7  7  8 38 30.0000000  0  9G02G06G12G14G17G19G24G25G32         
  23502728.094 6  -4555674.859 6  -3528238.60947  23502723.98047
  22374853.398 6  -9802805.484 6  -7605578.64147  22374855.18047
  20617688.336 7  -8655218.680 7  -6725696.10948  20617685.48848
  24643319.836 5   -432769.492 5   -321736.91845  24643317.72345
  23634774.734 6  10419444.172 6   8112096.27347  23634773.30947
  21457000.695 7   4715341.258 7   3675464.64848  21456996.63748
  20670764.945 7    942433.809 7    738231.77349  20670764.64549
  23329651.258 6  -5372984.105 6  -4164188.16847  23329652.26647
  23682313.461 6  -4072205.531 6  -3165891.61747  23682313.60547
 16  7  7  8 38 45.0000000  0  9G02G06G12G14G17G19G24G25G32         
  23494731.547 6  -4597694.441 6  -3560981.12547  23494728.16447
  22371015.289 6  -9822974.199 6  -7621294.50047  22371016.94947
  20613881.813 7  -8675220.734 7  -6741282.12948  20613879.01648
  24637428.883 5   -463724.238 5   -345857.53146  24637427.44946
  23643810.383 6  10466925.961 6   8149095.04347  23643809.09047
  21463952.789 7   4751874.133 7   3703931.80948  21463948.95348
  20674883.719 7    964080.469 7    755099.28549  20674884.05149
  23321303.180 6  -5416853.551 6  -4198372.14547  23321304.37947
  23679452.578 6  -4087234.895 6  -3177602.80547  23679453.28547
 16  7  7  8 39  0.0000000  0  9G02G06G12G14G17G19G24G25G32         
  23486744.516 6  -4639665.410 6  -3593685.73447  23486741.40647
  22367203.047 6  -9843008.309 6  -7636905.49648  22367204.65248
  20610092.055 7  -8695136.492 7  -6756800.89848  20610089.30148
  24631558.727 5   -494572.320 5   -369895.03546  24631556.86346
  23652855.078 6  10514455.148 6   8186130.73447  23652853.36747
  21470926.648 7   4788521.715 7   3732488.35948  21470922.52748
  20679027.344 7    985855.762 7    772067.03949  20679027.87149
  23312961.672 5  -5460687.715 5  -4232528.60947  23312962.44947
  23676620.039 6  -4102123.598 6  -3189204.39547  23676620.13747
 16  7  7  8 39 15.0000000  0  9G02G06G12G14G17G19G24G25G32         
  23478767.250 6  -4681587.859 6  -3626352.53547  23478763.52747
  22363416.711 6  -9862908.176 6  -7652411.88347  22363417.87147
  20606318.484 7  -8714966.652 7  -6772252.96948  20606315.55148
  24625708.344 5   -525314.125 5   -393849.69146  24625707.64146
  23661908.273 6  10562030.836 6   8223202.68047  23661907.05547
  21477921.938 7   4825283.184 7   3761133.64848  21477917.82448
  20683195.789 7   1007759.602 7    789134.95348  20683195.91448
  23304627.125 6  -5504487.184 6  -4266658.05946  23304627.23846
  23673812.469 6  -4116872.113 6  -3200696.72347  23673813.61347
 16  7  7  8 39 30.0000000  0  9G02G06G12G14G17G19G24G25G32         
  23470798.961 6  -4723460.984 6  -3658980.92247  23470795.66447
  22359654.633 6  -9882672.918 6  -7667812.99647  22359656.27047
  20602561.461 7  -8734710.180 7  -6787637.52748  20602559.04348
  24619879.023 5   -555948.566 5   -417720.69946  24619877.74246
  23670970.688 6  10609653.477 6   8260311.19947  23670969.27747
  21484939.242 7   4862158.750 7   3789867.84848  21484935.03948
  20687388.688 7   1029791.996 7    806303.05148  20687388.66848
  23296298.570 6  -5548251.129 6  -4300759.82447  23296299.23047
  23671033.047 6  -4131479.594 6  -3212079.18847  23671033.84447
 16  7  7  8 39 45.0000000  0  9G02G06G12G14G17G19G24G25G32         
  23462839.984 6  -4765283.824 6  -3691570.12147  23462836.57447
  22355919.438 6  -9902301.582 6  -7683108.04348  22355921.59048
  20598821.156 7  -8754366.695 7  -6802954.28948  20598818.27048
  24614070.273 5   -586474.887 5   -441507.41046  24614068.96146
  23680042.094 6  10657323.285 6   8297456.47347  23680040.68847
  21491978.172 7   4899148.867 7   3818691.29748  21491974.06348
  20691605.422 7   1051953.492 7    823571.73049  20691605.78149
  23287977.656 5  -5591978.762 5  -4334833.27346  23287978.33246
  23668280.383 6  -4145945.273 6  -3223351.13746  23668281.29746
 16  7  7  8 40  0.0000000  0  9G02G06G12G14G17G19G24G25G32         
  23454890.898 6  -4807057.316 6  -3724120.88747  23454887.45747
  22352210.359 6  -9921795.289 6  -7698297.92247  22352212.24247
  20595097.039 7  -8773937.473 7  -6818204.25048  20595094.14148
  24608281.508 5   -616894.391 5   -465210.91046  24608279.89846
  23689121.469 6  10705038.859 6   8334637.42247  23689120.90247
  21499038.922 7   4936251.879 7   3847602.72348  21499034.68448
  20695847.406 7   1074243.090 7    840940.23449  20695847.48049
  23279663.203 6  -5635671.297 6  -4368879.39847  23279663.82847
  23665554.406 6  -4160270.367 6  -3234513.53147  23665555.45747
 16  7  7  8 40 15.0000000  0  9G02G06G12G14G17G19G24G25G32         
  23446951.195 6  -4848780.566 6  -3756632.49647  23446947.82847
  22348526.398 6  -9941153.367 6  -7713382.12148  22348528.79748
  20591388.992 7  -8793421.832 7  -6833386.86348  20591386.14848
  24602513.594 5   -647205.836 5   -488830.23046  24602511.47746
  23698210.219 6  10752800.789 6   8371854.48847  23698209.47347
  21506120.922 7   4973467.941 7   3876602.24648  21506116.66848
  20700113.289 7   1096660.684 7    858408.47349  20700113.05149
  23271355.703 5  -5679328.145 5  -4402897.71946  23271356.47746
  23662855.688 6  -4174454.206 6  -3245565.87547  23662856.57047
 16  7  7  8 40 30.0000000  0  9G02G06G12G14G17G19G24G25G32         
  23439020.625 6  -4890453.207 6  -3789104.64547  23439017.99647
  22344868.773 6  -9960375.324 6  -7728360.26248  22344870.72748
  20587697.914 7  -8812819.426 7  -6848501.87548  20587694.95748
  24596766.039 5   -677408.832 5   -512365.02046  24596764.12546
  23707308.023 6  10800608.289 6   8409107.04347  23707307.12547
  21513224.133 7   5010796.949 7   3905689.77748  21513219.86748
  20704403.398 7   1119206.738 7    875976.81349  20704403.72749
  23263055.055 5  -5722948.918 5  -4436887.91047  23263055.48447
  23660183.625 6  -4188496.539 6  -3256507.93447  23660184.21547
 16  7  7  8 40 45.0000000  0  9G02G06G12G14G17G19G24G25G32         
  23431101.344 6  -4932073.688 6  -3821536.16847  23431098.37547
  22341237.250 6  -9979459.711 6  -7743231.20748  22341238.82048
  20584023.227 7  -8832128.934 7  -6863548.23848  20584020.45748
  24591039.914 5   -707502.000 5   -535814.26246  24591038.11346
  23716414.320 6  10848462.527 6   8446396.04347  23716413.32847
  21520348.930 7   5048239.840 7   3934866.04348  21520345.44948
  20708718.367 7   1141882.285 7    893646.05149  20708718.62549
  23254760.828 6  -5766532.352 6  -4470849.01647  23254761.98447
  23657538.875 6  -4202395.953 6  -3267338.64147  23657539.69547
 16  7  7  8 41  0.0000000  0  9G02G06G12G14G17G19G24G25G32         
  23423191.078 6  -4973642.785 6  -3853927.65247  23423187.60247
  22337631.313 6  -9998407.469 6  -7757995.68448  22337632.94148
  20580365.602 7  -8851351.406 7  -6878526.78148  20580362.61348
  24585333.992 5   -737486.098 5   -559178.44146  24585332.18046
  23725529.516 6  10896362.250 6   8483720.46547  23725528.18847
  21527496.000 7   5085795.082 7   3964129.85948  21527491.53948
  20713058.227 7   1164686.055 7    911415.21549  20713058.44549
  23246474.094 6  -5810079.398 6  -4504781.77346  23246474.64146
  23654920.031 6  -4216153.438 6  -3278058.74647  23654921.52347
 16  7  7  8 41 15.0000000  0  9G02G06G12G14G17G19G24G25G32         
  23415290.227 6  -5015160.582 6  -3886279.16447  23415286.83647
  22334051.398 6 -10017218.793 6  -7772653.84447  22334053.22747
  20576724.047 7  -8870487.227 7  -6893437.81348  20576721.27748
  24579648.844 5   -767361.484 5   -582457.96546  24579647.39846
  23734653.063 6  10944306.848 6   8521079.84847  23734651.91047
  21534663.609 7   5123461.980 7   3993480.68048  21534659.53948
  20717421.734 7   1187617.621 7    929283.95749  20717422.00049
  23238194.836 6  -5853590.434 6  -4538686.45347  23238195.52747
  23652328.531 6  -4229769.340 6  -3288668.52347  23652330.80147
 16  7  7  8 41 30.0000000  0  9G02G06G12G14G17G19G24G25G32         
  23407399.164 6  -5056626.383 6  -3918590.15647  23407396.75447
  22330497.625 6 -10035893.191 6  -7787205.31648  22330499.38748
  20573099.031 7  -8889536.016 7  -6908281.02048  20573096.42248
  24573984.039 5   -797127.500 5   -605652.26646  24573983.06646
  23743785.039 6  10992296.211 6   8558474.12547  23743784.10947
  21541853.031 7   5161240.504 7   4022918.47748  21541848.80148
  20721809.797 7   1210677.109 7    947252.37949  20721809.98449
  23229921.984 6  -5897064.945 6  -4572562.69547  23229922.89847
  23649765.781 6  -4243243.266 6  -3299167.68447  23649766.77347
 16  7  7  8 41 45.0000000  0  9G02G06G12G14G17G19G24G25G32         
  23399518.891 6  -5098040.297 6  -3950860.71547  23399514.86747
  22326970.656 7 -10054430.844 7  -7801650.23447  22326971.93447
  20569490.773 7  -8908498.215 7  -6923056.75848  20569487.63748
  24568340.539 5   -826784.453 5   -628761.57846  24568339.41446
  23752926.008 6  11040329.621 6   8595902.72747  23752924.68047
  21549062.672 7   5199129.699 7   4052442.50448  21549058.53148
  20726222.258 7   1233863.883 7    965319.98448  20726222.34048
  23221655.672 6  -5940503.363 6  -4606410.78947  23221656.45747
  23647228.281 6  -4256575.555 6  -3309556.48047  23647229.62947
 16  7  7  8 42  0.0000000  0  9G02G06G12G14G17G19G24G25G32         
  23391647.898 6  -5139402.164 6  -3983090.73447  23391644.20347
  22323469.602 7 -10072831.598 7  -7815988.47348  22323470.60948
  20565898.977 7  -8927373.684 7  -6937764.91848  20565895.76648
  24562717.258 4   -856332.176 4   -651785.76246  24562716.79346
  23762074.609 6  11088406.973 6   8633365.56647  23762073.34047
  21556293.648 7   5237129.266 7   4082052.55548  21556289.43848
  20730658.859 7   1257177.809 7    983486.66849  20730658.69949
  23213396.555 6  -5983905.555 6  -4640230.66847  23213397.59047
  23644718.602 6  -4269766.070 6  -3319834.78947  23644719.36347
 16  7  7  8 42 15.0000000  0  9G02G06G12G14G17G19G24G25G32         
  23383786.602 6  -5180710.219 6  -4015278.81347  23383783.33647
  22319993.875 6 -10091093.762 6  -7830218.70748  22319995.49648
  20562323.586 7  -8946161.031 7  -6952404.40648  20562320.98448
  24557116.414 4   -885768.844 4   -674723.44146  24557115.33646
  23771232.805 6  11136529.512 6   8670863.62147  23771230.78547
  21563546.164 7   5275240.473 7   4111749.58248  21563542.16448
  20735119.656 7   1280620.332 7   1001753.55549  20735119.60249
  23205144.367 6  -6027269.895 6  -4674021.03147  23205145.25847
  23642236.234 6  -4282813.262 6  -3330001.45747  23642236.50447
 16  7  7  8 42 30.0000000  0  9G02G06G12G14G17G19G24G25G32         
  23375936.508 6  -5221965.289 6  -4047425.61347  23375932.85547
  22316544.930 7 -10109218.262 7  -7844341.68048  22316546.44548
  20558765.016 7  -8964861.215 7  -6966975.97348  20558762.39848
  24551536.531 4   -915095.402 4   -697575.27746  24551534.60246
  23780397.922 6  11184695.625 6   8708395.64147  23780396.03147
  21570819.320 7   5313461.762 7   4141532.39848  21570815.06648
  20739604.617 7   1304190.246 7   1020119.70348  20739605.09848
  23196899.180 6  -6070597.504 6  -4707782.78147  23196900.65247
  23639780.188 6  -4295718.180 6  -3340057.23847  23639780.57847
 16  7  7  8 42 45.0000000  0  9G02G06G12G14G17G19G24G25G32         
  23368096.578 6  -5263166.723 6  -4079530.61347  23368092.64147
  22313122.227 7 -10127204.711 7  -7858357.09448  22313123.61348
  20555223.305 7  -8983473.930 7  -6981479.38348  20555220.66048
  24545977.141 5   -944311.410 5   -720341.00046  24545974.81346
  23789572.172 6  11232904.988 6   8745961.34847  23789570.35247
  21578113.586 7   5351792.977 7   4171400.85548  21578109.35248
  20744114.367 7   1327887.668 7   1038585.21149  20744114.29749
  23188661.242 6  -6113888.059 6  -4741515.67247  23188662.28147
  23637350.930 6  -4308480.512 6  -3350001.89847  23637351.53147
 16  7  7  8 43  0.0000000  0  9G02G06G12G14G17G19G24G25G32         
  23360266.531 6  -5304314.367 6  -4111593.73447  23360262.11747
  22309725.875 7 -10145052.953 7  -7872264.81647  22309727.25047
  20551698.398 7  -9001999.281 7  -6995914.71548  20551694.98848
  24540438.102 5   -973416.578 5   -743020.33646  24540435.80146
  23798754.313 6  11281157.449 6   8783560.63347  23798752.73047
  21585428.844 7   5390233.629 7   4201354.60948  21585424.65248
  20748647.930 7   1351712.152 7   1057149.72749  20748648.28149
  23180430.336 6  -6157141.438 6  -4775219.57847  23180431.25447
  23634949.414 6  -4321100.242 6  -3359835.46147  23634950.30547
 16  7  7  8 43 15.0000000  0  9G02G06G12G14G17G19G24G25G32         
  23352446.516 6  -5345407.887 6  -4143614.62947  23352443.00847
  22306356.016 6 -10162762.820 6  -7886064.69948  22306357.43848
  20548189.305 7  -9020437.254 7  -7010281.96948  20548186.41848
  24534919.781 4  -1002410.828 4   -765613.22746  24534918.14146
  23807944.516 6  11329452.906 6   8821193.43847  23807942.41847
  21592764.359 7   5428783.527 7   4231393.46548  21592760.41448
  20753205.648 7   1375663.828 7   1075813.36349  20753206.03949
  23172206.586 6  -6200357.625 6  -4808894.50847  23172207.82447
  23632575.555 5  -4333577.262 5  -3369557.84046  23632576.07846
 16  7  7  8 43 30.0000000  0  9G02G06G12G14G17G19G24G25G32         
  23344636.852 6  -5386446.605 6  -4175592.84047  23344633.66447
  22303011.938 6 -10180333.617 6  -7899756.22348  22303013.98848
  20544697.547 7  -9038787.227 7  -7024580.64148  20544694.82448
  24529423.320 4  -1031293.395 4   -788119.10946  24529422.04346
  23817142.891 6  11377791.531 6   8858859.87947  23817141.42647
  21600121.219 7   5467442.781 7   4261517.55148  21600117.07048
  20757788.117 7   1399743.055 7   1094576.38348  20757788.13348
  23163990.016 6  -6243536.004 6  -4842539.96947  23163991.37147
  23630228.078 6  -4345910.980 6  -3379168.52347  23630229.39147
 16  7  7  8 43 45.0000000  0  9G02G06G12G14G17G19G24G25G32         
  23336837.469 6  -5427430.449 6  -4207528.29347  23336834.46947
  22299694.859 7 -10197765.293 7  -7913339.34848  22299696.18048
  20541222.406 7  -9057049.164 7  -7038810.71948  20541219.61348
  24523948.422 4  -1060064.027 4   -810537.77346  24523947.52346
  23826349.672 6  11426172.895 6   8896559.62547  23826348.00447
  21607498.461 7   5506210.965 7   4291726.52348  21607494.20348
  20762394.398 7   1423949.328 7   1113438.40248  20762394.36348
  23155780.750 6  -6286676.602 6  -4876156.00447  23155782.17247
  23627908.453 6  -4358101.465 6  -3388667.58647  23627909.64547
 16  7  7  8 44  0.0000000  0  9G02G06G12G14G17G19G24G25G32         
  23329049.422 6  -5468358.340 6  -4239420.13747  23329045.78947
  22296404.523 6 -10215057.023 6  -7926813.40648  22296405.71548
  20537763.938 7  -9075222.527 7  -7052971.77748  20537761.22348
  24518495.227 4  -1088722.133 4   -832868.72745  24518494.18445
  23835564.688 6  11474597.320 6   8934292.91047  23835563.89547
  21614896.398 7   5545088.285 7   4322020.52348  21614892.71948
  20767024.758 7   1448283.410 7   1132400.01248  20767025.03148
  23147578.602 6  -6329778.648 6  -4909741.98847  23147579.78547
  23625616.375 6  -4370148.031 6  -3398054.53547  23625617.35947
 16  7  7  8 44 15.0000000  0  9G02G06G12G14G17G19G24G25G32         
  23321270.977 6  -5509229.645 6  -4271267.90247  23321268.74247
  22293140.672 7 -10232208.469 7  -7940178.16048  22293142.35548
  20534323.070 7  -9093307.047 7  -7067063.60948  20534319.87148
  24513063.313 4  -1117267.195 4   -855111.59046  24513062.61346
  23844787.156 6  11523064.664 6   8972059.62947  23844786.12547
  21622315.094 7   5584074.508 7   4352399.38348  21622311.30548
  20771680.164 7   1472745.262 7   1151461.18049  20771680.09849
  23139384.031 6  -6372841.941 6  -4943297.78147  23139385.32447
  23623350.930 6  -4382050.332 6  -3407329.07047  23623352.72347
 16  7  7  8 44 30.0000000  0  9G02G06G12G14G17G19G24G25G32         
  23313504.367 6  -5550045.273 6  -4303072.24247  23313501.64847
  22289903.297 6 -10249220.414 6  -7953434.21548  22289904.91848
  20530898.117 7  -9111303.785 7  -7081087.05148  20530895.17248
  24507653.039 4  -1145700.055 4   -877267.07045  24507651.66445
  23854019.078 6  11571573.867 6   9009858.98847  23854017.58247
  21629754.680 7   5623168.266 7   4382862.04748  21629750.60248
  20776358.820 7   1497333.602 7   1170620.91049  20776358.90249
  23131196.711 6  -6415867.340 6  -4976824.04347  23131198.01647
  23621114.102 6  -4393809.355 6  -3416491.93847  23621114.70747
 16  7  7  8 44 45.0000000  0  9G02G06G12G14G17G19G24G25G32         
  23305748.492 6  -5590805.020 6  -4334833.08647  23305744.45347
  22286692.289 6 -10266092.895 6  -7966581.59048  22286694.14548
  20527490.008 7  -9129212.723 7  -7095042.05548  20527487.14848
  24502263.953 3  -1174020.691 3   -899335.09445  24502262.62945
  23863257.492 6  11620124.160 6   9047690.35947  23863256.13747
  21637214.320 7   5662369.047 7   4413408.09848  21637209.99248
  20781062.172 7   1522048.316 7   1189879.11749  20781062.06649
  23123016.219 6  -6458854.957 6  -5010320.86747  23123017.62147
  23618903.328 6  -4405425.262 6  -3425543.30947  23618904.01647
 16  7  7  8 45  0.0000000  0  9G02G06G12G14G17G19G24G25G32         
  23298002.305 6  -5631507.957 6  -4366549.63747  23297999.19147
  22283508.578 6 -10282824.988 6  -7979619.58248  22283510.03148
  20524098.938 7  -9147033.203 7  -7108928.13748  20524095.80948
  24496896.055 3  -1202228.172 3   -921314.91445  24496894.80145
  23872504.125 6  11668715.988 6   9085554.08647  23872502.82447
  21644694.367 7   5701677.297 7   4444037.88748  21644690.23048
  20785789.156 7   1546889.723 7   1209236.04349  20785789.59049
  23114843.883 6  -6501804.000 6  -5043787.64147  23114844.43047
  23616719.828 6  -4416897.199 6  -3434482.47747  23616720.73847
 16  7  7  8 45 15.0000000  0  9G02G06G12G14G17G19G24G25G32         
  23290268.313 6  -5672153.211 6  -4398221.23847  23290265.41047
  22280351.109 7 -10299415.965 7  -7992547.60948  22280352.98848
  20520724.828 7  -9164764.492 7  -7122744.72348  20520722.19948
  24491549.641 3  -1230321.695 3   -943205.96545  24491548.62945
  23881758.555 6  11717349.703 6   9123450.46547  23881757.30947
  21652194.938 7   5741093.195 7   4474751.56348  21652190.83248
  20790540.695 7   1571858.359 7   1228692.11749  20790540.83249
  23106677.695 6  -6544713.715 6  -5077223.75047  23106679.32447
  23614565.000 6  -4428224.469 6  -3443308.91847  23614565.89847
 16  7  7  8 45 30.0000000  0  9G02G06G12G14G17G19G24G25G32         
  23282544.336 6  -5712742.063 6  -4429848.89847  23282540.80547
  22277220.961 6 -10315867.207 6  -8005366.75848  22277222.37148
  20517367.180 7  -9182408.211 7  -7136493.08248  20517364.43848
  24486226.516 3  -1258302.648 3   -965009.30145  24486223.59045
  23891021.172 6  11766023.605 6   9161378.14847  23891019.95347
  21659716.047 7   5780614.688 7   4505547.52748  21659711.83648
  20795315.594 7   1596952.504 7   1248245.98449  20795315.74649
  23098519.898 6  -6587585.695 6  -5110630.46547  23098521.05547
  23612437.031 6  -4439408.672 6  -3452023.88347  23612438.02047
 16  7  7  8 45 45.0000000  0  9G02G06G12G14G17G19G24G25G32         
  23274831.805 6  -5753272.863 6  -4461431.28947  23274829.00047
  22274117.539 6 -10332177.246 6  -8018075.87148  22274118.82048
  20514026.766 7  -9199963.004 7  -7150172.13748  20514023.87148
  24480921.469 2  -1286169.320 2   -986723.56645  24480920.96945
  23900290.594 6  11814738.527 6   9199337.79747  23900289.75847
  21667256.875 7   5820242.824 7   4536426.58248  21667252.85548
  20800115.102 7   1622173.586 7   1267898.75848  20800115.39548
  23090368.422 6  -6630418.402 6  -5144006.58247  23090369.89547
  23610335.594 6  -4450448.363 6  -3460626.23047  23610337.02347
 16  7  7  8 46  0.0000000  0  9G02G06G12G14G17G19G24G25G32         
  23267129.906 6  -5793745.887 6  -4492968.69947  23267126.50847
  22271040.305 7 -10348346.387 7  -8030675.19148  22271041.27748
  20510703.086 7  -9217429.258 7  -7163782.20748  20510700.60948
  24475640.242 3  -1313922.098 3  -1008349.11345  24475640.32445
  23909569.172 6  11863493.883 6   9237328.95347  23909567.98847
  21674818.047 7   5859976.789 7   4567388.09448  21674813.69148
  20804938.484 7   1647520.684 7   1287649.72348  20804938.69148
  23082224.922 6  -6673212.324 6  -5177352.46547  23082226.75847
  23608261.961 6  -4461343.988 6  -3469116.32047  23608263.18847
 16  7  7  8 46 15.0000000  0  9G02G06G12G14G17G19G24G25G32         
  23259438.938 6  -5834160.207 6  -4524460.34847  23259436.33247
  22267990.320 6 -10364373.824 6  -8043164.11348  22267991.94948
  20507396.320 7  -9234806.250 7  -7177322.71148  20507393.54348
  24470381.695 3  -1341560.156 3  -1029885.23045  24470380.49245
  23918854.719 6  11912289.957 6   9275351.83247  23918853.42647
  21682399.250 7   5899816.746 7   4598432.20348  21682394.87548
  20809785.969 7   1672994.410 7   1307499.37148  20809786.39548
  23074089.625 6  -6715966.699 6  -5210667.53947  23074090.21947
  23606216.203 6  -4472094.859 6  -3477493.63747  23606217.50047
 16  7  7  8 46 30.0000000  0  9G02G06G12G14G17G19G24G25G32         
  23251759.898 6  -5874516.383 6  -4555906.72747  23251756.63347
  22264966.992 6 -10380260.297 6  -8055543.18448  22264968.47748
  20504106.352 7  -9252094.852 7  -7190794.34848  20504103.62548
  24465144.219 3  -1369084.070 3  -1051332.41045  24465142.68045
  23928147.398 6  11961125.520 6   9313405.46547  23928146.82847
  21690000.406 7   5939761.539 7   4629558.00448  21689996.31348
  20814657.477 7   1698593.957 7   1327447.04749  20814657.63349
  23065960.891 6  -6758682.316 6  -5243952.43447  23065961.75447
  23604197.844 6  -4482701.785 6  -3485758.76647  23604199.33247
 16  7  7  8 46 45.0000000  0  9G02G06G12G14G17G19G24G25G32         
  23244091.352 6  -5914814.230 6  -4587307.64547  23244088.55547
  22261970.758 6 -10396005.793 6  -8067812.39548  22261972.74648
  20500833.156 7  -9269295.316 7  -7204197.30148  20500830.69548
  24459927.563 4  -1396493.855 4  -1072690.66846  24459927.02046
  23937448.242 6  12010000.223 6   9351489.61347  23937447.12947
  21697621.734 7   5979810.758 7   4660765.18448  21697617.44148
  20819552.805 7   1724318.785 7   1347492.35949  20819552.90649
  23057839.906 6  -6801359.230 6  -5277207.15647  23057840.56347
  23602206.930 6  -4493164.840 6  -3493911.81347  23602207.84047
 16  7  7  8 47  0.0000000  0  9G02G06G12G14G17G19G24G25G32         
  23236434.453 6  -5955052.422 6  -4618662.06347  23236431.09447
  22259001.906 6 -10411608.758 6  -8079970.53148  22259003.46148
  20497576.961 7  -9286406.133 7  -7217530.41048  20497574.44948
  24454734.453 4  -1423788.113 4  -1093958.91446  24454733.08246
  23946756.664 6  12058915.094 6   9389605.04747  23946754.98847
  21705262.648 7   6019965.316 7   4692054.44148  21705258.78148
  20824471.773 7   1750169.832 7   1367636.02349  20824472.31349
  23049726.313 6  -6843996.020 6  -5310430.60247  23049727.09847
  23600243.469 6  -4503482.633 6  -3501951.65247  23600245.18047
 16  7  7  8 47 15.0000000  0  9G02G06G12G14G17G19G24G25G32         
  23228788.375 6  -5995230.746 6  -4649969.83247  23228785.00447
  22256059.719 7 -10427069.465 7  -8092017.82448  22256061.08648
  20494338.297 7  -9303427.508 7  -7230793.80948  20494335.52748
  24449561.523 4  -1450966.879 4  -1115137.18046  24449561.56346
  23956072.078 5  12107869.500 5   9427751.28547  23956071.18047
  21712923.852 7   6060224.340 7   4723425.08648  21712919.31348
  20829415.602 7   1776146.824 7   1387877.81648  20829415.53948
  23041620.227 6  -6886592.957 6  -5343623.01647  23041620.80147
  23598308.195 6  -4513655.504 6  -3509878.55547  23598308.52747
 16  7  7  8 47 30.0000000  0  9G02G06G12G14G17G19G24G25G32         
  23221155.070 6  -6035348.805 6  -4681230.63747  23221151.00847
  22253144.992 7 -10442387.746 7  -8103954.14148  22253145.95748
  20491116.234 7  -9320359.637 7  -7243987.67648  20491113.41048
  24444412.305 4  -1478030.008 4  -1136225.29346  24444411.77046
  23965396.055 6  12156863.117 6   9465928.09846  23965394.10246
  21720604.789 7   6100587.547 7   4754876.92648  21720600.72348
  20834382.609 7   1802249.500 7   1408217.54749  20834382.86349
  23033521.695 6  -6929149.977 6  -5376784.31347  23033522.53547
  23596399.234 6  -4523683.398 6  -3517692.48447  23596400.30547
 16  7  7  8 47 45.0000000  0  9G02G06G12G14G17G19G24G25G32         
  23213531.805 6  -6075405.965 6  -4712443.99247  23213527.91047
  22250257.023 7 -10457562.941 7  -8115778.96548  22250258.21948
  20487911.172 7  -9337201.980 7  -7257111.57848  20487908.46148
  24439285.383 5  -1504976.703 5  -1157222.69146  24439283.53546
  23974726.539 5  12205896.207 5   9504135.66447  23974724.84047
  21728305.586 7   6141055.004 7   4786410.00048  21728301.46548
  20839373.445 7   1828478.277 7   1428655.54749  20839374.20749
  23025431.156 6  -6971666.438 6  -5409913.99647  23025432.19947
  23594518.984 6  -4533565.773 6  -3525393.03947  23594519.63347
 16  7  7  8 48  0.0000000  0  9G02G06G12G14G17G19G24G25G32         
  23205920.523 6  -6115402.453 6  -4743610.07047  23205916.84847
  22247396.516 6 -10472595.375 6  -8127492.54748  22247397.52748
  20484723.109 7  -9353954.859 7  -7270165.77048  20484720.37948
  24434179.492 5  -1531807.180 5  -1178129.56346  24434177.35246
  23984064.359 6  12254967.871 6   9542373.29347  23984063.40247
  21736025.844 7   6181626.008 7   4818023.76248  21736021.63748
  20844388.641 7   1854832.418 7   1449191.21948  20844389.04348
  23017347.906 6  -7014142.773 6  -5443012.41447  23017349.11747
  23592666.016 6  -4543303.031 6  -3532980.50047  23592667.26247
 16  7  7  8 48 15.0000000  0  9G02G06G12G14G17G19G24G25G32         
  23198320.742 6  -6155338.113 6  -4774728.73047  23198317.83247
  22244563.352 6 -10487484.938 6  -8139094.79748  22244564.39548
  20481552.180 7  -9370618.336 7  -7283150.30148  20481549.24248
  24429096.383 5  -1558521.508 5  -1198945.91846  24429093.68846
  23993409.711 6  12304077.836 6   9580640.75047  23993408.69147
  21743765.703 7   6222300.074 7   4849717.81348  21743761.84048
  20849427.883 7   1881311.957 7   1469824.60948  20849427.67648
  23009272.641 6  -7056578.938 6  -5476079.54347  23009274.04347
  23590840.445 6  -4552895.199 6  -3540454.91047  23590841.71547
 16  7  7  8 48 30.0000000  0  9G02G06G12G14G17G19G24G25G32         
  23190733.148 6  -6195213.430 6  -4805800.41047  23190729.85247
  22241756.727 7 -10502232.426 7  -8150586.34848  22241757.42648
  20478397.953 7  -9387193.277 7  -7296065.84448  20478394.98448
  24424034.055 5  -1585120.313 5  -1219672.25046  24424032.06346
  24002761.961 6  12353224.879 6   9618937.12547  24002761.04347
  21751525.391 6   6263075.813 6   4881491.10248  21751521.03548
  20854490.031 7   1907915.500 7   1490554.62948  20854490.18048
  23001205.172 6  -7098975.809 6  -5509116.03947  23001206.04747
  23589042.438 6  -4562343.172 6  -3547816.96947  23589043.59047
 16  7  7  8 48 45.0000000  0  9G02G06G12G14G17G19G24G25G32         
  23183156.953 6  -6235026.805 6  -4836823.80947  23183153.36347
  22238977.789 6 -10516836.215 6  -8161965.91048  22238979.14548
  20475261.398 7  -9403678.121 7  -7308911.16848  20475258.10548
  24418994.953 5  -1611601.895 5  -1240307.26246  24418992.66046
  24012121.516 6  12402410.176 6   9657263.28947  24012120.52047
  21759303.875 7   6303954.414 7   4913344.55948  21759299.85948
  20859576.633 7   1934644.492 7   1511382.40248  20859576.50848
  22993144.805 6  -7141331.727 6  -5542120.62147  22993146.03147
  23587272.695 6  -4571645.391 6  -3555065.47747  23587273.69147
 16  7  7  8 49  0.0000000  0  9G02G06G12G14G17G19G24G25G32         
  23175591.633 6  -6274777.754 6  -4867798.55547  23175588.77347
  22236225.953 6 -10531296.004 6  -8173233.28148  22236227.46948
  20472141.273 7  -9420072.652 7  -7321686.12548  20472138.10948
  24413978.063 5  -1637966.078 5  -1260850.77046  24413975.71146
  24021489.102 6  12451633.617 6   9695619.19147  24021487.73847
  21767102.305 7   6344935.500 7   4945277.85948  21767098.43048
  20864686.578 7   1961499.027 7   1532307.99649  20864687.20349
  22985092.641 6  -7183646.523 6  -5575093.16847  22985093.70747
  23585529.922 6  -4580801.711 6  -3562200.25847  23585531.26247
 16  7  7  8 49 15.0000000  0  9G02G06G12G14G17G19G24G25G32         
  23168040.344 6  -6314465.590 6  -4898724.12947  23168037.47347
  22233502.117 6 -10545611.250 6  -8184388.02348  22233503.05548
  20469038.617 7  -9436376.660 7  -7334390.54748  20469035.39548
  24408983.586 5  -1664212.141 5  -1281302.23846  24408981.75846
  24030862.867 6  12500895.422 6   9734004.99247  24030861.47347
  21774920.563 7   6386019.395 7   4977291.26648  21774916.94548
  20869820.695 7   1988479.172 7   1553331.47748  20869821.73448
  22977048.164 6  -7225919.699 6  -5608033.28547  22977049.32447
  23583815.523 6  -4589811.688 6  -3569221.02047  23583816.53147
 16  7  7  8 49 30.0000000  0  9G02G06G12G14G17G19G24G25G32         
  23160499.172 6  -6354091.469 6  -4929601.42647  23160496.46547
  22230805.414 6 -10559783.156 6  -8195431.03948  22230806.59048
  20465953.195 7  -9452591.344 7  -7347025.36348  20465950.33248
  24404011.281 5  -1690341.234 5  -1301662.55546  24404009.47346
  24040244.211 6  12550193.965 6   9772419.41047  24040243.19547
  21782758.063 7   6427204.238 7   5009383.32448  21782753.96148
  20874978.664 7   2015583.527 7   1574451.73048  20874979.22748
  22969012.297 6  -7268152.496 6  -5640941.94147  22969013.05947
  23582128.750 6  -4598676.617 6  -3576128.75447  23582130.05547
 16  7  7  8 49 45.0000000  0  9G02G06G12G14G17G19G24G25G32         
  23152971.156 6  -6393655.047 6  -4960430.15247  23152967.85547
  22228135.508 6 -10573811.555 6  -8206362.25048  22228136.81348
  20462884.828 7  -9468716.645 7  -7359590.53548  20462881.53548
  24399061.008 5  -1716353.191 5  -1321931.62946  24399060.02046
  24049632.750 6  12599528.852 6   9810862.14147  24049630.44947
  21790613.977 7   6468489.500 7   5041553.64148  21790610.06648
  20880160.273 7   2042811.766 7   1595668.52048  20880160.39148
  22960982.922 6  -7310344.848 6  -5673819.07047  22960983.96547
  23580469.281 6  -4607396.461 6  -3582923.43447  23580469.99647
 16  7  7  8 50  0.0000000  0  9G02G06G12G14G17G19G24G25G32         
  23145454.531 6  -6433155.414 6  -4991209.64847  23145450.57047
  22225493.609 6 -10587695.797 6  -8217181.14148  22225494.30948
  20459833.094 7  -9484751.711 7  -7372085.38748  20459830.67248
  24394134.008 5  -1742247.227 5  -1342108.80146  24394132.09846
  24059027.344 6  12648900.363 6   9849333.41847  24059026.51247
  21798490.000 6   6509875.547 6   5073802.48848  21798486.05548
  20885365.414 7   2070164.359 7   1616982.21948  20885365.37948
  22952961.313 6  -7352496.063 6  -5706664.15647  22952962.52747
  23578837.844 6  -4615970.629 6  -3589604.58647  23578838.52047
 16  7  7  8 50 15.0000000  0  9G02G06G12G14G17G19G24G25G32         
  23137949.328 6  -6472592.797 6  -5021940.04747  23137946.40647
  22222878.563 6 -10601436.160 6  -8227887.93448  22222880.21548
  20456798.898 7  -9500697.070 7  -7384510.34448  20456796.26248
  24389228.625 6  -1768023.570 6  -1362194.27346  24389226.95346
  24068429.250 6  12698307.844 6   9887832.72747  24068427.84447
  21806384.242 7   6551361.645 7   5106129.31648  21806380.02348
  20890594.117 7   2097640.934 7   1638392.52348  20890594.23848
  22944948.445 6  -7394606.492 6  -5739477.46547  22944949.42247
  23577233.461 6  -4624399.441 6  -3596172.48447  23577234.46547
 16  7  7  8 50 30.0000000  0  9G02G06G12G14G17G19G24G25G32         
  23130457.516 6  -6511965.082 6  -5052619.73847  23130453.80147
  22220291.563 7 -10615030.723 7  -8238481.07848  22220293.44148
  20453782.102 7  -9516551.293 7  -7396864.27348  20453779.18848
  24384346.359 6  -1793680.332 6  -1382186.54746  24384344.74246
  24077838.008 6  12747752.582 6   9926361.07047  24077836.93847
  21814297.914 7   6592949.059 7   5138535.08648  21814293.87548
  20895845.953 7   2125242.949 7   1659900.57448  20895846.25848
  22936942.922 6  -7436674.320 6  -5772257.58247  22936943.70747
  23575657.711 6  -4632681.230 6  -3602625.82047  23575658.77047
 16  7  7  8 50 45.0000000  0  9G02G06G12G14G17G19G24G25G32         
  23122976.672 6  -6551275.133 6  -5083250.93447  23122973.30147
  22217732.477 6 -10628482.395 6  -8248962.87548  22217733.96948
  20450781.992 7  -9532317.230 7  -7409149.41848  20450779.27048
  24379486.789 6  -1819220.352 6  -1402087.88346  24379484.27746
  24087253.953 5  12797231.367 5   9964915.91847  24087252.19947
  21822230.352 6   6634634.363 6   5171017.12948  21822226.50048
  20901122.094 7   2152966.996 7   1681503.71149  20901122.29749
  22928945.711 6  -7478702.516 6  -5805006.80947  22928946.21947
  23574108.992 6  -4640819.008 6  -3608966.94147  23574110.39847
 16  7  7  8 51  0.0000000  0  9G02G06G12G14G17G19G24G25G32         
  23115508.266 6  -6590520.508 6  -5113831.73847  23115505.28547
  22215200.219 6 -10641789.023 6  -8259331.69948  22215201.54348
  20447799.102 7  -9547992.715 7  -7421364.07849  20447796.38749
  24374648.805 5  -1844641.500 5  -1421896.55546  24374647.10946
  24096675.969 6  12846746.047 6  10003498.75046  24096674.78946
  21830181.773 7   6676419.453 7   5203576.94148  21830177.88348
  20906421.219 7   2180815.102 7   1703203.51649  20906421.78949
  22920955.398 6  -7520688.855 6  -5837723.43047  22920956.28547
  23572589.000 6  -4648810.613 6  -3615194.16447  23572589.46947
 16  7  7  8 51 15.0000000  0  9G02G06G12G14G17G19G24G25G32         
  23108052.844 6  -6629700.895 6  -5144361.89547  23108049.69147
  22212695.414 6 -10654950.293 6  -8269587.20348  22212696.02048
  20444833.070 7  -9563577.539 7  -7433508.09448  20444830.55548
  24369834.531 6  -1869943.375 6  -1441612.31646  24369832.64146
  24106105.070 6  12896296.418 6  10042109.37946  24106103.99246
  21838152.422 6   6718303.871 6   5236214.14148  21838148.64148
  20911744.242 7   2208787.156 7   1724999.91048  20911744.24648
  22912973.922 6  -7562633.145 6  -5870407.27747  22912975.01247
  23571096.188 6  -4656655.891 6  -3621307.37147  23571096.67647
 16  7  7  8 51 30.0000000  0  9G02G06G12G14G17G19G24G25G32         
  23100609.859 6  -6668815.738 6  -5174840.97347  23100606.16047
  22210218.453 7 -10667965.770 7  -8279729.10948  22210219.65248
  20441884.914 7  -9579071.402 7  -7445581.23448  20441881.90248
  24365042.117 5  -1895125.492 5  -1461234.75446  24365040.07446
  24115541.172 6  12945882.574 6  10080747.91846  24115539.96546
  21846141.195 7   6760287.563 7   5268928.69548  21846137.39548
  20917090.789 7   2236883.285 7   1746892.98048  20917090.93048
  22905000.070 6  -7604535.035 6  -5903058.08247  22905000.95347
  23569630.961 6  -4664354.543 6  -3627306.32847  23569631.73847
 16  7  7  8 51 45.0000000  0  9G02G06G12G14G17G19G24G25G32         
  23093178.602 6  -6707865.469 6  -5205269.34447  23093175.80947
  22207768.938 6 -10680836.113 6  -8289757.96548  22207770.26648
  20438953.672 7  -9594474.844 7  -7457583.91448  20438950.64148
  24360273.195 5  -1920188.336 5  -1480764.21946  24360270.89846
  24124983.813 6  12995503.496 6  10119413.55546  24124981.91046
  21854149.633 6   6802369.488 6   5301719.78548  21854145.84048
  20922460.680 7   2265102.641 7   1768882.07448  20922460.78948
  22897034.781 6  -7646395.066 6  -5935676.27347  22897035.43047
  23568193.977 6  -4671907.223 6  -3633191.53147  23568194.80947
 16  7  7  8 52  0.0000000  0  9G02G06G12G14G17G19G24G25G32         
  23085760.250 6  -6746850.336 6  -5235647.12147  23085756.80547
  22205347.797 6 -10693561.727 6  -8299674.00848  22205349.07048
  20436039.523 7  -9609788.559 7  -7469516.68048  20436036.55948
  24355526.250 6  -1945132.371 6  -1500201.14546  24355523.68846
  24134433.469 6  13045158.172 6  10158105.48446  24134431.04346
  21862175.805 7   6844548.648 7   5334586.64848  21862172.04348
  20927854.133 7   2293444.406 7   1790966.54748  20927854.29348
  22889076.164 6  -7688213.844 6  -5968262.31347  22889077.82847
  23566783.820 6  -4679314.586 6  -3638963.49647  23566784.20747
 16  7  7  8 52 15.0000000  0  9G02G06G12G14G17G19G24G25G32         
  23078353.883 6  -6785769.375 6  -5265973.64547  23078350.23847
  22202954.094 7 -10706141.832 7  -8309476.68048  22202955.27048
  20433142.758 7  -9625011.883 7  -7481379.00848  20433139.65248
  24350802.125 6  -1969956.586 6  -1519544.69146  24350800.58246
  24143889.164 6  13094847.082 6  10196824.10546  24143886.60246
  21870221.156 6   6886825.379 6   5367529.54748  21870216.99248
  20933270.617 7   2321909.078 7   1813146.79348  20933271.10948
  22881126.805 6  -7729990.512 6  -6000815.55147  22881127.54347
  23565401.539 6  -4686575.848 6  -3644621.62947  23565402.38747
 16  7  7  8 52 30.0000000  0  9G02G06G12G14G17G19G24G25G32         
  23070960.133 6  -6824622.590 6  -5296248.85947  23070956.82447
  22200587.719 6 -10718576.426 6  -8319165.95748  22200589.40248
  20430262.898 7  -9640144.902 7  -7493170.96948  20430260.12548
  24346100.648 5  -1994660.945 5  -1538794.81346  24346099.41846
  24153350.750 6  13144569.773 6  10235569.04346  24153348.49246
  21878284.258 6   6929199.148 6   5400548.05548  21878280.38748
  20938710.422 7   2350496.398 7   1835422.61348  20938711.12548
  22873184.992 6  -7771725.156 6  -6033336.03547  22873186.08647
  23564048.078 6  -4693691.188 6  -3650166.05547  23564048.72747
 16  7  7  8 52 45.0000000  0  9G02G06G12G14G17G19G24G25G32         
  23063579.484 6  -6863408.828 6  -5326471.86747  23063575.96547
  22198249.359 6 -10730864.582 6  -8328741.13348  22198251.24648
  20427400.578 7  -9655186.813 7  -7504891.93448  20427397.63748
  24341422.586 5  -2019244.566 5  -1557950.85946  24341421.66046
  24162819.305 6  13194326.750 6  10274340.68846  24162817.35246
  21886366.406 6   6971670.387 6   5433642.51648  21886362.50448
  20944174.297 7   2379207.000 7   1857794.48448  20944174.28148
  22865250.977 6  -7813416.844 6  -6065823.04747  22865251.99647
  23562722.047 6  -4700659.762 6  -3655596.11347  23562722.82847
 16  7  7  8 53  0.0000000  0  9G02G06G12G14G17G19G24G25G32         
  23056211.055 6  -6902128.070 6  -5356642.69947  23056208.16847
  22195938.680 6 -10743006.535 6  -8338202.38748  22195940.42648
  20424555.281 7  -9670137.758 7  -7516542.02348  20424552.31648
  24336768.188 5  -2043707.633 5  -1577012.99246  24336765.74646
  24172294.031 6  13244117.559 6  10313138.70346  24172292.05946
  21894466.781 6   7014238.465 6   5466812.43048  21894462.90248
  20949660.625 7   2408040.324 7   1880261.99248  20949661.20348
  22857325.938 6  -7855065.848 6  -6098276.79747  22857326.74247
  23561423.750 6  -4707481.848 6  -3660912.02747  23561424.97347
 16  7  7  8 53 15.0000000  0  9G02G06G12G14G17G19G24G25G32         
  23048856.523 6  -6940778.449 6  -5386759.86347  23048852.91447
  22193656.508 6 -10755000.316 6  -8347548.18048  22193657.27048
  20421728.203 7  -9684995.980 7  -7528119.85248  20421724.99648
  24332136.305 5  -2068048.250 5  -1595979.68846  24332133.97346
  24181775.492 6  13293943.543 6  10351964.12547  24181774.31347
  21902586.070 7   7056904.652 7   5500058.79748  21902582.03548
  20955171.633 7   2436997.949 7   1902826.35548  20955171.80948
  22849408.383 6  -7896670.324 6  -6130695.85547  22849409.39847
  23560153.711 6  -4714155.688 6  -3666112.43447  23560155.13347
 16  7  7  8 53 30.0000000  0  9G02G06G12G14G17G19G24G25G32         
  23041514.234 6  -6979361.848 6  -5416824.83647  23041510.40247
  22191401.813 6 -10766848.242 6  -8356780.33248  22191402.46548
  20418917.742 7  -9699763.984 7  -7539627.39548  20418914.94548
  24327526.758 6  -2092268.551 6  -1614852.63346  24327524.81346
  24191263.484 6  13343802.188 6  10390814.99647  24191261.86347
  21910723.383 6   7099666.320 6   5533379.57048  21910719.07048
  20960705.102 7   2466077.566 7   1925485.78548  20960705.35248
  22841499.609 6  -7938232.465 6  -6163081.92647  22841500.21547
  23558911.469 6  -4720683.621 6  -3671199.12147  23558912.92247
 16  7  7  8 53 45.0000000  0  9G02G06G12G14G17G19G24G25G32         
  23034185.188 6  -7017877.359 6  -5446836.88347  23034181.04747
  22189175.336 6 -10778549.484 6  -8365898.18048  22189176.39548
  20416125.070 7  -9714440.949 7  -7551063.98448  20416121.95348
  24322941.008 6  -2116367.715 6  -1633631.17646  24322938.45746
  24200757.727 6  13393693.750 6  10429691.48447  24200756.09447
  21918878.563 7   7142523.672 7   5566774.89548  21918874.41048
  20966262.141 6   2495279.414 6   1948240.45348  20966261.87148
  22833598.555 6  -7979751.586 6  -6195434.46947  22833599.71947
  23557696.945 6  -4727065.035 6  -3676171.66047  23557698.07447
 16  7  7  8 54  0.0000000  0  9G02G06G12G14G17G19G24G25G32         
  23026868.828 6  -7056324.840 6  -5476795.90647  23026865.18047
  22186976.477 7 -10790104.039 7  -8374901.71148  22186977.36348
  20413349.484 7  -9729026.816 7  -7562429.59048  20413346.46948
  24318378.055 6  -2140345.617 6  -1652315.26646  24318376.23846
  24210258.188 6  13443617.867 6  10468593.35946  24210256.68846
  21927052.422 7   7185476.219 7   5600244.39848  21927048.80148
  20971842.188 7   2524603.023 7   1971089.99248  20971842.37148
  22825705.875 6  -8021227.617 6  -6227753.43847  22825706.66047
  23556510.680 6  -4733299.906 6  -3681030.01247  23556511.43847
 16  7  7  8 54 15.0000000  0  9G02G06G12G14G17G19G24G25G32         
  23019565.844 6  -7094703.797 6  -5506701.56347  23019562.12147
  22184805.516 7 -10801511.438 7  -8383790.59048  22184806.58648
  20410591.164 7  -9743521.332 7  -7573724.01648  20410587.96948
  24313837.945 6  -2164201.730 6  -1670904.40646  24313836.65646
  24219764.273 5  13493574.680 5  10507520.71146  24219763.10246
  21935244.195 7   7228524.063 7   5633788.16048  21935240.66048
  20977445.430 7   2554048.891 7   1994034.81348  20977445.68848
  22817821.703 6  -8062660.188 6  -6260038.53147  22817822.38347
  23555352.750 6  -4739387.891 6  -3685773.91047  23555353.03147
 16  7  7  8 54 30.0000000  0  9G02G06G12G14G17G19G24G25G32         
  23012275.172 6  -7133014.047 6  -5536553.67647  23012272.03947
  22182663.078 7 -10812771.906 7  -8392564.97748  22182663.98048
  20407850.211 7  -9757924.730 7  -7584947.44148  20407847.10548
  24309322.023 5  -2187936.246 5  -1689398.82446  24309320.86746
  24229276.648 5  13543563.555 5  10546473.02746  24229275.14146
  21943453.602 7   7271666.555 7   5667405.66848  21943450.32048
  20983072.344 7   2583616.434 7   2017074.43848  20983072.39148
  22809945.531 6  -8104049.500 6  -6292289.92247  22809946.22747
  23554221.914 6  -4745329.367 6  -3690403.64147  23554222.17647
 16  7  7  8 54 45.0000000  0  9G02G06G12G14G17G19G24G25G32         
  23004998.461 6  -7171253.871 6  -5566350.91847  23004995.34847
  22180548.383 7 -10823883.668 7  -8401223.49248  22180549.70348
  20405126.422 7  -9772235.344 7  -7596098.57048  20405123.68048
  24304829.742 5  -2211547.234 5  -1707796.96946  24304827.43046
  24238795.594 5  13593585.891 5  10585451.43046  24238794.19946
  21951681.766 7   7314904.832 7   5701097.82048  21951677.80148
  20988722.125 7   2613306.938 7   2040209.87548  20988722.40248
  22802077.930 6  -8145393.809 6  -6324506.25847  22802078.77747
  23553119.477 6  -4751122.660 6  -3694917.89847  23553119.89547
 16  7  7  8 55  0.0000000  0  9G02G06G12G14G17G19G24G25G32         
  22997734.867 6  -7209425.051 6  -5596094.67647  22997731.89547
  22178461.508 7 -10834848.668 7  -8409767.63748  22178463.18448
  20402420.945 7  -9786455.188 7  -7607178.97348  20402418.09448
  24300358.766 5  -2235036.801 5  -1726100.48646  24300357.89546
  24248320.578 5  13643639.391 5  10624454.12146  24248319.21946
  21959927.711 6   7358236.570 6   5734862.79348  21959923.46548
  20994394.898 7   2643118.293 7   2063439.48448  20994395.04348
  22794218.547 6  -8186695.020 6  -6356688.99647  22794219.16847
  23552044.750 6  -4756769.805 6  -3699318.28547  23552045.44147
 16  7  7  8 55 15.0000000  0  9G02G06G12G14G17G19G24G25G32         
  22990484.047 6  -7247527.324 6  -5625784.74647  22990480.38747
  22176402.914 7 -10845666.898 7  -8418197.41848  22176404.38748
  20399732.461 7  -9800584.363 7  -7618188.72348  20399729.56348
  24295912.234 6  -2258404.711 6  -1744309.23046  24295910.80146
  24257851.484 5  13693723.520 5  10663480.68446  24257849.88746
  21968191.336 6   7401661.270 6   5768700.21148  21968186.82448
  21000090.867 7   2673050.438 7   2086763.21548  21000091.26648
  22786367.648 6  -8227953.266 6  -6388838.25447  22786367.96147
  23550998.352 6  -4762270.918 6  -3703604.87147  23550998.11747
 16  7  7  8 55 30.0000000  0  9G02G06G12G14G17G19G24G25G32         
  22983246.609 6  -7285559.676 6  -5655420.34047  22983243.18047
  22174372.570 6 -10856337.516 6  -8426512.19948  22174373.79748
  20397061.023 7  -9814622.074 7  -7629127.19548  20397057.98048
  24291488.570 5  -2281650.059 5  -1762422.48046  24291487.10546
  24267387.945 5  13743839.012 5  10702531.68047  24267386.94947
  21976471.945 6   7445179.172 6   5802610.25048  21976467.94948
  21005809.602 7   2703103.586 7   2110181.23848  21005810.10248
  22778524.609 6  -8269167.578 6  -6420953.28947  22778524.90647
  23549979.320 6  -4767625.195 6  -3707777.04347  23549979.18047
 16  7  7  8 55 45.0000000  0  9G02G06G12G14G17G19G24G25G32         
  22976022.742 6  -7323521.852 6  -5685001.21947  22976018.87147
  22172370.203 7 -10866860.309 7  -8434711.79748  22172371.49648
  20394407.141 7  -9828568.203 7  -7639994.31348  20394404.47348
  24287088.828 5  -2304772.621 5  -1780440.05146  24287087.24646
  24276930.422 5  13793985.582 5  10741606.91847  24276929.40647
  21984771.352 7   7488790.199 7   5836592.84848  21984767.44148
  21011551.734 7   2733277.762 7   2133693.57448  21011551.84848
  22770690.078 6  -8310337.852 6  -6453034.00847  22770691.32447
  23548987.719 6  -4772832.605 6  -3711834.78947  23548989.13747
 16  7  7  8 56  0.0000000  0  9G02G06G12G14G17G19G24G25G32         
  22968812.055 6  -7361414.316 6  -5714527.77747  22968808.93447
  22170395.539 6 -10877236.047 6  -8442796.75448  22170396.80948
  20391770.469 7  -9842423.391 7  -7650790.56348  20391767.41048
  24282711.578 5  -2327773.070 5  -1798362.45346  24282709.82846
  24286478.781 5  13844161.938 5  10780705.33246  24286478.03546
  21993087.500 7   7532492.836 7   5870646.83648  21993083.91848
  21017316.641 7   2763571.824 7   2157299.31648  21017317.15248
  22762863.734 6  -8351464.906 6  -6485081.04347  22762864.54347
  23548024.984 6  -4777894.070 6  -3715778.79747  23548026.11347
 16  7  7  8 56 15.0000000  0  9G02G06G12G14G17G19G24G25G32         
  22961614.781 6  -7399237.055 6  -5744000.02047  22961610.85547
  22168449.352 6 -10887464.801 6  -8450767.22348  22168450.44548
  20389151.172 7  -9856188.145 7  -7661516.33248  20389148.25048
  24278358.039 5  -2350651.371 5  -1816189.70746  24278356.51246
  24296033.234 5  13894367.859 5  10819826.79347  24296031.90247
  22001421.625 7   7576286.836 7   5904772.02748  22001417.67248
  21023104.055 7   2793985.152 7   2180998.00448  21023104.24648
  22755045.891 6  -8392548.688 6  -6517094.35547  22755046.62147
  23547089.813 6  -4782809.609 6  -3719609.09447  23547090.35947
 16  7  7  8 56 30.0000000  0  9G02G06G12G14G17G19G24G25G32         
  22954430.523 6  -7436988.406 6  -5773416.64147  22954427.33647
  22166531.555 6 -10897545.043 6  -8458621.93848  22166532.18448
  20386549.594 7  -9869860.871 7  -7672170.40648  20386546.58648
  24274028.523 6  -2373405.965 6  -1833920.54346  24274026.34446
  24305591.703 5  13944604.293 5  10858972.02747  24305591.87147
  22009772.758 7   7620173.172 7   5938969.14548  22009768.62548
  21028914.727 7   2824519.676 7   2204791.12148  21028914.89548
  22747236.000 6  -8433587.707 6  -6549072.78947  22747236.93047
  23546181.922 6  -4787577.863 6  -3723324.62547  23546182.66847
 16  7  7  8 56 45.0000000  0  9G02G06G12G14G17G19G24G25G32         
  22947260.805 6  -7474667.840 6  -5802777.24647  22947256.99247
  22164641.227 6 -10907476.469 6  -8466360.68048  22164642.77348
  20383964.867 7  -9883441.418 7  -7682752.65248  20383962.10248
  24269721.961 6  -2396036.676 6  -1851554.84846  24269719.98046
  24315157.969 5  13994871.137 5  10898140.95347  24315157.35547
  22018140.664 7   7664151.543 7   5973237.99248  22018137.39148
  21034748.258 7   2855174.918 7   2228678.30148  21034748.68048
  22739435.820 6  -8474581.738 6  -6581016.18047  22739436.29747
  23545303.391 6  -4792198.742 6  -3726925.31647  23545303.23047
 16  7  7  8 57  0.0000000  0  9G02G06G12G14G17G19G24G25G32         
  22940103.773 6  -7512275.324 6  -5832081.77347  22940100.38747
  22162779.398 6 -10917259.336 6  -8473983.69148  22162780.73448
  20381398.109 7  -9896929.902 7  -7693263.16049  20381395.25049
  24265438.820 5  -2418543.488 5  -1869092.60246  24265437.03146
  24324729.547 5  14045167.785 5  10937333.10546  24324728.16046
  22026527.703 6   7708221.301 6   6007578.05548  22026523.47748
  21040604.641 7   2885950.414 7   2252659.18848  21040604.85548
  22731642.977 6  -8515530.961 6  -6612924.66447  22731643.59047
  23544452.289 6  -4796672.461 6  -3730411.34047  23544452.12147
 16  7  7  8 57 15.0000000  0  9G02G06G12G14G17G19G24G25G32         
  22932960.711 6  -7549811.008 6  -5861330.34447  22932957.67247
  22160946.383 6 -10926893.742 6  -8481491.00848  22160947.27048
  20378848.930 7  -9910326.699 7  -7703702.22348  20378845.82048
  24261179.164 6  -2440926.516 6  -1886533.91846  24261177.87146
  24334305.992 5  14095493.836 5  10976548.16846  24334305.77746
  22034931.336 6   7752381.770 6   6041988.78548  22034927.07048
  21046483.695 7   2916846.035 7   2276733.67248  21046484.43848
  22723858.742 6  -8556435.555 6  -6644798.35547  22723859.50847
  23543627.711 6  -4800999.344 6  -3733782.93047  23543628.46947
 16  7  7  8 57 30.0000000  0  9G02G06G12G14G17G19G24G25G32         
  22925832.391 6  -7587274.477 6  -5890522.63347  22925828.58647
  22159141.109 6 -10936379.578 6  -8488882.56648  22159142.21548
  20376316.984 7  -9923631.676 7  -7714069.73848  20376314.49648
  24256942.570 5  -2463185.504 5  -1903878.59046  24256942.14546
  24343888.125 6  14145849.191 6  11015786.06646  24343887.46146
  22043351.930 7   7796632.777 7   6076470.08248  22043347.58648
  21052385.859 7   2947861.270 7   2300901.36748  21052385.95748
  22716083.961 6  -8597295.348 6  -6676637.14547  22716084.54347
  23542832.500 6  -4805179.281 6  -3737040.04747  23542833.37547
 16  7  7  8 57 45.0000000  0  9G02G06G12G14G17G19G24G25G32         
  22918717.352 6  -7624664.332 6  -5919657.57847  22918713.26247
  22157364.406 6 -10945715.625 6  -8496157.41848  22157365.25848
  20373803.195 7  -9936843.535 7  -7724364.69149  20373800.11749
  24252731.492 6  -2485319.176 6  -1921125.60546  24252729.91446
  24353476.820 5  14196234.586 5  11055047.37946  24353475.40246
  22051789.750 7   7840975.105 7   6111022.53548  22051786.02348
  21058310.547 7   2978996.965 7   2325162.93848  21058311.25848
  22708317.102 6  -8638109.102 6  -6708440.05147  22708318.24647
  23542065.305 6  -4809211.203 6  -3740181.82047  23542066.17647
 16  7  7  8 58  0.0000000  0  9G02G06G12G14G17G19G24G25G32         
  22911616.219 6  -7661981.371 6  -5948735.77347  22911612.54747
  22155616.438 6 -10954902.727 6  -8503316.18848  22155617.77348
  20371306.695 7  -9949963.113 7  -7734587.73449  20371303.59849
  24248543.359 5  -2507328.355 5  -1938275.60946  24248541.44146
  24363069.500 5  14246648.742 5  11094331.10247  24363069.00847
  22060245.016 6   7885407.289 6   6145645.00848  22060241.14548
  21064258.703 7   3010252.090 7   2349517.55948  21064258.94548
  22700559.055 6  -8678877.641 6  -6740207.71947  22700560.07447
  23541326.211 6  -4813096.098 6  -3743209.00447  23541326.92647
 16  7  7  8 58 15.0000000  0  9G02G06G12G14G17G19G24G25G32         
  22904529.070 6  -7699224.727 6  -5977756.54747  22904525.08647
  22153895.945 7 -10963940.238 7  -8510358.40648  22153897.71948
  20368827.594 7  -9962990.078 7  -7744738.61748  20368824.51248
  24244378.320 5  -2529212.340 5  -1955328.05146  24244377.21946
  24372668.977 5  14297092.035 5  11133637.54346  24372667.62146
  22068717.398 6   7929929.551 6   6180337.66048  22068713.32448
  21070228.539 7   3041627.148 7   2373965.63348  21070229.54348
  22692810.133 6  -8719600.441 6  -6771939.75447  22692810.85947
  23540614.742 6  -4816833.414 6  -3746121.21147  23540615.95747
 16  7  7  8 58 30.0000000  0  9G02G06G12G14G17G19G24G25G32         
  22897455.930 6  -7736394.895 6  -6006720.29747  22897451.72347
  22152204.984 6 -10972828.867 6  -8517284.60248  22152206.14848
  20366366.258 7  -9975925.027 7  -7754817.79349  20366363.07449
  24240237.922 5  -2550971.734 5  -1972283.43046  24240236.65246
  24382273.180 5  14347563.395 5  11172965.84846  24382272.27046
  22077206.813 7   7974540.754 7   6215099.61748  22077202.36348
  21076221.859 7   3073121.090 7   2398506.34848  21076222.44948
  22685069.750 6  -8760278.094 6  -6803636.60547  22685070.28947
  23539931.750 6  -4820423.918 6  -3748919.03147  23539932.74647
 16  7  7  8 58 45.0000000  0  9G02G06G12G14G17G19G24G25G32         
  22890396.570 6  -7773490.879 6  -6035626.23047  22890392.61747
  22150541.797 6 -10981567.754 6  -8524094.10948  22150543.02748
  20363922.086 7  -9988767.309 7  -7764824.76649  20363919.20749
  24236121.836 5  -2572605.754 5  -1989141.09846  24236119.60546
  24391883.695 5  14398063.230 5  11212316.30946  24391882.24646
  22085712.922 6   8019241.297 6   6249931.18848  22085709.18848
  21082237.992 7   3104734.164 7   2423139.89848  21082238.27748
  22677337.320 6  -8800909.809 6  -6835297.65247  22677338.25047
  23539277.172 6  -4823866.922 6  -3751601.89547  23539277.19547
 16  7  7  8 59  0.0000000  0  9G02G06G12G14G17G19G24G25G32         
  22883351.398 6  -7810512.051 6  -6064473.87147  22883348.38747
  22148907.477 6 -10990156.504 6  -8530786.62148  22148908.92648
  20361495.898 7 -10001516.586 7  -7774759.27048  20361493.61748
  24232028.633 5  -2594113.719 5  -2005900.54346  24232027.16446
  24401498.938 5  14448591.656 5  11251689.07847  24401497.25447
  22094236.273 6   8064031.145 6   6284832.34448  22094232.03148
  21088276.352 7   3136467.020 7   2447866.77048  21088277.00848
  22669614.508 6  -8841495.125 6  -6866922.55947  22669615.03547
  23538649.656 6  -4827162.059 6  -3754169.52747  23538650.44147
 16  7  7  8 59 15.0000000  0  9G02G06G12G14G17G19G24G25G32         
  22876320.617 6  -7847457.949 6  -6093262.84847  22876317.67647
  22147301.641 6 -10998594.895 6  -8537361.99248  22147302.82448
  20359087.859 7 -10014172.645 7  -7784621.13748  20359084.72748
  24227960.086 5  -2615495.313 5  -2022561.53146  24227958.31346
  24411119.047 5  14499148.574 5  11291084.05547  24411118.05147
  22102776.078 6   8108909.996 6   6319802.87548  22102772.31648
  21094337.875 7   3168319.160 7   2472686.60548  21094338.15248
  22661900.031 6  -8882033.754 6  -6898511.08647  22661900.57447
  23538050.625 6  -4830309.238 6  -3756621.89847  23538051.46147
 16  7  7  8 59 30.0000000  0  9G02G06G12G14G17G19G24G25G32         
  22869303.906 6  -7884329.281 6  -6121993.71147  22869301.04747
  22145724.555 6 -11006883.684 6  -8543820.78948  22145725.51648
  20356696.828 7 -10026736.266 7  -7794410.96948  20356694.03548
  24223914.617 5  -2636751.391 5  -2039124.70746  24223913.85946
  24420744.727 5  14549732.715 5  11330500.23847  24420743.82847
  22111333.281 7   8153876.641 7   6354841.80548  22111329.18848
  21100421.711 7   3200290.023 7   2497598.94548  21100421.93848
  22654194.289 6  -8922526.520 6  -6930063.86747  22654195.34047
  23537480.742 6  -4833309.313 6  -3758959.64847  23537480.35247
 16  7  7  8 59 45.0000000  0  9G02G06G12G14G17G19G24G25G32         
  22862301.953 6  -7921126.047 6  -6150666.48847  22862298.90647
  22144176.156 6 -11015023.008 6  -8550163.10248  22144176.51248
  20354323.867 7 -10039207.672 7  -7804128.94948  20354320.52348
  24219894.508 4  -2657882.098 4  -2055590.17246  24219892.80946
  24430375.219 5  14600343.668 5  11369937.30147  24430375.09847
  22119906.273 7   8198930.359 7   6389948.58248  22119902.76648
  21106527.805 7   3232378.543 7   2522602.96948  21106528.15648
  22646497.156 6  -8962973.605 6  -6961581.04347  22646498.36347
  23536936.398 6  -4836162.621 6  -3761183.00047  23536936.89547
 16  7  7  9  0  0.0000000  0  9G02G06G12G14G17G19G24G25G32         
  22855314.008 6  -7957847.484 6  -6179280.55547  22855311.42247
  22142655.289 6 -11023012.332 6  -8556388.53948  22142656.15248
  20351968.117 7 -10051586.348 7  -7813774.67648  20351964.85548
  24215896.891 4  -2678886.914 4  -2071957.58246  24215895.28146
  24440011.898 6  14650981.715 6  11409395.47346  24440011.07046
  22128496.406 7   8244071.383 7   6425123.39848  22128492.94948
  21112656.508 7   3264585.168 7   2547699.02048  21112656.61348
  22638809.273 6  -9003374.332 6  -6993062.11347  22638810.16047
  23536422.039 6  -4838868.629 6  -3763291.58247  23536422.72347
 16  7  7  9  0 15.0000000  0  9G02G06G12G14G17G19G24G25G32         
  22848341.188 6  -7994492.004 6  -6207834.71147  22848337.57447
  22141163.570 6 -11030850.395 6  -8562496.11348  22141164.46948
  20349630.281 7 -10063871.191 7  -7823347.27349  20349627.25849
  24211923.898 5  -2699764.199 5  -2088225.57846  24211922.69146
  24449653.750 6  14701647.699 6  11448875.41847  24449652.41847
  22137103.664 6   8289300.582 6   6460366.91848  22137099.15648
  21118807.828 7   3296911.090 7   2572888.02748  21118808.48448
  22631130.523 6  -9043727.445 6  -7024506.07447  22631131.24647
  23535935.539 6  -4841426.246 6  -3765284.52747  23535935.94547
 16  7  7  9  0 30.0000000  0  9G02G06G12G14G17G19G24G25G32         
  22841382.883 6  -8031060.055 6  -6236329.28547  22841379.19947
  22139700.945 6 -11038537.867 6  -8568486.34848  22139701.87948
  20347310.328 7 -10076062.816 7  -7832847.24248  20347307.66048
  24207974.656 4  -2720514.660 4  -2104394.74646  24207973.88346
  24459299.836 6  14752340.617 6  11488376.35947  24459299.50847
  22145726.719 6   8334616.910 6   6495678.32848  22145723.06648
  21124981.695 7   3329355.191 7   2598169.13748  21124981.94948
  22623460.531 6  -9084033.641 6  -7055913.47347  22623461.42647
  23535476.953 6  -4843836.180 6  -3767162.41047  23535477.54347
 16  7  7  9  0 45.0000000  0  9G02G06G12G14G17G19G24G25G32         
  22834438.516 6  -8067551.570 6  -6264764.19947  22834434.71147
  22138266.344 6 -11046074.637 6  -8574359.14548  22138267.93848
  20345007.969 7 -10088161.164 7  -7842274.52349  20345005.10949
  24204050.906 4  -2741138.039 4  -2120464.89146  24204049.65246
  24468951.531 6  14803060.121 6  11527898.00047  24468951.37147
  22154366.859 6   8380019.910 6   6531057.26648  22154363.30148
  21131178.172 7   3361917.238 7   2623542.13348  21131178.51648
  22615799.359 6  -9124292.707 6  -7087284.15247  22615799.94947
  23535046.016 6  -4846098.469 6  -3768925.22747  23535046.85547
 16  7  7  9  1  0.0000000  0  9G02G06G12G14G17G19G24G25G32         
  22827508.852 6  -8103966.336 6  -6293139.32047  22827505.07447
  22136860.953 6 -11053460.844 6  -8580114.62948  22136862.46148
  20342723.703 7 -10100166.215 7  -7851629.10949  20342720.92249
  24200150.258 5  -2761634.469 5  -2136436.11746  24200148.45746
  24478608.328 6  14853805.816 6  11567440.07047  24478607.41447
  22163023.219 7   8425508.961 7   6566503.26248  22163019.25048
  21137397.055 7   3394597.117 7   2649006.94148  21137397.15648
  22608147.328 6  -9164504.832 6  -7118618.25847  22608148.24647
  23534643.391 6  -4848213.359 6  -3770573.18447  23534645.22347
 16  7  7  9  1 15.0000000  0  9G02G06G12G14G17G19G24G25G32         
  22820594.125 6  -8140303.809 6  -6321454.21947  22820590.00047
  22135484.461 6 -11060696.043 6  -8585752.43848  22135486.16048
  20340456.938 7 -10112077.949 7  -7860910.97749  20340453.75049
  24196274.609 4  -2782003.441 4  -2152308.01646  24196273.33246
  24488270.008 6  14904577.910 6  11607002.70747  24488268.90647
  22171695.680 7   8471084.074 7   6602016.32048  22171691.87548
  21143638.313 7   3427394.711 7   2674563.50448  21143638.30148
  22600504.469 6  -9204669.516 6  -7149915.40247  22600505.34047
  23534269.047 6  -4850180.543 6  -3772106.07847  23534270.32047
 16  7  7  9  1 30.0000000  0  9G02G06G12G14G17G19G24G25G32         
  22813693.883 6  -8176563.789 6  -6349708.72347  22813689.63347
  22134136.516 7 -11067780.273 7  -8591272.61348  22134137.47348
  20338207.773 7 -10123896.348 7  -7870120.12148  20338204.54348
  24192421.961 4  -2802244.863 4  -2168080.56346  24192421.55546
  24497936.617 6  14955375.859 6  11646585.46947  24497935.75447
  22180384.875 6   8516744.695 6   6637596.00848  22180380.53948
  21149901.883 7   3460309.879 7   2700211.66448  21149902.18048
  22592869.852 6  -9244786.758 6  -7181175.56647  22592870.79347
  23533923.102 6  -4852000.055 6  -3773523.89547  23533923.78547
 16  7  7  9  1 45.0000000  0  9G02G06G12G14G17G19G24G25G32         
  22806808.281 6  -8212747.383 6  -6377903.70347  22806804.21147
  22132816.836 6 -11074714.820 6  -8596676.14548  22132817.96548
  20335976.297 7 -10135622.664 7  -7879257.51648  20335973.14848
  24188594.648 5  -2822360.105 5  -2183754.75446  24188593.39546
  24507608.070 6  15006198.035 6  11686187.15647  24507606.83247
  22189089.539 7   8562489.145 7   6673241.02048  22189085.81648
  21156187.523 7   3493340.691 7   2725949.93848  21156187.52748
  22585244.453 6  -9284857.891 6  -7212399.80947  22585245.26247
  23533604.531 6  -4853673.434 6  -3774827.84447  23533605.07847
 16  7  7  9  2  0.0000000  0  9G02G06G12G14G17G19G24G25G32         
  22799937.336 6  -8248852.141 6  -6406037.26247  22799933.80547
  22131525.555 6 -11081497.547 6  -8601961.39148  22131527.11748
  20333762.938 7 -10147254.828 7  -7888321.53548  20333760.01648
  24184790.625 5  -2842346.711 5  -2199328.74246  24184789.84046
  24517283.828 6  15057046.438 6  11725809.25846  24517282.80146
  22197810.547 6   8608319.184 6   6708952.72748  22197806.68448
  21162495.227 7   3526489.453 7   2751780.11348  21162495.86748
  22577628.828 6  -9324880.594 6  -7243586.31647  22577629.14847
  23533314.695 6  -4855198.523 6  -3776016.23447  23533315.22347
 16  7  7  9  2 15.0000000  0  9G02G06G12G14G17G19G24G25G32         
  22793081.719 6  -8284879.242 6  -6434110.29747  22793078.02747
  22130263.938 6 -11088129.504 6  -8607129.13748  22130264.97348
  20331567.063 7 -10158794.000 7  -7897313.10549  20331564.33249
  24181012.320 5  -2862205.863 5  -2214803.41446  24181011.02046
  24526965.047 6  15107919.680 6  11765450.71546  24526963.84046
  22206547.719 6   8654233.305 6   6744729.95348  22206543.75048
  21168825.516 7   3559754.508 7   2777700.90648  21168825.89148
  22570021.734 6  -9364856.016 6  -7274735.98047  22570021.98047
  23533052.234 6  -4856576.563 6  -3777090.03547  23533053.17647
 16  7  7  9  2 30.0000000  0  9G02G06G12G14G17G19G24G25G32         
  22786240.711 6  -8320827.070 6  -6462121.57847  22786237.20747
  22129030.703 6 -11094609.418 6  -8612178.41848  22129031.31348
  20329388.992 7 -10170238.773 7  -7906231.10949  20329386.67249
  24177258.492 5  -2881936.102 5  -2230177.61346  24177256.31346
  24536649.805 5  15158818.563 5  11805112.14546  24536650.21946
  22215301.016 6   8700232.359 6   6780573.36348  22215297.26248
  21175178.227 7   3593136.840 7   2803713.09448  21175178.59848
  22562423.977 6  -9404782.793 6  -7305847.74247  22562424.62147
  23532818.523 6  -4857806.355 6  -3778048.30947  23532819.57047
 16  7  7  9  2 45.0000000  0  9G02G06G12G14G17G19G24G25G32         
  22779415.672 6  -8356695.375 6  -6490070.89547  22779412.70347
  22127826.406 6 -11100937.273 6  -8617109.20348  22127827.47748
  20327229.477 7 -10181589.188 7  -7915075.58249  20327226.58649
  24173527.664 5  -2901537.520 5  -2245451.43446  24173526.14146
  24546341.070 6  15209742.820 6  11844793.34046  24546340.27346
  22224070.320 6   8746315.918 6   6816482.60948  22224066.58648
  21181552.609 7   3626636.547 7   2829816.75848  21181553.10548
  22554834.766 6  -9444660.887 6  -7336921.55947  22554835.73447
  23532612.586 6  -4858887.988 6  -3778891.15247  23532613.73447
 16  7  7  9  3  0.0000000  0  9G02G06G12G14G17G19G24G25G32         
  22772605.219 6  -8392485.238 6  -6517959.07847  22772601.91847
  22126651.336 7 -11107114.422 7  -8621922.54748  22126652.67248
  20325087.313 7 -10192846.750 7  -7923847.71149  20325084.59849
  24169822.172 5  -2921011.277 5  -2260625.77046  24169820.00046
  24556036.148 5  15260690.785 5  11884493.03146  24556035.14546
  22232855.688 6   8792482.184 6   6852456.30948  22232851.54348
  21187949.625 7   3660251.879 7   2856010.50448  21187949.89848
  22547255.594 6  -9484491.582 6  -7367958.45347  22547256.48047
  23532434.750 6  -4859822.895 6  -3779619.66047  23532435.71547
 16  7  7  9  3 15.0000000  0  9G02G06G12G14G17G19G24G25G32         
  22765809.664 6  -8428195.586 6  -6545785.29347  22765806.26247
  22125504.438 7 -11113139.848 7  -8626617.68048  22125505.41048
  20322962.820 7 -10204010.297 7  -7932546.57448  20322960.08248
  24166140.148 5  -2940356.273 5  -2275699.80146  24166139.10246
  24565735.797 5  15311663.160 5  11924211.75446  24565735.15246
  22241656.875 6   8838731.801 6   6888494.95348  22241652.63348
  21194368.313 7   3693983.500 7   2882294.86348  21194368.96548
  22539685.164 6  -9524273.824 6  -7398957.58647  22539686.17647
  23532284.844 6  -4860610.199 6  -3780233.13747  23532286.12147
 16  7  7  9  3 30.0000000  0  9G02G06G12G14G17G19G24G25G32         
  22759029.664 6  -8463825.324 6  -6573548.70347  22759026.19947
  22124387.266 6 -11119012.598 6  -8631193.84448  22124388.26248
  20320856.523 7 -10215079.063 7  -7941171.58249  20320853.69949
  24162483.914 5  -2959571.438 5  -2290672.65246  24162482.57446
  24575439.984 5  15362660.574 5  11963949.96946  24575439.42646
  22250473.797 6   8885065.215 6   6924598.89548  22250469.59848
  21200809.867 7   3727831.711 7   2908670.05948  21200810.27748
  22532123.789 6  -9564006.691 6  -7429918.24647  22532125.06347
  23532163.352 6  -4861249.051 6  -3780730.94947  23532164.41447
 16  7  7  9  3 45.0000000  0  9G02G06G12G14G17G19G24G25G32         
  22752264.844 6  -8499375.520 6  -6601250.12947  22752261.07447
  22123298.695 7 -11124734.125 7  -8635652.16848  22123299.48848
  20318768.188 7 -10226054.410 7  -7949723.80949  20318765.13349
  24158852.148 5  -2978658.125 5  -2305545.39146  24158851.30546
  24585148.508 5  15413681.301 5  12003706.35946  24585148.02046
  22259306.547 6   8931480.473 6   6960766.60548  22259302.96148
  21207272.719 7   3761795.121 7   2935135.02748  21207273.25848
  22524572.234 6  -9603691.520 6  -7460841.45747  22524573.12147
  23532069.344 6  -4861740.984 6  -3781114.28547  23532070.44547
 16  7  7  9  4  0.0000000  0  9G02G06G12G14G17G19G24G25G32         
  22745514.742 6  -8534845.242 6  -6628888.85247  22745510.84847
  22122238.609 7 -11130303.641 7  -8639992.04748  22122239.70348
  20316697.406 7 -10236935.707 7  -7958202.73449  20316694.38349
  24155244.125 5  -2997615.563 5  -2320317.40246  24155243.87546
  24594862.367 4  15464725.676 4  12043481.17246  24594861.70346
  22268154.492 6   8977978.090 6   6996998.49648  22268150.32048
  21213757.742 7   3795874.297 7   2961690.20348  21213758.02748
  22517030.055 6  -9643327.500 6  -7491726.62147  22517031.18447
  23532004.766 6  -4862085.355 6  -3781382.63347  23532004.94947
 16  7  7  9  4 15.0000000  0  9G02G06G12G14G17G19G24G25G32         
  22738780.758 6  -8570233.438 6  -6656464.04347  22738777.43847
  22121207.930 6 -11135720.363 6  -8644212.86348  22121209.10548
  20314644.680 7 -10247722.109 7  -7966607.71949  20314641.87149
  24151662.250 5  -3016442.918 5  -2334988.06346  24151660.94546
  24604579.695 3  15515794.082 3  12083274.71146  24604579.78546
  22277018.766 7   9024558.359 7   7033294.79748  22277014.68048
  21220265.086 7   3830069.355 7   2988335.68048  21220265.36748
  22509497.500 6  -9682913.785 6  -7522573.05147  22509497.49247
  23531966.977 6  -4862281.477 6  -3781535.44547  23531967.36747
 16  7  7  9  4 30.0000000  0  9G02G06G12G14G17G19G24G25G32         
  22732062.094 6  -8605541.230 6  -6683976.59047  22732057.95347
  22120205.531 7 -11140985.582 7  -8648315.60948  22120206.55948
  20312610.078 7 -10258415.039 7  -7974939.86749  20312607.16049
  24148103.789 5  -3035141.371 5  -2349558.27346  24148102.01646
  24614302.313 3  15566885.211 3  12123085.93046  24614301.50446
  22285897.445 7   9071219.602 7   7069654.19548  22285894.07448
  21226794.039 7   3864379.531 7   3015070.86348  21226794.38748
  22501972.977 6  -9722451.609 6  -7553381.72747  22501973.93447
  23531956.727 6  -4862330.707 6  -3781573.81647  23531958.23447
 16  7  7  9  4 45.0000000  0  9G02G06G12G14G17G19G24G25G32         
  22725358.422 6  -8640768.211 6  -6711426.15647  22725354.28547
  22119232.445 7 -11146098.977 7  -8652300.07848  22119233.80148
  20310592.977 7 -10269014.105 7  -7983198.89149  20310589.95749
  24144570.297 5  -3053710.543 5  -2364027.73446  24144568.37146
  24624028.867 3  15617998.875 3  12162914.73846  24624028.74646
  22294792.367 6   9117961.680 6   7106076.58248  22294788.87948
  21233344.266 7   3898804.160 7   3041895.23848  21233344.91448
  22494458.617 6  -9761940.668 6  -7584152.41047  22494459.41847
  23531976.008 6  -4862232.852 6  -3781497.58247  23531976.62147
 16  7  7  9  5  0.0000000  0  9G02G06G12G14G17G19G24G25G32         
  22718671.102 6  -8675912.520 6  -6738811.32047  22718666.83247
  22118288.492 7 -11151058.930 7  -8656164.96548  22118289.89848
  20308594.523 7 -10279517.766 7  -7991383.54749  20308591.43449
  24141060.672 5  -3072148.641 5  -2378395.05546  24141059.68046
  24633760.656 3  15669136.465 3  12202762.13346  24633759.73846
  22303702.945 6   9164785.844 6   7142562.92648  22303699.14548
  21239917.414 7   3933344.691 7   3068809.92248  21239918.25048
  22486953.656 6  -9801379.195 6  -7614883.71547  22486954.40647
  23532023.063 6  -4861986.430 6  -3781305.56647  23532023.34047
 16  7  7  9  5 15.0000000  0  9G02G06G12G14G17G19G24G25G32         
  22711998.711 6  -8710974.746 6  -6766132.52347  22711995.00447
  22117373.766 7 -11155866.418 7  -8659911.04348  22117375.35548
  20306613.336 7 -10289927.012 7  -7999494.65249  20306610.16849
  24137577.031 4  -3090456.605 4  -2392661.01246  24137575.82446
  24643496.609 4  15720296.770 4  12242627.29746  24643495.06646
  22312628.805 7   9211690.680 7   7179112.14548  22312624.87148
  21246512.578 7   3968000.160 7   3095814.15248  21246512.85548
  22479458.586 6  -9840768.121 6  -7645576.35947  22479458.93047
  23532097.477 6  -4861592.465 6  -3780998.57447  23532098.94547
 16  7  7  9  5 30.0000000  0  9G02G06G12G14G17G19G24G25G32         
  22705341.695 6  -8745956.035 6  -6793390.65247  22705338.03547
  22116487.500 7 -11160522.516 7  -8663539.18048  22116488.93448
  20304650.273 7 -10300242.992 7  -8007533.07849  20304647.39549
  24134117.922 4  -3108635.473 4  -2406826.34446  24134116.53946
  24653236.227 4  15771478.445 4  12282509.09046  24653235.03546
  22321569.109 6   9258674.648 6   7215723.00048  22321565.71948
  21253128.422 7   4002769.023 7   3122906.74648  21253128.91448
  22471972.297 6  -9880108.539 6  -7676231.22347  22471972.74647
  23532200.617 6  -4861052.180 6  -3780577.59047  23532201.80547
 16  7  7  9  5 45.0000000  0  9G02G06G12G14G17G19G24G25G32         
  22698700.953 6  -8780854.434 6  -6820584.18047  22698697.21947
  22115630.711 6 -11165025.523 6  -8667048.00048  22115632.57848
  20302705.500 7 -10310463.918 7  -8015497.43849  20302702.76249
  24130683.344 5  -3126683.414 5  -2420889.67646  24130681.62146
  24662979.438 4  15822682.750 4  12322408.50046  24662978.84046
  22330525.281 6   9305739.141 6   7252396.62548  22330521.78148
  21259766.789 7   4037652.828 7   3150088.90648  21259767.23848
  22464495.164 6  -9919398.648 6  -7706846.86747  22464496.21947
  23532331.602 6  -4860364.004 6  -3780041.35547  23532332.75047
 16  7  7  9  6  0.0000000  0  9G02G06G12G14G17G19G24G25G32         
  22692076.008 7  -8815669.281 7  -6847712.60547  22692071.94547
  22114803.359 6 -11169375.238 6  -8670437.38348  22114804.43048
  20300778.875 7 -10320589.598 7  -8023387.57449  20300775.52349
  24127273.867 5  -3144600.117 5  -2434850.73046  24127273.17246
  24672728.047 5  15873909.508 5  12362325.42247  24672727.53947
  22339497.156 6   9352883.945 6   7289132.81348  22339493.26648
  21266426.789 7   4072651.371 7   3177360.46948  21266426.90648
  22457028.266 6  -9958638.188 6  -7737423.11747  22457028.86347
  23532490.758 6  -4859527.797 6  -3779389.77347  23532491.64147
 16  7  7  9  6 15.0000000  0  9G02G06G12G14G17G19G24G25G32         
  22685466.281 6  -8850402.555 6  -6874777.48447  22685462.80147
  22114004.063 7 -11173573.566 7  -8673708.79348  22114005.42648
  20298869.422 7 -10330622.047 7  -8031205.06649  20298866.68849
  24123889.250 5  -3162387.512 5  -2448711.03946  24123888.20746
  24682479.875 5  15925156.555 5  12402258.13747  24682479.32047
  22348483.117 6   9400106.559 6   7325929.63348  22348479.28548
  21273108.219 7   4107762.414 7   3204719.68448  21273108.78148
  22449570.766 6  -9997828.996 6  -7767961.38747  22449571.10247
  23532677.547 6  -4858545.582 6  -3778624.40247  23532678.28547
 16  7  7  9  6 30.0000000  0  9G02G06G12G14G17G19G24G25G32         
  22678872.438 7  -8885053.215 7  -6901777.97347  22678868.82847
  22113234.227 6 -11177619.914 6  -8676861.79348  22113235.57448
  20296978.180 7 -10340560.598 7  -8038949.38349  20296974.85549
  24120529.406 5  -3180044.816 5  -2462469.98046  24120528.12546
  24692235.750 5  15976424.242 5  12442206.94147  24692235.35247
  22357484.234 6   9447407.363 6   7362787.37948  22357480.14148
  21279811.320 7   4142986.355 7   3232166.87948  21279811.72748
  22442122.195 6 -10036970.387 6  -7798461.14547  22442123.05147
  23532892.633 6  -4857416.824 6  -3777744.87147  23532893.60547
 16  7  7  9  6 45.0000000  0  9G02G06G12G14G17G19G24G25G32         
  22672294.953 7  -8919619.141 7  -6928712.44147  22672291.43847
  22112493.133 6 -11181512.176 6  -8679894.71148  22112494.90648
  20295105.281 7 -10350403.266 7  -8046618.99649  20295102.03149
  24117194.602 5  -3197569.922 5  -2476125.92246  24117192.93446
  24701995.406 5  16027714.313 5  12482173.19147  24701995.30147
  22366500.414 7   9494787.879 7   7399707.25848  22366496.78948
  21286535.594 7   4178324.996 7   3259703.46148  21286536.47748
  22434683.578 6 -10076060.266 6  -7828920.77047  22434684.35947
  23533135.422 6  -4856139.664 6  -3776749.68847  23533135.82447
 16  7  7  9  7  0.0000000  0  9G02G06G12G14G17G19G24G25G32         
  22665733.242 6  -8954101.711 6  -6955581.96147  22665729.33647
  22111781.406 6 -11185251.945 6  -8682808.80548  22111782.95748
  20293250.141 7 -10360151.547 7  -8054215.05949  20293247.62149
  24113884.500 5  -3214964.445 5  -2489680.08246  24113883.04746
  24711760.414 5  16079025.020 5  12522155.52747  24711759.79747
  22375531.477 6   9542246.270 6   7436687.80948  22375527.93848
  21293282.094 7   4213776.656 7   3287328.11748  21293282.54748
  22427254.391 6 -10115100.098 6  -7859341.41047  22427255.03547
  23533406.273 6  -4854715.645 6  -3775640.05947  23533407.02047
 16  7  7  9  7 15.0000000  0  9G02G06G12G14G17G19G24G25G32         
  22659187.000 6  -8988500.273 6  -6982386.01247  22659183.34847
  22111099.328 6 -11188838.887 6  -8685603.82448  22111100.57048
  20291412.984 7 -10369805.105 7  -8061737.30549  20291410.23049
  24110598.938 5  -3232227.820 5  -2503132.06646  24110597.47746
  24721528.250 5  16130356.531 5  12562154.05947  24721528.23047
  22384576.688 6   9589782.438 6   7473728.95747  22384573.74647
  21300050.047 7   4249341.270 7   3315040.77748  21300050.35948
  22419835.211 6 -10154089.480 6  -7889722.73047  22419835.81347
  23533705.852 6  -4853144.617 6  -3774415.88347  23533706.22747
 16  7  7  9  7 30.0000000  0  9G02G06G12G14G17G19G24G25G32         
  22652657.461 6  -9022813.609 6  -7009123.67647  22652653.72747
  22110445.859 7 -11192271.938 7  -8688278.91848  22110447.07448
  20289594.289 7 -10379362.875 7  -8069184.93049  20289591.17649
  24107339.492 6  -3249358.883 6  -2516480.94546  24107337.03546
  24731300.617 5  16181709.262 5  12602169.13747  24731300.28547
  22393638.039 6   9637397.008 6   7510831.20747  22393633.99247
  21306839.359 7   4285019.703 7   3342842.13748  21306839.54748
  22412425.742 6 -10193027.285 6  -7920063.85947  22412426.19147
  23534032.625 6  -4851425.543 6  -3773076.35247  23534033.54347
 16  7  7  9  7 45.0000000  0  9G02G06G12G14G17G19G24G25G32         
  22646144.234 6  -9057041.566 6  -7035794.79347  22646140.95747
  22109821.648 6 -11195551.289 6  -8690834.25448  22109822.98448
  20287793.617 7 -10388825.086 7  -8076558.07449  20287790.78549
  24104104.703 5  -3266357.805 5  -2529726.85546  24104102.48446
  24741076.742 5  16233082.883 5  12642200.49647  24741076.09447
  22402713.352 6   9685089.238 6   7547993.96948  22402709.75048
  21313650.023 7   4320811.641 7   3370731.94548  21313650.52748
  22405026.086 6 -10231913.648 6  -7950364.91047  22405026.56347
  23534387.633 6  -4849558.820 6  -3771621.76647  23534388.04747
 16  7  7  9  8  0.0000000  0  9G02G06G12G14G17G19G24G25G32         
  22639647.148 6  -9091184.027 6  -7062399.29347  22639643.49247
  22109227.148 6 -11198677.031 6  -8693269.87948  22109228.47348
  20286011.359 7 -10398191.863 7  -8083856.85949  20286008.01249
  24100894.750 5  -3283224.457 5  -2542869.69546  24100893.14546
  24750856.445 5  16284476.945 5  12682247.77047  24750856.22747
  22411803.727 6   9732858.840 6   7585217.02348  22411800.03548
  21320482.367 7   4356716.578 7   3398709.79348  21320482.89848
  22397635.633 6 -10270748.559 6  -7980625.87547  22397636.43047
  23534771.133 6  -4847544.617 6  -3770052.25447  23534771.84447
 16  7  7  9  8 15.0000000  0  9G02G06G12G14G17G19G24G25G32         
  22633165.750 6  -9125241.211 6  -7088937.34047  22633162.37947
  22108661.516 6 -11201649.320 6  -8695585.95748  22108662.89548
  20284247.258 7 -10407463.430 7  -8091081.44949  20284244.11349
  24097711.195 6  -3299959.082 6  -2555909.66446  24097708.62946
  24760640.383 6  16335891.215 6  12722310.80547  24760640.33647
  22420908.805 6   9780705.359 6   7622499.98848  22420904.96948
  21327336.773 7   4392733.922 7   3426775.22348  21327337.34048
  22390255.484 6 -10309532.133 6  -8010846.82447  22390255.94947
  23535182.070 6  -4845383.168 6  -3768368.02047  23535183.16047
 16  7  7  9  8 30.0000000  0  9G02G06G12G14G17G19G24G25G32         
  22626701.805 6  -9159212.453 6  -7115408.40647  22626697.97347
  22108125.383 6 -11204467.957 6  -8697782.28548  22108126.72348
  20282501.117 7 -10416639.582 7  -8098231.69149  20282497.98449
  24094551.180 5  -3316561.410 5  -2568846.57046  24094549.45746
  24770427.813 5  16387325.512 5  12762389.45747  24770427.81347
  22430028.383 6   9828628.547 6   7659842.72348  22430024.80548
  21334211.398 7   4428863.727 7   3454928.30148  21334212.34448
  22382885.016 6 -10348264.074 6  -8041027.54347  22382885.25847
  23535621.766 6  -4843074.395 6  -3766568.97747  23535623.00047
 16  7  7  9  8 45.0000000  0 10G02G06G12G14G17G19G24G25G29G32      
  22620252.906 6  -9193099.176 6  -7141813.62947  22620249.57047
  22107618.000 6 -11207134.609 6  -8699860.19548  22107619.29748
  20280772.422 7 -10425721.977 7  -8105308.87949  20280769.81649
  24091417.094 5  -3333032.902 5  -2581681.51646  24091415.18046
  24780218.711 6  16438777.820 6  12802482.12547  24780218.89547
  22439161.672 6   9876626.273 6   7697243.52048  22439158.21548
  21341108.281 7   4465104.305 7   3483167.69548  21341108.85248
  22375524.313 6 -10386945.938 6  -8071169.25047  22375524.45747
  24251080.98414   -140533.00014    -84300.51655  24251080.12155
  23536088.797 6  -4840620.063 6  -3764656.50447  23536090.03947
 16  7  7  9  9  0.0000000  0 10G02G06G12G14G17G19G24G25G29G32      
  22613820.727 6  -9226901.105 6  -7168152.78547  22613817.48447
  22107139.430 6 -11209649.102 6  -8701819.52048  22107140.62548
  20279062.039 7 -10434710.480 7  -8112312.90249  20279059.51249
  24088307.727 5  -3349373.203 5  -2594414.21546  24088306.02046
  24790013.578 5  16490248.148 5  12842588.84446  24790013.46146
  22448309.617 6   9924698.145 6   7734702.10248  22448306.00448
  21348025.789 7   4501455.199 7   3511493.05548  21348026.44948
  22368172.586 6 -10425577.523 6  -8101271.77047  22368173.38747
  24241064.125 3   -193173.887 3   -125319.43446  24241062.62546
  23536583.398 6  -4838020.137 6  -3762630.58247  23536584.06647
 16  7  7  9  9 15.0000000  0  9G02G06G12G14G19G24G25G29G32         
  22607404.422 6  -9260619.406 6  -7194426.76647  22607400.31647
  22106689.359 6 -11212012.945 6  -8703661.46548  22106690.65248
  20277369.297 7 -10443606.605 7  -8119244.94549  20277366.22749
  24085222.750 6  -3365583.973 6  -2607045.96946  24085220.39546
  22457471.313 6   9972842.563 6   7772217.22748  22457467.67248
  21354963.445 7   4537914.809 7   3539903.12148  21354964.04748
  22360830.242 6 -10464160.230 6  -8131336.18847  22360831.40647
  24231052.188 3   -245784.434 3   -166314.61745  24231051.91445
  23537105.813 6  -4835276.137 6  -3760492.41047  23537106.16047
 16  7  7  9  9 30.0000000  0  9G02G06G12G14G19G24G25G29G32         
  22601004.141 6  -9294254.137 6  -7220635.62547  22601000.62147
  22106267.836 6 -11214226.297 6  -8705386.14848  22106269.62148
  20275693.836 7 -10452410.387 7  -8126105.03149  20275690.60549
  24082162.398 5  -3381665.285 5  -2619576.89146  24082160.43046
  22466646.813 6  10021058.941 6   7809788.42248  22466642.73848
  21361922.398 7   4574482.770 7   3568397.63748  21361922.86748
  22353497.664 6 -10502694.098 6  -8161362.56347  22353498.24247
  24221045.875 3   -298364.656 3   -207286.23445  24221046.48445
  23537655.273 6  -4832388.406 6  -3758242.21547  23537655.89147
 16  7  7  9  9 45.0000000  0  9G02G06G12G14G19G24G25G29G32         
  22594619.758 6  -9327803.980 6  -7246778.35547  22594615.91447
  22105875.664 6 -11216288.105 6  -8706992.73848  22105877.09448
  20274036.469 7 -10461120.758 7  -8132892.33249  20274033.35949
  24079126.852 5  -3397615.867 5  -2632005.89546  24079124.75846
  22475835.453 6  10069347.820 6   7847416.10947  22475832.34047
  21368901.625 7   4611159.430 7   3596976.83648  21368902.13748
  22346174.758 6 -10541178.000 6  -8191350.01647  22346175.30547
  24211047.000 3   -350913.160 3   -248233.07446  24211047.25046
  23538232.242 6  -4829355.992 6  -3755879.29747  23538233.17647
 16  7  7  9 10  0.0000000  0  9G02G06G12G14G19G24G25G29G32         
  22588251.883 6  -9361266.895 6  -7272853.34447  22588247.57047
  22105512.789 6 -11218196.629 6  -8708479.89548  22105513.87548
  20272396.961 7 -10469735.938 7  -8139605.45749  20272393.94949
  24076117.273 5  -3413433.887 5  -2644331.60946  24076114.83646
  22485038.930 6  10117710.641 6   7885101.41048  22485034.69148
  21375902.422 7   4647946.598 7   3625642.13348  21375902.66048
  22338861.492 6 -10579610.129 6  -8221297.11347  22338862.10247
  24201053.719 4   -403428.309 4   -289153.98046  24201054.71946
  23538836.891 6  -4826177.242 6  -3753402.34847  23538838.24247
 16  7  7  9 10 15.0000000  0  9G02G06G12G14G19G24G25G29G32         
  22581900.961 6  -9394641.676 6  -7298859.64847  22581897.20347
  22105179.258 7 -11219950.789 7  -8709846.77348  22105179.85948
  20270775.648 7 -10478255.016 7  -8146243.69149  20270772.86749
  24073132.375 5  -3429118.254 5  -2656553.16846  24073130.20746
  22494255.898 6  10166147.980 6   7922844.77348  22494252.75048
  21382923.719 7   4684845.191 7   3654394.26248  21382924.19548
  22331557.594 6 -10617989.328 6  -8251202.95747  22331558.45747
  24191067.047 4   -455908.820 4   -330047.85246  24191067.05546
  23539469.859 6  -4822851.215 6  -3750810.64147  23539471.23047
 16  7  7  9 10 30.0000000  0  9G02G06G12G14G19G24G25G29G32         
  22575567.055 6  -9427928.000 6  -7324797.02048  22575562.89848
  22104874.648 7 -11221550.484 7  -8711093.28148  22104875.53148
  20269172.656 7 -10486677.742 7  -8152806.85549  20269170.05149
  24070173.031 5  -3444668.754 5  -2668670.44546  24070171.62146
  22503487.578 6  10214659.586 6   7960646.00048  22503483.96548
  21389966.453 7   4721854.891 7   3683232.95748  21389967.17648
  22324264.398 6 -10656315.379 6  -8281067.39847  22324265.11747
  24181086.227 5   -508354.445 5   -370914.59046  24181086.85546
  23540130.625 6  -4819377.828 6  -3748104.12147  23540132.04747
 16  7  7  9 10 45.0000000  0  9G02G06G12G14G19G24G25G29G32         
  22569249.711 7  -9461123.457 7  -7350663.59048  22569245.68448
  22104599.633 7 -11222993.723 7  -8712217.86348  22104601.14848
  20267588.922 7 -10495002.078 7  -8159293.34849  20267585.73049
  24067239.828 5  -3460083.305 5  -2680681.79346  24067238.10946
  22512733.469 6  10263247.160 6   7998506.43448  22512730.00048
  21397030.500 7   4758977.551 7   3712159.70348  21397030.88348
  22316981.727 6 -10694586.176 6  -8310888.78147  22316982.14847
  24171113.688 4   -560762.840 4   -411752.26646  24171113.52746
  23540819.883 6  -4815755.254 6  -3745281.33647  23540821.44547
 16  7  7  9 11  0.0000000  0  9G02G06G12G14G19G24G25G29G32         
  22562950.078 7  -9494230.059 7  -7376460.92248  22562945.68048
  22104354.609 6 -11224282.711 6  -8713222.26248  22104355.68448
  20266023.039 7 -10503230.398 7  -8165705.02749  20266019.92249
  24064331.953 6  -3475364.078 6  -2692588.89546  24064330.67246
  22521993.305 6  10311908.172 6   8036424.08248  22521990.01248
  21404116.008 7   4796210.797 7   3741172.60248  21404116.44948
  22309708.945 6 -10732803.836 6  -8340668.76647  22309709.83247
  24161147.656 5   -613136.301 5   -452562.72746  24161147.84846
  23541537.523 6  -4811985.777 6  -3742344.09447  23541538.71947
 16  7  7  9 11 15.0000000  0  9G02G06G12G14G19G24G25G29G32         
  22556666.945 7  -9527246.586 7  -7402188.06648  22556663.25848
  22104138.781 6 -11225416.250 6  -8714105.53948  22104140.22748
  20264475.578 7 -10511361.457 7  -8172040.91449  20264472.88349
  24061449.727 5  -3490509.758 5  -2704390.72746  24061448.82846
  22531267.367 6  10360643.348 6   8074399.53147  22531263.72747
  21411222.555 7   4833555.574 7   3770272.38748  21411222.71148
  22302447.414 6 -10770967.137 6  -8370406.39547  22302447.38347
  24151188.461 5   -665473.570 5   -493344.99646  24151188.16446
  23542283.414 6  -4808068.383 6  -3739291.59047  23542284.08247
 16  7  7  9 11 30.0000000  0  9G02G06G12G14G19G24G25G29G32         
  22550401.219 7  -9560172.375 7  -7427844.52347  22550397.19547
  22103952.555 6 -11226394.027 6  -8714867.44148  22103954.43048
  20262947.063 7 -10519394.816 7  -8178300.66849  20262944.36749
  24058593.203 6  -3505519.848 6  -2716086.91446  24058591.80146
  22540555.672 6  10409452.574 6   8112432.67248  22540551.80548
  21418350.266 7   4871011.723 7   3799458.94948  21418350.84048
  22295195.406 6 -10809075.543 6  -8400101.24648  22295195.40648
  24141235.383 5   -717774.031 5   -534098.59046  24141235.30946
  23543057.102 6  -4804002.773 6  -3736123.57047  23543057.51247
 16  7  7  9 11 45.0000000  0  9G02G06G12G14G19G24G25G29G32         
  22544153.141 6  -9593007.844 6  -7453430.56648  22544149.39148
  22103795.758 6 -11227216.707 6  -8715508.49248  22103797.68048
  20261436.867 7 -10527331.156 7  -8184484.82849  20261433.89549
  24055763.023 6  -3520394.898 6  -2727677.87946  24055760.29346
  22549857.414 6  10458334.824 6   8150522.72347  22549853.53947
  21425498.648 7   4908578.355 7   3828731.61748  21425499.25048
  22287953.625 6 -10847129.707 6  -8429753.82047  22287954.54747
  24131290.094 5   -770038.137 5   -574823.85246  24131289.85246
  23543858.906 6  -4799789.758 6  -3732840.69947  23543859.34847
 16  7  7  9 12  0.0000000  0  9G02G06G12G14G19G24G25G29G32         
  22537921.359 7  -9625753.793 7  -7478946.87948  22537918.14548
  22103669.078 6 -11227885.180 6  -8716029.37148  22103669.91448
  20259945.242 7 -10535171.332 7  -8190594.05949  20259941.95349
  24052958.336 6  -3535135.742 6  -2739164.25846  24052955.65646
  22559173.047 6  10507288.961 6   8188668.78947  22559169.24647
  21432668.539 7   4946254.426 7   3858089.58248  21432668.77348
  22280721.844 6 -10885130.387 6  -8459364.72747  22280722.93447
  24121351.070 5   -822266.661 5   -615521.39546  24121351.07846
  23544688.266 6  -4795430.340 6  -3729443.75447  23544688.63747
 16  7  7  9 12 15.0000000  0  9G02G06G12G14G19G24G25G29G32         
  22531707.773 6  -9658409.840 6  -7504393.12148  22531703.71148
  22103571.156 6 -11228399.395 6  -8716430.04348  22103572.25448
  20258471.156 7 -10542915.363 7  -8196628.35949  20258468.29349
  24050178.539 6  -3549742.438 6  -2750546.09846  24050176.07846
  22568502.203 6  10556314.598 6   8226870.56347  22568498.43447
  21439858.680 7   4984039.863 7   3887532.75048  21439859.21548
  22273501.531 6 -10923077.441 6  -8488933.83647  22273502.09447
  24111419.117 5   -874459.242 5   -656190.93046  24111419.66046
  23545545.711 6  -4790924.543 6  -3725932.75447  23545545.94147
 16  7  7  9 12 30.0000000  0  9G02G06G12G14G19G24G25G29G32         
  22525510.633 6  -9690975.316 6  -7529768.79748  22525507.10548
  22103502.539 6 -11228758.965 6  -8716710.22748  22103504.00048
  20257016.102 7 -10550562.598 7  -8202587.23849  20257013.00049
  24047424.313 5  -3564214.305 5  -2761822.87146  24047422.29346
  22577845.016 6  10605411.891 6   8265128.19147  22577840.80547
  21447069.523 7   5021934.719 7   3917061.19548  21447070.55948
  22266290.555 6 -10960970.367 6  -8518460.77747  22266290.79347
  24101494.063 5   -926615.496 5   -696832.15647  24101493.82447
  23546430.711 6  -4786272.102 6  -3722307.46547  23546431.32847
 16  7  7  9 12 45.0000000  0  9G02G06G12G14G19G24G25G29G32         
  22519330.500 6  -9723450.156 6  -7555073.83648  22519327.04748
  22103463.758 6 -11228964.043 6  -8716870.02048  22103464.94948
  20255579.250 7 -10558113.449 7  -8208471.01249  20255576.34849
  24044696.008 5  -3578551.438 5  -2772994.66446  24044693.96946
  22587201.719 6  10654580.262 6   8303441.20747  22587197.71547
  21454301.586 7   5059938.238 7   3946674.32048  21454302.18848
  22259090.273 6 -10998809.129 6  -8547945.50847  22259090.84847
  24091575.742 5   -978735.402 5   -737445.05146  24091575.83646
  23547343.984 6  -4781473.262 6  -3718568.10947  23547345.03147
 16  7  7  9 13  0.0000000  0  9G02G06G12G14G19G24G25G29G32         
  22513168.023 7  -9755834.141 7  -7580308.08648  22513164.62548
  22103454.227 7 -11229014.629 7  -8716909.42648  22103454.97748
  20254160.156 7 -10565568.047 7  -8214279.78949  20254157.64849
  24041994.195 5  -3592753.875 5  -2784061.51646  24041991.50446
  22596571.711 6  10703819.227 6   8341809.21547  22596568.07447
  21461554.406 7   5098050.684 7   3976372.34048  21461555.00448
  22251900.000 6 -11036593.734 6  -8577388.03947  22251900.65247
  24081664.836 5  -1030818.922 5   -778029.57547  24081664.53947
  23548285.617 6  -4776528.133 6  -3714714.77747  23548285.86347
 16  7  7  9 13 15.0000000  0  9G02G06G12G14G19G24G25G29G32         
  22507022.906 7  -9788127.168 7  -7605471.45348  22507018.92248
  22103473.633 6 -11228910.805 6  -8716828.52048  22103474.98848
  20252760.469 7 -10572926.215 7  -8220013.41449  20252757.77049
  24039316.844 5  -3606821.512 5  -2795023.33646  24039314.33246
  22605954.945 6  10753128.465 6   8380231.98447  22605951.56647
  21468827.438 7   5136271.520 7   4006154.78548  21468828.11348
  22244719.914 6 -11074324.113 6  -8606788.32447  22244720.32447
  24071760.398 5  -1082865.742 5   -818585.50046  24071760.19146
  23549254.000 6  -4771436.926 6  -3710747.60947  23549254.70747
 16  7  7  9 13 30.0000000  0  9G02G06G12G14G19G24G25G29G32         
  22500895.008 6  -9820328.602 6  -7630563.47748  22500890.78148
  22103522.867 6 -11228652.289 6  -8716627.07848  22103524.77348
  20251378.586 7 -10580187.645 7  -8225671.66849  20251375.57049
  24036665.484 5  -3620753.941 5  -2805879.77346  24036663.71946
  22615352.039 6  10802507.750 6   8418709.33248  22615348.02348
  21476121.313 7   5174600.590 7   4036021.54748  21476121.93848
  22237550.766 6 -11111999.840 6  -8636146.02347  22237551.22347
  24061863.133 5  -1134875.426 5   -859112.51246  24061863.47746
  23550250.469 6  -4766199.406 6  -3706666.43447  23550251.56347
 16  7  7  9 13 45.0000000  0  9G02G06G12G14G19G24G25G29G32         
  22494784.922 7  -9852438.469 7  -7655584.12948  22494780.67248
  22103601.313 6 -11228239.352 6  -8716305.28948  22103602.57848
  20250015.352 7 -10587352.699 7  -8231254.82049  20250012.26649
  24034040.008 5  -3634551.426 5  -2816631.06646  24034038.14546
  22624760.984 6  10851956.586 6   8457240.87948  22624758.01248
  21483435.727 7   5213037.531 7   4065972.39148  21483436.82848
  22230391.414 6 -11149621.082 6  -8665461.26247  22230392.24247
  24051973.391 5  -1186848.215 5   -899610.75847  24051973.41047
  23551274.938 6  -4760816.000 6  -3702471.58647  23551275.92247
 16  7  7  9 14  0.0000000  0  9G02G06G12G14G19G24G25G29G32         
  22488692.164 6  -9884455.824 6  -7680532.69147  22488688.34047
  22103709.789 7 -11227671.254 7  -8715862.61748  22103710.26248
  20248670.023 7 -10594420.434 7  -8236762.14849  20248666.89149
  24031439.844 5  -3648212.930 5  -2827276.37146  24031438.35946
  22634184.570 6  10901475.297 6   8495826.86747  22634180.78547
  21490770.602 7   5251583.273 7   4096008.00848  21490771.79748
  22223243.148 6 -11187187.000 6  -8694733.39548  22223243.34448
  24042090.492 5  -1238783.219 5   -940079.57447  24042090.65647
  23552327.383 6  -4755286.043 6  -3698162.54347  23552328.05147
 16  7  7  9 14 15.0000000  0  9G02G06G12G14G19G24G25G29G32         
  22482617.141 6  -9916380.531 6  -7705409.05948  22482613.16848
  22103847.297 6 -11226948.109 6  -8715299.12148  22103848.14148
  20247343.984 7 -10601390.922 7  -8242193.69549  20247340.75049
  24028865.727 5  -3661738.754 5  -2837815.98046  24028864.84846
  22643620.727 6  10951063.398 6   8534466.91047  22643617.05947
  21498125.461 6   5290236.535 6   4126127.41848  21498126.93448
  22216104.984 6 -11224697.594 6  -8723962.41847  22216105.60547
  24032215.125 5  -1290680.242 5   -980518.78546  24032215.44546
  23553407.813 6  -4749609.789 6  -3693739.49247  23553408.41447
 16  7  7  9 14 30.0000000  0  9G02G06G12G14G19G24G25G29G32         
  22476559.234 7  -9948213.723 7  -7730214.12148  22476555.43848
  22104014.039 6 -11226071.320 6  -8714615.92648  22104015.22748
  20246035.641 7 -10608265.508 7  -8247550.51649  20246032.61349
  24026317.828 5  -3675130.184 5  -2848250.81346  24026315.78146
  22653069.508 6  11000719.340 6   8573159.84047  22653066.09847
  21505501.672 6   5328996.375 6   4156329.86348  21505502.50848
  22208977.273 6 -11262154.063 6  -8753149.26648  22208977.47348
  24022346.242 5  -1342540.398 5  -1020929.27746  24022346.66446
  23554515.047 6  -4743788.633 6  -3689203.52347  23554516.05147
 16  7  7  9 14 45.0000000  0  9G02G06G12G14G19G24G25G29G32         
  22470519.070 7  -9979954.078 7  -7754946.84848  22470515.72348
  22104210.227 6 -11225039.727 6  -8713812.06648  22104211.50448
  20244745.727 7 -10615043.266 7  -8252831.88349  20244742.92649
  24023795.469 6  -3688385.785 6  -2858579.86746  24023794.13746
  22662532.172 6  11050443.758 6   8611906.12947  22662528.35247
  21512898.016 7   5367863.406 7   4186615.84048  21512899.07048
  22201860.211 6 -11299555.246 6  -8782293.03148  22201860.56348
  24012485.469 5  -1394362.484 5  -1061310.09447  24012485.01247
  23555650.742 6  -4737821.648 6  -3684553.92247  23555651.49247
 16  7  7  9 15  0.0000000  0  9G02G06G12G14G19G24G25G29G32         
  22464496.984 7 -10011601.512 7  -7779607.16048  22464493.43448
  22104436.195 6 -11223853.535 6  -8712887.75848  22104437.63748
  20243474.398 7 -10621724.191 7  -8258037.79749  20243471.26649
  24021298.641 6  -3701505.688 6  -2868803.15246  24021297.03546
  22672007.453 6  11100236.090 6   8650705.32847  22672003.31647
  21520314.672 6   5406837.238 6   4216985.03548  21520315.03148
  22194753.000 6 -11336901.188 6  -8811393.75048  22194753.83648
  24002630.641 5  -1446146.648 5  -1101661.37147  24002631.07847
  23556813.953 6  -4731709.129 6  -3679790.94147  23556814.59047
 16  7  7  9 15 15.0000000  0  9G02G06G12G14G19G24G25G29G32         
  22458492.555 7 -10043155.438 7  -7804194.60948  22458489.17648
  22104691.266 6 -11222512.418 6  -8711842.71948  22104692.97348
  20242221.672 7 -10628307.859 7  -8263167.93049  20242218.49249
  24018827.961 6  -3714489.457 6  -2878920.37146  24018826.32046
  22681495.438 6  11150096.352 6   8689557.48047  22681491.77747
  21527751.047 6   5445918.184 6   4247437.70748  21527752.01648
  22187657.523 6 -11374191.352 6  -8840451.00848  22187658.32048
  23992783.711 5  -1497892.246 5  -1141982.59046  23992783.98446
  23558004.945 6  -4725450.762 6  -3674914.29747  23558005.46147
 16  7  7  9 15 30.0000000  0  9G02G06G12G14G19G24G25G29G32         
  22452505.414 7 -10074617.531 7  -7828710.51248  22452501.53948
  22104975.430 6 -11221018.258 6  -8710678.42648  22104977.32448
  20240987.117 7 -10634796.180 7  -8268223.76249  20240984.20749
  24016383.383 6  -3727339.043 6  -2888933.03946  24016381.34446
  22690996.141 6  11200022.426 6   8728460.89847  22690992.21547
  21535208.180 6   5485103.707 6   4277971.85548  21535209.22348
  22180571.281 6 -11411427.582 6  -8869466.23448  22180572.50448
  23982943.789 5  -1549601.066 5  -1182275.14146  23982944.10946
  23559223.563 6  -4719048.621 6  -3669925.62147  23559224.43047
 16  7  7  9 15 45.0000000  0  9G02G06G12G14G19G24G25G29G32         
  22446536.453 7 -10105985.793 7  -7853153.28548  22446532.50848
  22105289.594 7 -11219369.363 7  -8709393.58648  22105290.87148
  20239770.688 7 -10641187.438 7  -8273203.96949  20239767.82449
  24013963.742 6  -3740052.520 6  -2898839.64546  24013961.80546
  22700509.117 6  11250015.633 6   8767416.62947  22700506.13747
  21542685.172 6   5524395.547 6   4308588.85548  21542685.91048
  22173496.086 6 -11448607.973 6  -8898437.94947  22173496.49247
  23973111.086 5  -1601271.098 5  -1222537.47347  23973111.00447
  23560469.492 6  -4712501.020 6  -3664823.61347  23560469.85947
 16  7  7  9 16  0.0000000  0  9G02G06G12G14G19G24G25G29G32         
  22440584.500 7 -10137261.148 7  -7877523.68048  22440580.65648
  22105632.266 7 -11217566.832 7  -8707989.00048  22105634.04348
  20238572.641 7 -10647482.750 7  -8278109.39549  20238569.67649
  24011569.953 6  -3752630.898 6  -2908640.98446  24011568.43446
  22710035.227 6  11300074.578 6   8806423.58647  22710031.55547
  21550182.203 6   5563792.449 6   4339287.72748  21550183.18048
  22166431.383 6 -11485733.570 6  -8927366.96548  22166431.68448
  23963286.102 5  -1652903.363 5  -1262770.38346  23963286.43446
  23561742.734 6  -4705809.273 6  -3659609.29347  23561743.68047
 16  7  7  9 16 15.0000000  0  9G02G06G12G14G19G24G25G29G32         
  22434651.609 7 -10168441.781 7  -7901820.25848  22434646.91048
  22106004.820 7 -11215609.070 7  -8706463.46148  22106006.59448
  20237393.453 7 -10653680.434 7  -8282938.76249  20237390.42249
  24009202.688 6  -3765072.555 6  -2918335.76646  24009200.81646
  22719574.375 6  11350200.211 6   8845482.50447  22719570.40647
  21557699.641 6   5603295.566 6   4370069.35248  21557700.62948
  22159377.094 6 -11522802.637 6  -8956251.94948  22159377.74248
  23953468.055 4  -1704496.125 4  -1302972.48846  23953468.44146
  23563043.203 6  -4698971.844 6  -3654281.43447  23563044.73447
 16  7  7  9 16 30.0000000  0  9G02G06G12G14G19G24G25G29G32         
  22428735.406 7 -10199528.266 7  -7926043.46948  22428731.71548
  22106406.969 7 -11213496.953 7  -8704817.65248  22106408.43848
  20236232.414 7 -10659781.234 7  -8287692.63749  20236229.10549
  24006860.883 6  -3777378.273 6  -2927924.62546  24006858.47346
  22729124.898 6  11400391.684 6   8884592.71547  22729121.57847
  21565236.305 6   5642903.816 6   4400932.89848  21565237.08648
  22152333.625 6 -11559815.863 6  -8985093.41048  22152334.33248
  23943657.883 4  -1756050.066 4  -1343144.39146  23943658.11346
  23564372.031 6  -4691989.684 6  -3648840.80547  23564373.25047
 16  7  7  9 16 45.0000000  0  9G02G06G12G14G19G24G25G29G32         
  22422838.313 7 -10230519.832 7  -7950192.72748  22422834.41848
  22106838.031 7 -11211229.973 7  -8703051.16448  22106839.66848
  20235090.305 7 -10665784.586 7  -8292370.57049  20235086.82449
  24004545.523 6  -3789547.457 6  -2937407.11346  24004543.14846
  22738688.945 6  11450649.094 6   8923754.30947  22738684.95347
  21572793.789 6   5682617.488 6   4431878.59048  21572794.33648
  22145301.195 6 -11596772.609 6  -9013890.86348  22145301.66848
  23933854.625 5  -1807564.539 5  -1383285.52046  23933855.30546
  23565728.563 6  -4684862.406 6  -3643287.09047  23565729.65647
 16  7  7  9 17  0.0000000  0  9G02G06G12G14G19G24G25G29G32         
  22416959.008 7 -10261416.188 7  -7974267.78548  22416954.65248
  22107299.258 7 -11208808.215 7  -8701164.06648  22107300.32048
  20233966.031 7 -10671690.527 7  -8296972.60249  20233962.87949
  24002255.773 5  -3801579.984 5  -2946783.09446  24002252.61746
  22748265.117 6  11500971.867 6   8962966.84447  22748261.41847
  21580371.125 6   5722436.355 6   4462906.24648  21580371.88348
  22138279.445 6 -11633672.832 6  -9042644.28547  22138279.37947
  23924059.438 4  -1859039.211 4  -1423395.62146  23924060.11346
  23567112.617 6  -4677590.180 6  -3637620.43847  23567113.37547
 16  7  7  9 17 15.0000000  0  9G02G06G12G14G19G24G25G29G32         
  22411097.438 7 -10292217.055 7  -7998268.44148  22411093.59848
  22107789.328 6 -11206231.500 6  -8699156.23448  22107790.56348
  20232860.820 7 -10677499.125 7  -8301498.78549  20232857.74249
  23999991.141 6  -3813475.730 6  -2956052.50046  23999989.18446
  22757853.922 6  11551359.875 6   9002230.20347  22757849.44547
  21587968.469 6   5762360.168 6   4494015.69148  21587968.90648
  22131268.602 6 -11670516.266 6  -9071353.44148  22131268.09448
  23914271.836 5  -1910473.855 5  -1463474.52746  23914272.14546
  23568524.008 6  -4670173.020 6  -3631840.82847  23568524.88747
 16  7  7  9 17 30.0000000  0  9G02G06G12G14G19G24G25G29G32         
  22405254.594 7 -10322922.496 7  -8022194.73848  22405250.47348
  22108308.984 6 -11203500.238 6  -8697027.96948  22108310.58248
  20231774.156 7 -10683210.590 7  -8305949.28149  20231771.29349
  23997754.258 6  -3825234.961 6  -2965215.55546  23997751.82846
  22767454.359 6  11601812.496 6   9041543.91047  22767450.18847
  21595585.375 6   5802388.699 6   4525206.73048  21595586.57848
  22124268.031 6 -11707303.105 6  -9100018.50048  22124268.39848
  23904491.734 5  -1961868.621 5  -1503522.37146  23904492.28546
  23569962.250 6  -4662611.293 6  -3625948.58247  23569963.76647
 16  7  7  9 17 45.0000000  0  9G02G06G12G14G19G24G25G29G32         
  22399429.781 7 -10353532.109 7  -8046046.35947  22399425.27747
  22108858.102 6 -11200614.191 6  -8694779.09448  22108859.03148
  20230705.313 7 -10688824.629 7  -8310323.84849  20230702.49649
  23995542.469 6  -3836857.461 6  -2974272.05546  23995540.53946
  22777067.594 6  11652329.633 6   9080907.89547  22777063.24247
  21603222.305 6   5842521.508 6   4556479.02048  21603223.41848
  22117278.492 6 -11744032.977 6  -9128639.16848  22117278.98048
  23894719.234 5  -2013223.082 5  -1543538.80946  23894719.75846
  23571429.227 6  -4654904.980 6  -3619943.68847  23571430.50447
 16  7  7  9 18  0.0000000  0  9G02G06G12G14G19G24G25G29G32         
  22093830.070 7 -10384047.535 7  -8069824.60948  22093826.25448
  21809644.703 6 -11197573.117 6  -8692409.41048  21809645.40248
  19929863.359 7 -10694341.496 7  -8314622.70749  19929860.43449
  23693563.258 5  -3848343.570 5  -2983222.26646  23693562.41446
  22486901.117 6  11702914.324 6   9120324.52347  22486897.15247
  21311087.422 6   5882761.141 6   4587834.53948  21311088.27048
  21810507.391 6 -11780708.191 6  -9157217.24248  21810507.78148
  23585161.359 5  -2064540.484 5  -1583526.35546  23585162.10546
  23273130.898 6  -4647053.598 6  -3613825.73847  23273132.40247
 16  7  7  9 18 15.0000000  0  9G02G06G12G14G19G24G25G29G32         
  22088042.227 7 -10414464.824 7  -8093526.35948  22088038.40248
  21810252.867 6 -11194377.711 6  -8689919.48048  21810253.25048
  19928832.188 7 -10699760.672 7  -8318845.43849  19928829.22749
  23691403.953 5  -3859692.082 5  -2992065.24646  23691402.61346
  22496538.258 6  11753559.355 6   9159788.16847  22496534.51247
  21318764.008 6   5923101.785 6   4619268.78148  21318765.01248
  21803539.305 6 -11817323.918 6  -9185748.96148  21803539.75048
  23575404.125 5  -2115814.137 5  -1623479.82047  23575404.72347
  23274652.617 6  -4639058.535 6  -3607595.81647  23274653.87547
 16  7  7  9 18 30.0000000  0  9G02G06G12G14G19G24G25G29G32         
  22082272.305 7 -10444785.004 7  -8117152.44948  22082268.35548
  21810890.117 7 -11191027.000 7  -8687308.52748  21810891.10248
  19927819.516 7 -10705081.758 7  -8322991.73849  19927816.62949
  23689271.617 6  -3870902.938 6  -3000800.98846  23689269.42246
  22506187.844 6  11804268.238 6   9199301.55947  22506184.29347
  21326460.188 6   5963546.723 6   4650784.29348  21326461.73848
  21796582.727 6 -11853881.750 6  -9214235.56648  21796583.25848
  23565655.188 5  -2167046.430 5  -1663401.05947  23565655.23047
  23276201.047 6  -4630918.652 6  -3601253.07047  23276202.31647
 16  7  7  9 18 45.0000000  0  9G02G06G12G14G19G24G25G29G32         
  22076521.172 7 -10475007.707 7  -8140702.58248  22076517.38748
  21811557.586 6 -11187520.953 6  -8684576.53548  21811558.54348
  19926825.633 7 -10710304.422 7  -8327061.35249  19926822.79749
  23687164.359 6  -3881976.027 6  -3009429.33646  23687162.38746
  22515849.734 6  11855040.922 6   9238864.67647  22515846.00447
  21334176.938 7   6004095.531 7   4682380.74248  21334177.84048
  21789636.883 6 -11890381.508 6  -9242676.91848  21789637.37548
  23555914.180 5  -2218237.113 5  -1703289.87547  23555914.17247
  23277777.711 5  -4622633.992 5  -3594797.49647  23277779.16447
 16  7  7  9 19  0.0000000  0  9G02G06G12G14G19G24G25G29G32         
  22070788.172 7 -10505133.949 7  -8164177.55948  22070784.39148
  21812254.016 7 -11183860.898 7  -8681724.53948  21812255.09048
  19925850.172 7 -10715430.234 7  -8331055.49249  19925847.41449
  23685082.781 6  -3892912.480 6  -3017951.23846  23685080.87946
  22525522.906 6  11905875.797 6   9278476.24647  22525519.53947
  21341912.117 6   6044747.059 6   4714057.23048  21341913.53548
  21782701.945 6 -11926824.293 6  -9271073.87948  21782702.68448
  23546180.117 6  -2269387.301 6  -1743147.12547  23546180.37947
  23279381.141 6  -4614205.965 6  -3588230.21547  23279382.78947
 16  7  7  9 19 15.0000000  0  9G02G06G12G14G19G24G25G29G32         
  22065073.992 7 -10535162.668 7  -8187576.53948  22065069.98048
  21812979.867 6 -11180045.965 6  -8678751.84448  21812981.05148
  19924893.547 7 -10720458.125 7  -8334973.32849  19924890.64549
  23683027.852 6  -3903711.398 6  -3026365.97746  23683025.96946
  22535208.430 6  11956773.379 6   9318136.68047  22535205.32047
  21349667.813 7   6085501.699 7   4745814.05148  21349668.67648
  21775778.313 6 -11963209.105 6  -9299425.67248  21775778.62148
  23536455.156 5  -2320496.016 5  -1782972.09847  23536454.71147
  23281012.445 6  -4605633.801 6  -3581550.62947  23281014.05147
 16  7  7  9 19 30.0000000  0  9G02G06G12G14G19G24G25G29G32         
  22059378.461 7 -10565093.465 7  -8210899.21948  22059374.12148
  21813735.086 7 -11176076.012 7  -8675658.37148  21813736.74248
  19923955.695 7 -10725387.930 7  -8338814.73849  19923952.54749
  23680999.109 6  -3914372.457 6  -3034673.28546  23680997.02346
  22544906.563 6  12007733.523 6   9357845.85947  22544902.64147
  21357442.914 6   6126359.621 6   4777651.36348  21357443.60948
  21768865.563 6 -11999535.684 6  -9327732.07848  21768865.97748
  23526736.922 5  -2371562.832 5  -1822764.39547  23526737.29747
  23282671.398 5  -4596917.539 5  -3574758.75847  23282672.39847
 16  7  7  9 19 45.0000000  0  9G02G06G12G14G19G24G25G29G32         
  22053700.977 7 -10594926.586 7  -8234145.79348  22053697.02748
  21814520.711 6 -11171951.559 6  -8672444.50848  21814521.95748
  19923036.031 7 -10730220.156 7  -8342580.10949  19923032.74249
  23678996.633 6  -3924896.039 6  -3042873.46946  23678994.85946
  22554615.188 6  12058755.422 6   9397603.16847  22554611.49647
  21365237.258 7   6167319.824 7   4809568.37948  21365238.01248
  21761964.086 6 -12035804.301 6  -9355993.33248  21761964.48448
  23517026.828 6  -2422588.098 6  -1862524.29347  23517027.58647
  23284358.016 6  -4588057.680 6  -3567854.98047  23284358.77347
 16  7  7  9 20  0.0000000  0  9G02G06G12G14G19G24G25G29G32         
  22048042.633 7 -10624661.070 7  -8257315.49248  22048038.60548
  21815334.516 6 -11167671.938 6  -8669109.73448  21815336.26248
  19922135.031 7 -10734953.992 7  -8346268.81349  19922131.98849
  23677019.969 5  -3935281.430 5  -3050965.97346  23677018.55946
  22564336.156 6  12109839.227 6   9437408.71147  22564333.03147
  21373051.633 6   6208382.637 6   4841565.34848  21373051.88348
  21755073.297 6 -12072014.195 6  -9384208.81348  21755073.65248
  23507325.289 6  -2473570.914 6  -1902251.12947  23507325.90247
  23286070.539 5  -4579053.762 5  -3560838.94947  23286072.18047
 16  7  7  9 20 15.0000000  0  9G02G06G12G14G19G24G25G29G32         
  22042403.281 7 -10654298.117 7  -8280409.27748  22042399.03548
  21816178.016 7 -11163238.617 7  -8665655.19148  21816179.72748
  19921252.648 7 -10739590.914 7  -8349881.99249  19921249.91049
  23675069.961 6  -3945530.191 6  -3058952.02346  23675068.52346
  22574068.313 6  12160983.285 6   9477261.19547  22574065.44147
  21380884.867 6   6249546.523 6   4873641.09048  21380885.47348
  21748193.664 6 -12108166.707 6  -9412379.58248  21748194.43048
  23497631.289 6  -2524512.547 6  -1941945.86747  23497631.67247
  23287811.328 5  -4569907.352 5  -3553711.88747  23287812.48847
 16  7  7  9 20 30.0000000  0  9G02G06G12G14G19G24G25G29G32         
  22036781.961 6 -10683837.129 6  -8303426.66448  22036778.19948
  21817051.266 6 -11158651.148 6  -8662080.53548  21817052.45348
  19920389.039 7 -10744130.395 7  -8353419.24649  19920385.91449
  23673145.875 6  -3955641.695 6  -3066831.10546  23673144.23446
  22583812.641 6  12212187.730 6   9517160.74647  22583809.20747
  21388737.320 7   6290811.824 7   4905795.84848  21388737.70748
  21741325.188 6 -12144261.156 6  -9440505.11748  21741325.49648
  23487945.391 6  -2575412.258 6  -1981607.94947  23487945.60947
  23289579.195 5  -4560618.043 5  -3546473.48047  23289580.62547
 16  7  7  9 20 45.0000000  0  9G02G06G12G14G19G24G25G29G32         
  22031179.586 6 -10713277.184 6  -8326366.94548  22031175.63748
  21817953.414 6 -11153908.996 6  -8658385.33248  21817954.36748
  19919543.688 7 -10748571.867 7  -8356880.13349  19919540.58249
  23671248.313 6  -3965615.125 6  -3074602.59846  23671246.12146
  22593568.031 6  12263452.871 6   9557107.59047  22593564.43047
  21396609.148 6   6332178.762 6   4938029.79348  21396610.07448
  21734467.367 6 -12180296.875 6  -9468584.86748  21734467.66448
  23478267.531 6  -2626269.305 6  -2021236.78547  23478267.69147
  23291374.117 6  -4551185.402 6  -3539123.37547  23291375.39147
 16  7  7  9 21  0.0000000  0  9G02G06G12G14G19G24G25G29G32         
  22025596.297 7 -10742617.957 7  -8349229.87948  22025592.73448
  21818885.734 7 -11149012.094 7  -8654569.56348  21818886.16448
  19918717.133 7 -10752915.234 7  -8360264.57449  19918714.39849
  23669376.477 6  -3975450.465 6  -3082266.50046  23669374.74246
  22603335.367 6  12314778.484 6   9597101.55947  22603331.22747
  21404500.594 7   6373647.215 7   4970342.84848  21404500.98048
  21727621.398 6 -12216273.613 6  -9496618.68848  21727621.38748
  23468598.453 6  -2677083.574 6  -2060832.27747  23468598.16047
  23293196.516 6  -4541609.520 6  -3531661.66047  23293197.57447
 16  7  7  9 21 15.0000000  0  9G02G06G12G14G19G24G25G29G32         
  22020032.352 7 -10771858.902 7  -8372015.01248  22020028.14148
  21819846.844 6 -11143960.152 6  -8650632.97748  21819847.60248
  19917909.445 7 -10757160.070 7  -8363572.24249  19917906.30549
  23667530.609 6  -3985147.277 6  -3089822.46546  23667529.10246
  22613113.625 6  12366164.523 6   9637142.60547  22613109.77747
  21412411.125 6   6415217.184 6   5002735.01248  21412411.73848
  21720786.938 6 -12252190.938 6  -9524606.19948  21720786.96148
  23458936.414 6  -2727854.531 6  -2100394.03147  23458936.27047
  23295046.250 5  -4531890.137 5  -3524088.13747  23295047.29747
 16  7  7  9 21 30.0000000  0  9G02G06G12G14G19G24G25G29G32         
  22014486.820 7 -10800999.945 7  -8394722.30548  22014483.10248
  21820837.508 6 -11138753.363 6  -8646575.72348  21820838.82448
  19917120.430 7 -10761306.383 7  -8366803.13749  19917116.87549
  23665712.266 6  -3994705.613 6  -3097270.51646  23665710.01246
  22622903.352 6  12417610.461 6   9677230.32047  22622899.83647
  21420340.734 6   6456888.238 6   5035205.94148  21420341.60948
  21713963.164 6 -12288048.805 6  -9552547.38348  21713963.53148
  23449283.906 6  -2778582.094 6  -2139921.96147  23449282.58247
  23296922.313 5  -4522027.586 5  -3516403.06347  23296923.65647
 16  7  7  9 21 45.0000000  0  9G02G06G12G14G19G24G25G29G32         
  22008960.094 6 -10830041.902 6  -8417352.37148  22008955.86348
  21821857.789 7 -11133392.773 7  -8642398.62948  21821858.60248
  19916350.156 7 -10765355.270 7  -8369958.11349  19916346.84849
  23663919.922 6  -4004126.586 6  -3104611.54746  23663917.04346
  22632704.539 6  12469115.004 6   9717363.71947  22632700.87147
  21428289.398 7   6498659.063 7   5067754.60948  21428289.94148
  21707150.914 6 -12323848.125 6  -9580442.94148  21707151.08648
  23439638.773 6  -2829267.074 6  -2179416.72747  23439638.18447
  23298826.680 6  -4512023.000 6  -3508607.30547  23298827.94147
 16  7  7  9 22  0.0000000  0  9G02G06G12G14G19G24G25G29G32         
  22003452.602 7 -10858983.375 7  -8439904.14148  22003448.49648
  21822907.383 6 -11127877.309 6  -8638100.85548  21822908.43448
  19915598.063 7 -10769305.547 7  -8373036.25049  19915594.83249
  23662152.859 6  -4013408.926 6  -3111844.52346  23662150.80146
  22642516.664 6  12520679.004 6   9757543.44547  22642513.14847
  21436257.375 7   6540530.797 7   5100381.91848  21436258.28548
  21700349.867 6 -12359587.660 6  -9608291.91048  21700350.41448
  23430001.906 6  -2879908.227 6  -2218877.32847  23430001.28947
  23300757.938 6  -4501875.449 6  -3500700.12947  23300758.50047
 16  7  7  9 22 15.0000000  0  9G02G06G12G14G19G24G25G29G32         
  21997964.250 6 -10887824.867 6  -8462378.01248  21997960.12948
  21823986.250 7 -11122207.703 7  -8633682.96548  21823987.14148
  19914865.172 7 -10773157.836 7  -8376038.03149  19914862.25449
  23660413.516 6  -4022553.258 6  -3118969.98446  23660411.23046
  22652340.203 6  12572301.352 6   9797768.62547  22652336.49247
  21444244.211 6   6582502.090 6   5133086.80548  21444245.56348
  21693560.422 6 -12395267.961 6  -9636094.73048  21693560.65248
  23420372.953 6  -2930506.043 6  -2258304.16047  23420372.78147
  23302715.594 5  -4491585.691 5  -3492682.14147  23302716.45347
 16  7  7  9 22 30.0000000  0  9G02G06G12G14G19G24G25G29G32         
  21992495.109 7 -10916564.145 7  -8484772.23848  21992491.14848
  21825094.641 6 -11116382.023 6  -8629143.46948  21825095.55948
  19914151.188 7 -10776910.277 7  -8378962.00849  19914148.01249
  23658700.281 6  -4031557.496 6  -3125986.27346  23658697.82446
  22662174.563 6  12623983.648 6   9838040.52047  22662171.17247
  21452250.594 6   6624574.906 6   5165870.78948  21452251.29748
  21686782.234 6 -12430886.930 6  -9663849.75848  21686782.51248
  23410753.305 6  -2981058.480 6  -2297695.62147  23410753.24247
  23304700.789 5  -4481151.977 5  -3484551.97347  23304702.31347
 16  7  7  9 22 45.0000000  0  9G02G06G12G14G19G24G25G29G32         
  21987045.352 7 -10945202.477 7  -8507087.80148  21987041.57448
  21826232.570 7 -11110401.777 7  -8624483.53948  21826233.73448
  19913455.766 7 -10780564.180 7  -8381809.20349  19913452.68449
  23657012.688 6  -4040423.094 6  -3132894.53946  23657010.44946
  22672020.789 6  12675724.176 6   9878357.79747  22672017.71947
  21460275.188 6   6666747.383 6   5198732.44148  21460276.62948
  21680015.164 6 -12466445.828 6  -9691557.96548  21680015.77348
  23401142.289 6  -3031566.582 6  -2337052.55147  23401141.57447
  23306713.688 5  -4470575.805 5  -3476310.80547  23306715.02347
 16  7  7  9 23  0.0000000  0  9G02G06G12G14G19G24G25G29G32         
  21981615.555 7 -10973739.285 7  -8529324.25448  21981611.45348
  21827400.391 6 -11104266.691 6  -8619702.94548  21827401.66848
  19912779.227 7 -10784119.160 7  -8384579.31649  19912776.19949
  23655351.656 6  -4049149.656 6  -3139694.46146  23655349.97746
  22681877.406 6  12727522.906 6   9918720.43047  22681874.58647
  21468319.625 6   6709019.730 6   5231671.91448  21468320.64548
  21673259.938 6 -12501944.242 6  -9719219.04348  21673260.93448
  23391539.258 6  -3082029.969 6  -2376374.63347  23391538.82447
  23308753.117 5  -4459857.105 5  -3467958.59447  23308754.38747
 16  7  7  9 23 15.0000000  0  9G02G06G12G14G19G24G25G29G32         
  21976204.172 7 -11002175.250 7  -8551482.12148  21976200.21548
  21828596.945 7 -11097977.754 7  -8614802.46148  21828598.29748
  19912121.266 7 -10787576.230 7  -8387273.14149  19912118.09449
  23653717.266 6  -4057738.066 6  -3146386.71146  23653715.49646
  22691745.703 6  12779378.598 6   9959127.44147  22691742.48047
  21476382.680 6   6751390.727 6   5264688.25848  21476383.64548
  21666516.398 6 -12537382.996 6  -9746833.64848  21666517.04748
  23381944.195 6  -3132449.523 6  -2415662.56347  23381944.53547
  23310819.766 5  -4448996.887 5  -3459496.08647  23310821.47747
 16  7  7  9 23 30.0000000  0  9G02G06G12G14G19G24G25G29G32         
  21970812.453 7 -11030509.004 7  -8573560.35548  21970808.38748
  21829822.961 7 -11091533.844 7  -8609781.21948  21829824.19148
  19911482.445 7 -10790934.008 7  -8389889.58649  19911479.45349
  23652109.828 6  -4066186.961 6  -3152970.26246  23652108.52746
  22701624.227 6  12831292.113 6   9999579.51247  22701620.75447
  21484464.367 7   6793861.281 7   5297782.17248  21484465.98448
  21659783.953 6 -12572760.742 6  -9774400.71148  21659784.46148
  23372358.648 6  -3182823.711 6  -2454915.14547  23372358.86347
  23312913.781 6  -4437994.180 6  -3450922.57847  23312915.22747
 16  7  7  9 23 45.0000000  0  9G02G06G12G14G19G24G25G29G32         
  21965440.188 7 -11058741.047 7  -8595559.33248  21965436.43048
  21831078.938 7 -11084935.652 7  -8604639.75848  21831079.81648
  19910862.055 7 -10794193.430 7  -8392429.39849  19910859.19949
  23650528.633 6  -4074497.180 6  -3159445.73846  23650526.72346
  22711514.508 6  12883262.406 6  10040075.83647  22711510.52347
  21492564.969 6   6836430.551 6   5330953.00448  21492566.23448
  21653063.813 7 -12608078.043 7  -9801920.66848  21653064.20348
  23362781.219 6  -3233153.063 6  -2494132.77347  23362780.86347
  23315034.758 6  -4426849.781 6  -3442238.63347  23315036.02347
 16  7  7  9 24  0.0000000  0  9G02G06G12G14G19G24G25G29G32         
  21960087.531 7 -11086869.973 7  -8617477.95348  21960083.57448
  21832363.500 7 -11078182.320 7  -8599377.41448  21832365.10548
  19910260.852 7 -10797353.336 7  -8394891.66449  19910258.15249
  23648973.523 6  -4082667.738 6  -3165812.42646  23648971.57846
  22721414.078 6  12935290.102 6  10080616.87947  22721411.32047
  21500684.844 7   6879099.117 7   5364201.21548  21500686.25048
  21646354.680 6 -12643333.785 6  -9829392.66848  21646355.05148
  23353212.555 6  -3283436.609 6  -2533314.71147  23353212.30547
  23317182.008 6  -4415562.918 6  -3433443.67247  23317183.60947
 16  7  7  9 24 15.0000000  0  9G02G06G12G14G19G24G25G29G32         
  21954753.828 7 -11114895.344 7  -8639315.89548  21954749.98048
  21833678.977 6 -11071273.422 6  -8593993.85548  21833680.02748
  19909678.398 7 -10800413.211 7  -8397275.98449  19909675.60249
  23647445.586 6  -4090698.098 6  -3172069.84446  23647443.27046
  22731325.969 6  12987375.359 6  10121202.77347  22731322.64847
  21508823.430 6   6921867.121 6   5397526.90648  21508824.71948
  21639657.328 7 -12678527.379 7  -9856816.23048  21639658.24648
  23343652.758 6  -3333673.582 6  -2572460.37947  23343652.41847
  23319356.969 5  -4404133.270 5  -3424537.48047  23319358.78947
 16  7  7  9 24 30.0000000  0  9G02G06G12G14G19G24G25G29G32         
  21949440.672 7 -11142818.895 7  -8661074.48848  21949436.33648
  21835022.445 6 -11064210.980 6  -8588490.64848  21835023.98048
  19909115.031 7 -10803375.117 7  -8399583.96149  19909111.88749
  23645944.078 6  -4098590.004 6  -3178219.34446  23645942.45346
  22741247.813 6  13039515.844 6  10161831.69147  22741244.31647
  21516980.125 6   6964732.410 6   5430928.40648  21516981.25448
  21632972.289 7 -12713660.648 7  -9884192.78148  21632972.14848
  23334101.227 6  -3383865.805 6  -2611571.17247  23334101.43047
  23321559.266 6  -4392562.938 6  -3415521.64547  23321560.91447
 16  7  7  9 24 45.0000000  0  9G02G06G12G14G19G24G25G29G32         
  21944146.719 7 -11170640.020 7  -8682753.27048  21944142.09848
  21836396.328 7 -11056994.758 7  -8582867.60948  21836396.93448
  19908570.289 7 -10806238.699 7  -8401815.32049  19908567.20349
  23644468.211 6  -4106343.246 6  -3184260.83646  23644466.63746
  22751180.453 6  13091711.559 6  10202503.66447  22751176.88747
  21525155.711 6   7007695.156 6   5464405.85248  21525157.20748
  21626297.375 6 -12748733.141 6  -9911521.98848  21626297.93048
  23324559.289 6  -3434012.805 6  -2650646.71547  23324558.90247
  23323786.680 5  -4380851.789 5  -3406396.10947  23323789.03147
 16  7  7  9 25  0.0000000  0  9G02G06G12G14G19G24G25G29G32         
  21938872.000 7 -11198358.063 7  -8704351.72348  21938867.37548
  21837797.695 7 -11049624.598 7  -8577124.60948  21837799.52348
  19908044.039 7 -10809003.625 7  -8403969.80549  19908040.81349
  23643019.109 6  -4113957.473 6  -3190194.02346  23643017.05146
  22761123.453 6  13143962.422 6  10243218.61347  22761120.07047
  21533349.945 6   7050755.250 6   5497959.14148  21533351.06648
  21619635.305 7 -12783744.582 7  -9938803.62148  21619635.75848
  23315024.773 6  -3484114.203 6  -2689686.72747  23315024.82447
  23326042.656 5  -4368999.836 5  -3397160.80947  23326044.52747
 16  7  7  9 25 15.0000000  0  9G02G06G12G14G19G24G25G29G32         
  21933616.516 7 -11225972.688 7  -8725869.58648  21933612.92248
  21839230.172 6 -11042100.219 6  -8571261.45348  21839230.68848
  19907536.109 7 -10811669.469 7  -8406047.08249  19907533.70349
  23641596.328 6  -4121432.316 6  -3196018.57846  23641594.71146
  22771077.219 6  13196268.465 6  10283976.54747  22771073.85547
  21541562.695 7   7093912.586 7   5531588.21548  21541563.41048
  21612984.555 7 -12818694.359 7  -9966037.19948  21612984.55548
  23305499.578 6  -3534169.402 6  -2728690.75047  23305499.33247
  23328324.984 6  -4357006.762 6  -3387815.57447  23328326.57047
 16  7  7  9 25 30.0000000  0  9G02G06G12G14G19G24G25G29G32         
  21928381.930 7 -11253482.961 7  -8747306.14548  21928377.52748
  21840691.359 7 -11034420.801 7  -8565277.49248  21840691.96148
  19907048.195 8 -10814235.465 8  -8408046.55949  19907045.40649
  23640200.891 6  -4128767.004 6  -3201733.90646  23640199.41046
  22781041.117 6  13248630.281 6  10324777.94947  22781037.55147
  21549793.758 7   7137168.000 7   5565293.71148  21549795.02748
  21606346.172 7 -12853581.547 7  -9993222.01248  21606346.07448
  23295983.086 6  -3584177.355 6  -2767657.93447  23295982.74247
  23330635.148 6  -4344871.898 6  -3378359.85247  23330635.39847
 16  7  7  9 25 45.0000000  0  9G02G06G12G14G19G24G25G29G32         
  21923166.359 7 -11280889.777 7  -8768662.07848  21923162.30148
  21842182.063 6 -11026587.652 6  -8559173.73848  21842183.24248
  19906578.672 7 -10816702.840 7  -8409969.19149  19906575.94949
  23638831.977 6  -4135962.668 6  -3207340.95346  23638830.15646
  22791016.172 6  13301046.156 6  10365621.46547  22791012.54747
  21558043.258 6   7180519.723 6   5599074.25448  21558043.98848
  21599718.477 7 -12888407.230 7 -10020358.90248  21599718.88748
  23286475.680 6  -3634139.199 6  -2806589.20347  23286475.16047
  23332970.375 6  -4332596.723 6  -3368794.78947  23332972.11747
 16  7  7  9 26  0.0000000  0  9G02G06G12G14G19G24G25G29G32         
  21917970.750 7 -11308192.863 7  -8789937.20348  21917966.94148
  21843701.461 6 -11018600.906 6  -8552950.28548  21843702.83248
  19906127.977 7 -10819071.582 7  -8411814.96149  19906124.84049
  23637488.836 6  -4143019.344 6  -3212839.64846  23637486.96146
  22801000.258 6  13353515.813 6  10406506.90247  22800996.90647
  21566311.461 6   7223967.340 6   5632929.53548  21566312.28148
  21593103.078 6 -12923171.375 6 -10047447.83248  21593103.47348
  23276977.414 6  -3684054.742 6  -2845484.41447  23276976.42247
  23335333.063 6  -4320181.375 6  -3359120.50047  23335334.33247
 16  7  7  9 26 15.0000000  0  9G02G06G12G14G19G24G25G29G32         
  21912794.836 7 -11335391.719 7  -8811131.09448  21912791.26648
  21845250.570 6 -11010460.328 6  -8546606.97348  21845251.94548
  19905695.969 7 -10821341.336 7  -8413583.60249  19905693.26649
  23636172.742 6  -4149936.598 6  -3218229.73046  23636170.84846
  22810995.211 6  13406039.215 6  10447434.19947  22810991.72347
  21574597.430 6   7267511.195 6   5666859.79348  21574598.09848
  21586499.469 7 -12957873.453 7 -10074488.39848  21586500.29748
  23267487.547 6  -3733923.617 6  -2884343.25047  23267486.82847
  23337721.883 5  -4307625.727 5  -3349336.90247  23337723.05147
 16  7  7  9 26 30.0000000  0  9G02G06G12G14G19G24G25G29G32         
  21907638.875 7 -11362485.559 7  -8832243.15648  21907634.84448
  21846829.266 6 -11002165.223 6  -8540143.24648  21846830.16848
  19905282.969 7 -10823511.355 7  -8415274.52349  19905280.37949
  23634883.039 6  -4156713.629 6  -3223510.52746  23634881.72346
  22821000.867 6  13458616.793 6  10488403.73047  22820996.80547
  21582901.883 6   7311151.637 6   5700865.31648  21582902.46548
  21579907.922 7 -12992512.637 7 -10101479.95348  21579908.25848
  23258006.570 6  -3783744.930 6  -2923165.01247  23258006.16447
  23340138.109 6  -4294929.277 6  -3339443.57847  23340139.70747
 16  7  7  9 26 45.0000000  0  9G02G06G12G14G19G24G25G29G32         
  21902503.125 7 -11389474.188 7  -8853273.24248  21902499.15248
  21848436.969 6 -10993715.785 6  -8533559.25448  21848438.25448
  19904889.109 7 -10825581.719 7  -8416887.79749  19904886.00049
  23633620.039 5  -4163350.547 5  -3228682.14846  23633618.66446
  22831015.711 6  13511248.039 6  10529415.08647  22831012.69947
  21591224.563 6   7354888.359 6   5734945.86748  21591225.49648
  21573328.438 7 -13027088.906 7 -10128422.47748  21573328.64848
  23248535.547 6  -3833518.500 6  -2961949.57447  23248535.07447
  23342580.727 6  -4282092.191 6  -3329440.65647  23342582.79347
 16  7  7  9 27  0.0000000  0  9G02G06G12G14G19G24G25G29G32         
  21897387.352 7 -11416356.875 7  -8874220.76648  21897383.48048
  21850073.961 6 -10985111.754 6  -8526854.80548  21850075.19948
  19904514.391 7 -10827552.004 7  -8418423.08649  19904511.55549
  23632383.586 5  -4169847.055 5  -3233744.36746  23632382.16046
  22841041.477 6  13563933.016 6  10570468.30947  22841038.30547
  21599565.555 6   7398721.664 6   5769101.67248  21599566.44948
  21566760.914 7 -13061601.727 7 -10155315.58248  21566761.30948
  23239072.664 6  -3883243.816 6  -3000696.54347  23239072.84047
  23345050.594 6  -4269114.391 6  -3319328.10547  23345052.39547
 16  7  7  9 27 15.0000000  0  9G02G06G12G14G19G24G25G29G32         
  21892292.438 7 -11443134.602 7  -8895086.50848  21892288.18448
  21851740.727 6 -10976354.234 6  -8520030.75448  21851741.93848
  19904158.234 7 -10829423.301 7  -8419881.23449  19904155.38349
  23631173.844 5  -4176204.105 5  -3238697.91046  23631172.57846
  22851077.039 6  13616670.328 6  10611562.30547  22851073.41447
  21607925.047 6   7442649.813 6   5803331.37148  21607926.08248
  21560205.266 6 -13096052.059 6 -10182159.98048  21560205.66848
  23229619.438 6  -3932921.762 6  -3039406.58247  23229619.54347
  23347546.977 6  -4255997.035 6  -3309106.80547  23347548.50047
 16  7  7  9 27 30.0000000  0  9G02G06G12G14G19G24G25G29G32         
  21887216.258 7 -11469807.137 7  -8915870.28548  21887212.38748
  21853436.383 6 -10967443.258 6  -8513087.13748  21853437.92248
  19903820.984 7 -10831195.336 7  -8421262.04749  19903818.27349
  23629991.305 5  -4182421.691 5  -3243542.76646  23629989.41846
  22861122.383 6  13669459.758 6  10652696.92247  22861118.97747
  21616302.094 6   7486672.703 6   5837634.89848  21616303.58648
  21553661.641 7 -13130439.656 7 -10208955.50448  21553661.96948
  23220175.250 6  -3982552.258 6  -3078079.68047  23220175.06647
  23350069.164 6  -4242740.285 6  -3298776.89547  23350071.08247
 16  7  7  9 27 45.0000000  0  9G02G06G12G14G19G24G25G29G32         
  21882161.211 7 -11496374.086 7  -8936571.78148  21882157.10548
  21855162.289 6 -10958378.727 6  -8506023.85548  21855162.77748
  19903502.430 7 -10832868.016 7  -8422565.43049  19903499.66049
  23628834.625 5  -4188499.602 5  -3248278.78946  23628833.02346
  22871177.758 6  13722301.156 6  10693872.01247  22871174.42247
  21624697.938 6   7530790.348 6   5872012.27048  21624698.68848
  21547129.891 7 -13164764.297 7 -10235701.96548  21547130.27048
  23210740.305 6  -4032134.895 6  -3116715.46147  23210739.21947
  23352619.031 6  -4229344.156 6  -3288338.35947  23352620.01647
 16  7  7  9 28  0.0000000  0  9G02G06G12G14G19G24G25G29G32         
  21877125.734 7 -11522835.078 7  -8957190.71948  21877121.59448
  21856915.648 6 -10949160.617 6  -8498840.89848  21856916.93048
  19903203.070 7 -10834441.391 7  -8423791.43849  19903200.17649
  23627705.078 5  -4194437.566 5  -3252905.78546  23627703.07046
  22881243.172 6  13775194.293 6  10735087.40247  22881240.05947
  21633110.992 6   7575002.352 6   5906463.16448  21633112.08248
  21540610.102 7 -13199025.680 7 -10262399.12548  21540610.35248
  23201313.680 6  -4081669.246 6  -3155313.64147  23201313.40247
  23355193.703 6  -4215808.648 6  -3277791.21947  23355195.29747
 16  7  7  9 28 15.0000000  0  9G02G06G12G14G19G24G25G29G32         
  21872110.586 7 -11549189.789 7  -8977726.82848  21872106.44148
  21858698.938 6 -10939788.867 6  -8491538.22748  21858700.02748
  19902922.930 7 -10835915.223 7  -8424939.88749  19902919.82849
  23626600.820 5  -4200235.559 5  -3257423.69946  23626599.52346
  22891318.617 6  13828138.789 6  10776342.84447  22891314.54747
  21641542.352 6   7619308.953 6   5940987.75048  21641543.29348
  21534102.547 7 -13233223.504 7 -10289046.77748  21534103.07048
  23191897.500 6  -4131155.094 6  -3193874.03147  23191896.78147
  23357796.867 6  -4202133.871 6  -3267135.55947  23357797.83247
 16  7  7  9 28 30.0000000  0  9G02G06G12G14G19G24G25G29G32         
  21867115.383 7 -11575438.262 7  -8998180.17648  21867111.27748
  21860511.430 6 -10930263.844 6  -8484116.10948  21860512.85248
  19902661.305 7 -10837289.574 7  -8426010.80549  19902657.97349
  23625524.672 5  -4205893.809 5  -3261832.69546  23625522.76646
  22901403.141 6  13881134.320 6  10817638.05947  22901399.64847
  21649991.352 6   7663709.469 6   5975585.52048  21649992.34448
  21527606.758 7 -13267357.930 7 -10315645.02348  21527607.14848
  23182489.672 6  -4180592.590 6  -3232396.71547  23182488.73447
  23360425.406 6  -4188320.262 6  -3256371.71147  23360426.32047
 16  7  7  9 28 45.0000000  0  9G02G06G12G14G19G24G25G29G32         
  21862140.773 7 -11601580.168 7  -9018550.48048  21862136.97748
  21862353.672 6 -10920585.445 6  -8476574.49248  21862354.35948
  19902418.383 7 -10838564.438 7  -8427004.19949  19902415.81649
  23624474.414 5  -4211412.027 5  -3266132.61746  23624472.39846
  22911497.531 6  13934180.742 6  10858972.90247  22911494.21147
  21658458.648 6   7708203.512 6   6010256.18048  21658459.69148
  21521123.172 7 -13301428.656 7 -10342193.62948  21521123.55948
  23173090.516 6  -4229981.512 6  -3270881.55947  23173090.50847
  23363080.430 6  -4174367.801 6  -3245499.67647  23363081.84447
 16  7  7  9 29  0.0000000  0  9G02G06G12G14G19G24G25G29G32         
  21857186.422 7 -11627615.262 7  -9038837.54748  21857182.23848
  21864224.063 6 -10910753.824 6  -8468913.48848  21864225.54748
  19902194.922 7 -10839739.867 7  -8427920.12549  19902191.69149
  23623450.648 5  -4216790.395 5  -3270323.56346  23623449.20346
  22921601.461 6  13987277.625 6  10900347.06647  22921598.05947
  21666943.680 6   7752790.945 6   6044999.60548  21666944.26248
  21514651.617 7 -13335435.570 7 -10368692.52048  21514652.18848
  23163701.102 6  -4279321.520 6  -3309328.27347  23163701.30147
  23365761.727 6  -4160276.707 6  -3234519.61747  23365763.37147
 16  7  7  9 29 15.0000000  0  9G02G06G12G14G19G24G25G29G32         
  21852252.406 7 -11653543.152 7  -9059041.07048  21852248.60248
  21866124.672 6 -10900768.785 6  -8461132.91448  21866125.23848
  19901990.281 7 -10840815.516 7  -8428758.29349  19901986.98449
  23622453.992 5  -4222028.605 5  -3274405.27746  23622451.90246
  22931714.836 6  14040424.883 6  10941760.50047  22931711.70347
  21675445.891 6   7797471.828 6   6079815.87148  21675446.87148
  21508193.016 6 -13369378.289 6 -10395141.38348  21508193.47348
  23154321.469 6  -4328612.285 6  -3347736.63347  23154321.35247
  23368469.375 6  -4146046.996 6  -3223431.55547  23368471.47347
 16  7  7  9 29 30.0000000  0  9G02G06G12G14G19G24G25G29G32         
  21847339.070 7 -11679363.344 7  -9079160.69148  21847335.24648
  21868053.430 6 -10890630.117 6  -8453232.65648  21868054.89848
  19901804.578 7 -10841791.082 7  -8429518.46949  19901801.48049
  23621484.094 6  -4227126.238 6  -3278377.47346  23621482.08646
  22941837.656 6  14093622.496 6  10983213.16447  22941834.93847
  21683965.547 6   7842246.414 6   6114705.12548  21683966.78148
  21501745.883 7 -13403256.363 7 -10421539.86748  21501746.13348
  23144951.602 6  -4377853.348 6  -3386106.25847  23144951.00847
  23371204.031 6  -4131678.391 6  -3212235.24247  23371205.69147
 16  7  7  9 29 45.0000000  0  9G02G06G12G14G19G24G25G29G32         
  21842445.742 7 -11705077.563 7  -9099197.73848  21842441.44148
  21870011.852 6 -10880339.918 6  -8445214.31348  21870012.93448
  19901637.625 8 -10842668.531 8  -8430202.19549  19901634.54349
  23620540.266 6  -4232085.309 6  -3282241.69546  23620538.19546
  22951970.586 6  14146868.227 6  11024703.32847  22951967.08247
  21692503.672 6   7887112.188 6   6149665.44948  21692504.69148
  21495310.875 7 -13437071.664 7 -10447889.43848  21495311.55948
  23135590.578 6  -4427046.324 6  -3424438.41847  23135590.41847
  23373964.070 6  -4117173.219 6  -3200932.52747  23373965.82447
 16  7  7  9 30  0.0000000  0  9G02G06G12G14G19G24G25G29G32         
  21837573.398 7 -11730684.363 7  -9119151.07048  21837568.72748
  21871999.055 6 -10869896.977 6  -8437076.93848  21872000.19148
  19901489.844 7 -10843446.531 7  -8430808.43849  19901486.59449
  23619623.766 5  -4236904.527 5  -3285996.93446  23619621.24646
  22962111.992 6  14200162.941 6  11066231.66847  22962108.51647
  21701058.797 6   7932069.879 6   6184697.41448  21701059.73048
  21488888.742 7 -13470822.707 7 -10474188.94948  21488888.79348
  23126238.641 6  -4476190.027 6  -3462732.18447  23126237.85547
  23376750.430 6  -4102530.305 6  -3189522.47347  23376752.25047
 16  7  7  9 30 15.0000000  0  9G02G06G12G14G19G24G25G29G32         
  21832720.727 7 -11756182.547 7  -9139019.75448  21832716.54748
  21874015.461 6 -10859300.465 6  -8428819.89848  21874016.78148
  19901360.711 7 -10844124.164 7  -8431336.46149  19901357.62149
  23618733.305 6  -4241582.867 6  -3289642.39846  23618731.34846
  22972263.695 6  14253507.355 6  11107798.71947  22972259.90247
  21709631.719 6   7977120.238 6   6219801.59848  21709632.58648
  21482477.664 7 -13504508.496 7 -10500437.60248  21482478.54348
  23116896.305 6  -4525283.230 6  -3500986.57847  23116896.05947
  23379563.914 6  -4087748.957 6  -3178004.54747  23379564.78147
 16  7  7  9 30 30.0000000  0  9G02G06G12G14G19G24G25G29G32         
  21827889.492 7 -11781572.176 7  -9158803.86348  21827885.37548
  21876061.148 6 -10848550.730 6  -8420443.46948  21876062.15648
  19901250.938 7 -10844701.609 7  -8431786.41849  19901247.89149
  23617869.297 5  -4246120.656 5  -3293178.33246  23617867.64546
  22982424.141 6  14306900.820 6  11149404.01647  22982420.11747
  21718222.164 6   8022263.047 6   6254977.80548  21718223.05148
  21476080.438 7 -13538129.086 7 -10526635.45348  21476080.86748
  23107563.852 6  -4574326.059 6  -3539201.75047  23107563.64547
  23382402.750 6  -4072829.547 6  -3166379.05547  23382403.64547
 16  7  7  9 30 45.0000000  0  9G02G06G12G14G19G24G25G29G32         
  21823078.547 7 -11806853.629 7  -9178503.68048  21823074.47348
  21878135.508 6 -10837648.406 6  -8411948.13748  21878136.54348
  19901159.742 7 -10845179.324 7  -8432158.67249  19901157.21949
  23617032.711 5  -4250518.480 5  -3296605.19946  23617030.41446
  22992593.016 6  14360342.402 6  11191046.79347  22992589.77747
  21726830.609 6   8067497.367 6   6290225.32448  21726831.23448
  21469695.219 7 -13571684.914 7 -10552782.82448  21469694.95748
  23098241.133 6  -4623318.813 6  -3577377.90247  23098240.21147
  23385267.938 6  -4057772.848 6  -3154646.57447  23385268.76647
 16  7  7  9 31  0.0000000  0  9G02G06G12G14G19G24G25G29G32         
  21818288.344 7 -11832026.535 7  -9198118.92248  21818284.12948
  21880239.188 6 -10826593.398 6  -8403333.84048  21880240.92648
  19901088.109 7 -10845557.199 7  -8432453.11349  19901085.00449
  23616222.445 5  -4254776.023 5  -3299922.76646  23616220.34046
  23002771.961 6  14413832.121 6  11232727.08247  23002768.73847
  21735454.531 6   8112823.121 6   6325544.07848  21735456.00848
  21463321.961 7 -13605175.625 7 -10578879.46948  21463322.71148
  23088926.891 6  -4672261.246 6  -3615514.83247  23088926.57447
  23388159.039 6  -4042578.980 6  -3142807.20347  23388160.03547
 16  7  7  9 31 15.0000000  0  9G02G06G12G14G19G24G25G29G32         
  21813519.055 7 -11857090.871 7  -9217649.55948  21813514.56648
  21882371.930 7 -10815386.027 7  -8394600.82448  21882373.00448
  19901034.875 7 -10845835.438 7  -8432669.91849  19901031.72749
  23615439.359 5  -4258893.613 5  -3303131.26246  23615437.03146
  23012959.859 6  14467369.383 6  11274444.41047  23012956.34447
  21744097.805 6   8158239.703 6   6360933.60248  21744098.36748
  21456961.438 7 -13638601.316 7 -10604925.44948  21456961.59448
  23079623.211 6  -4721153.336 6  -3653612.53947  23079623.12547
  23391076.648 6  -4027248.109 6  -3130861.08647  23391077.24647
 16  7  7  9 31 30.0000000  0  9G02G06G12G14G19G24G25G29G32         
  21808770.000 7 -11882045.906 7  -9237095.02348  21808765.39848
  21884533.523 6 -10804025.844 6  -8385748.72348  21884534.98048
  19901001.242 7 -10846013.453 7  -8432808.63349  19900998.29349
  23614682.180 6  -4262870.586 6  -3306230.20346  23614680.28546
  23023156.930 6  14520954.332 6  11316198.89847  23023153.64547
  21752757.109 6   8203747.340 6   6396394.07448  21752757.98048
  21450613.188 7 -13671961.254 7 -10630920.19948  21450613.29748
  23070329.078 6  -4769994.492 6  -3691670.53947  23070329.18047
  23394020.570 6  -4011780.047 6  -3118808.05947  23394021.12547
 16  7  7  9 31 45.0000000  0  9G02G06G12G14G19G24G25G29G32         
  21804041.820 7 -11906892.203 7  -9256455.76648  21804037.60548
  21886724.477 7 -10792513.762 7  -8376778.25448  21886725.84448
  19900986.563 7 -10846092.051 7  -8432869.87949  19900982.95349
  23613952.586 5  -4266707.703 5  -3309220.14546  23613949.65646
  23033362.547 6  14574585.875 6  11357989.69147  23033359.60547
  21761434.367 6   8249345.004 6   6431924.69948  21761435.21548
  21444277.617 7 -13705256.125 7 -10656864.24648  21444277.34048
  23061044.375 5  -4818785.367 5  -3729689.37147  23061045.07847
  23396989.930 6  -3996175.738 6  -3106648.86747  23396990.77047
 16  7  7  9 32  0.0000000  0  9G02G06G12G14G19G24G25G29G32         
  21799334.766 7 -11931628.031 7  -9275730.41448  21799330.32048
  21888944.398 7 -10780848.340 7  -8367688.32048  21888945.02048
  19900990.313 7 -10846069.547 7  -8432852.34449  19900987.65249
  23613248.953 5  -4270403.543 5  -3312100.01646  23613246.76646
  23043577.539 6  14628265.387 6  11399817.86347  23043574.55947
  21770128.500 6   8295034.117 6   6467526.57048  21770129.63348
  21437954.039 7 -13738484.293 7 -10682756.30948  21437953.98048
  23051770.055 6  -4867524.066 6  -3767667.52747  23051770.28947
  23399985.063 5  -3980433.910 5  -3094382.52347  23399986.68447
 16  7  7  9 32 15.0000000  0  9G02G06G12G14G19G24G25G29G32         
  21794648.680 7 -11956254.586 7  -9294919.93048  21794643.96548
  21891193.047 6 -10769030.961 6  -8358479.95348  21891193.77748
  19901013.422 7 -10845947.344 7  -8432757.10949  19901010.53149
  23612572.070 6  -4273959.391 6  -3314870.79746  23612570.12946
  23053800.992 6  14681991.344 6  11441682.22747  23053798.32447
  21778840.219 6   8340812.992 6   6503198.38748  21778841.16448
  21431643.219 7 -13771646.852 7 -10708597.25048  21431643.66448
  23042505.406 6  -4916211.684 6  -3805605.89847  23042505.06347
  23403006.789 6  -3964555.953 6  -3082010.10247  23403007.75847
 16  7  7  9 32 30.0000000  0  9G02G06G12G14G19G24G25G29G32         
  21789983.234 7 -11980771.055 7  -9314023.66048  21789978.92248
  21893470.641 7 -10757061.164 7  -8349152.82848  21893471.51648
  19901056.180 7 -10845724.707 7  -8432583.62549  19901053.05149
  23611922.109 5  -4277374.566 5  -3317531.96946  23611920.16846
  23064033.719 6  14735764.016 6  11483583.00047  23064030.60547
  21787568.945 6   8386681.910 6   6538940.38348  21787569.96948
  21425345.594 7 -13804743.090 7 -10734386.52048  21425345.61748
  23033250.047 6  -4964847.664 6  -3843504.00847  23033250.13347
  23406053.719 6  -3948541.555 6  -3069531.35547  23406055.41847
 16  7  7  9 32 45.0000000  0  9G02G06G12G14G19G24G25G29G32         
  21785338.859 7 -12005176.703 7  -9333041.03148  21785334.39848
  21895777.680 7 -10744938.602 7  -8339706.67248  21895778.81648
  19901117.508 7 -10845401.102 7  -8432331.46949  19901114.36749
  23611299.297 6  -4280648.672 6  -3320083.22346  23611297.53546
  23074275.320 6  14789583.395 6  11525520.14547  23074272.03947
  21796314.680 6   8432641.254 6   6574752.82448  21796315.72748
  21419060.375 7 -13837772.414 7 -10760123.64148  21419060.45748
  23024004.469 6  -5013431.191 6  -3881361.26247  23024004.84447
  23409127.328 6  -3932390.430 6  -3056946.07447  23409129.08247
 16  7  7  9 33  0.0000000  0  9G02G06G12G14G19G24G25G29G32         
  21780715.508 7 -12029471.973 7  -9351972.39548  21780711.31348
  21898113.563 6 -10732663.957 6  -8330141.99648  21898114.85948
  19901198.461 7 -10844976.949 7  -8432000.96149  19901195.39549
  23610702.367 5  -4283782.234 5  -3322524.97346  23610700.70346
  23084524.992 6  14843448.535 6  11567492.95747  23084522.21547
  21805077.273 6   8478689.926 6   6610634.89148  21805078.36748
  21412787.867 7 -13870735.273 7 -10785808.97348  21412787.64848
  23014769.406 6  -5061962.684 6  -3919177.96547  23014769.59447
  23412227.172 6  -3916103.395 6  -3044254.88747  23412227.96547
 16  7  7  9 33 15.0000000  0  9G02G06G12G14G19G24G25G29G32         
  21776113.750 7 -12053655.473 7  -9370816.66048  21776109.68048
  21900478.133 6 -10720236.234 6  -8320458.06348  21900479.31348
  19901298.266 7 -10844451.660 7  -8431591.64849  19901295.07449
  23610132.508 5  -4286774.309 5  -3324856.46146  23610131.48046
  23094784.305 6  14897360.309 6  11609502.11747  23094781.21147
  21813857.719 6   8524828.777 6   6646587.21548  21813858.46148
  21406527.711 7 -13903630.418 7 -10811441.53948  21406528.12548
  23005544.281 6  -5110441.027 6  -3956953.25447  23005544.00047
  23415352.352 6  -3899679.563 6  -3031457.12547  23415353.23047
 16  7  7  9 33 30.0000000  0  9G02G06G12G14G19G24G25G29G32         
  21771532.289 7 -12077728.910 7  -9389575.16848  21771528.46548
  21902872.234 6 -10707657.426 6  -8310656.39548  21902873.18048
  19901417.289 7 -10843826.969 7  -8431104.87549  19901414.31649
  23609590.445 6  -4289626.578 6  -3327079.00046  23609588.63746
  23105052.094 6  14951316.715 6  11651546.05547  23105048.49647
  21822653.727 6   8571055.766 6   6682608.22348  21822655.09848
  21400280.320 7 -13936459.508 7 -10837022.63748  21400281.13348
  22996329.305 6  -5158867.773 6  -3994688.33647  22996329.08247
  23418503.195 5  -3883120.930 5  -3018554.31347  23418504.28947
 16  7  7  9 33 45.0000000  0  9G02G06G12G14G19G24G25G29G32         
  21766972.227 7 -12101691.273 7  -9408247.12548  21766968.50848
  21905294.570 6 -10694926.738 6  -8300736.36748  21905295.84448
  19901555.031 7 -10843101.828 7  -8430539.82449  19901552.31649
  23609074.656 6  -4292338.305 6  -3329192.03146  23609072.55146
  23115328.313 6  15005318.082 6  11693625.02347  23115324.84047
  21831468.055 6   8617371.238 6   6718698.18448  21831468.97748
  21394046.266 7 -13969221.617 7 -10862551.53948  21394046.48848
  22987123.445 6  -5207242.016 6  -4032382.52747  22987123.77747
  23421680.094 6  -3866426.879 6  -3005545.97747  23421680.89147
 16  7  7  9 34  0.0000000  0  9G02G06G12G14G19G24G25G29G32         
  21762433.797 7 -12125542.680 7  -9426832.62148  21762429.46548
  21907745.875 6 -10682044.609 6  -8290698.32848  21907747.36348
  19901711.977 7 -10842276.605 7  -8429896.78949  19901709.29349
  23608585.031 5  -4294909.773 5  -3331195.75846  23608583.77746
  23125613.133 6  15059363.711 6  11735738.48447  23125609.41047
  21840298.172 6   8663775.098 6   6754857.00848  21840299.07048
  21387824.242 7 -14001916.891 7 -10888028.35948  21387825.38348
  22977928.398 6  -5255563.801 6  -4070035.82847  22977928.55947
  23424882.195 6  -3849597.953 6  -2992432.53947  23424883.73847
 16  7  7  9 34 15.0000000  0  9G02G06G12G14G19G24G25G29G32         
  21757916.258 7 -12149283.402 7  -9445331.87148  21757911.72348
  21910225.602 6 -10669011.676 6  -8280542.78548  21910227.26648
  19901888.586 7 -10841351.699 7  -8429176.08249  19901884.90249
  23608122.422 5  -4297341.297 5  -3333090.44146  23608120.93846
  23135905.898 6  15113452.895 6  11777885.87547  23135902.16047
  21849145.000 6   8710265.879 6   6791083.57048  21849146.15248
  21381615.320 7 -14034545.633 7 -10913453.34848  21381615.59448
  22968743.328 6  -5303833.488 6  -4107648.53147  22968742.44547
  23428110.258 6  -3832634.801 6  -2979214.51247  23428111.49247
 16  7  7  9 34 30.0000000  0  9G02G06G12G14G19G24G25G29G32         
  21753420.125 7 -12172912.078 7  -9463743.80548  21753415.59048
  21912735.125 6 -10655826.816 6  -8270268.85948  21912736.56348
  19902083.281 7 -10840325.875 7  -8428376.73849  19902080.46549
  23607686.148 5  -4299631.832 5  -3334875.26246  23607684.88746
  23146206.758 6  15167586.410 6  11820067.81647  23146203.58647
  21858008.539 6   8756845.043 6   6827378.99648  21858009.76648
  21375419.227 7 -14067106.531 7 -10938825.45748  21375419.60948
  22959567.547 6  -5352049.754 6  -4145219.61347  22959566.92247
  23431364.203 6  -3815536.457 6  -2965891.13347  23431365.17247
 16  7  7  9 34 45.0000000  0  9G02G06G12G14G19G24G25G29G32         
  21748944.469 7 -12196429.094 7  -9482068.73848  21748940.71548
  21915272.961 6 -10642490.777 6  -8259877.15248  21915274.14848
  19902297.531 7 -10839199.691 7  -8427499.19549  19902294.85549
  23607277.453 5  -4301782.043 5  -3336550.75446  23607275.69546
  23156516.281 6  15221763.516 6  11862283.71947  23156513.16447
  21866888.867 6   8803511.340 6   6863742.32048  21866890.12948
  21369235.891 7 -14099600.027 7 -10964145.05148  21369236.34048
  22950402.492 6  -5400213.082 6  -4182749.44947  22950401.94947
  23434643.438 6  -3798303.688 6  -2952463.01247  23434644.45747
