     2.11           OBSERVATION DATA    M (MIXED)           RINEX VERSION / TYPE
teqc  2013Mar15                         20170506 11:52:45UTCPGM / RUN BY / DATE
Marker                                                      MARKER NAME
0000                                                        MARKER NUMBER
UNKNOWN             UNKNOWN                                 OBSERVER / AGENCY
0000                UNKNOWN             UNKNOWN             REC # / TYPE / VERS
0000                UNKNOWN                                 ANT # / TYPE
  3850898.3333  2231889.1912  4553102.5291                  APPROX POSITION XYZ
        0.0000        0.0000        0.0000                  ANTENNA: DELTA H/E/N
     1     1                                                WAVELENGTH FACT L1/2
     5    L1    C1    P1    D1    S1                        # / TYPES OF OBSERV
     1.0000                                                 INTERVAL
    18                                                      LEAP SECONDS
  2017     4    10    16    13   21.0000000     GPS         TIME OF FIRST OBS
                                                            END OF HEADER
 17  4 10 16 13 21.0000000  0  9G31G02G05G06G14G29G12G24G25
   -402567.709 9  22571813.543                        2505.549          50.000
    126393.642 9  22119939.341                        -833.948          48.000
   -564582.278 9  24076019.203                        3518.611          47.000
    405225.292 8  25057423.041                       -2564.388          39.000
    168240.358 9  25123682.745                       -1129.946          41.000
   -378285.186 9  20748239.205                        2365.536          54.000
    232073.056 9  21705597.180                       -1491.524          49.000
    443189.081 9  25267305.338                       -2803.403          42.000
   -163035.484 9  20357594.755                         988.218          54.000
 17  4 10 16 13 22.0000000  0  9G31G02G05G06G14G29G12G24G25
   -405072.662 9  22571336.869                        2504.533          50.000
    127228.090 9  22120098.134                        -834.755          48.000
   -568100.488 9  24075349.713                        3518.030          46.000
    407790.054 8  25057911.142                       -2564.866          39.000
    169370.740 9  25123897.870                       -1130.566          41.000
   -380650.219 9  20747789.147                        2364.737          53.000
    233564.989 9  21705881.074                       -1492.182          49.000
    445992.764 9  25267838.872                       -2803.652          42.000
   -164023.178 9  20357406.800                         987.387          54.000
 17  4 10 16 13 23.0000000  0  9G31G02G05G06G14G29G12G24G25
   -407576.894 9  22570860.329                        2504.031          50.000
    128063.132 9  22120257.043                        -835.249          48.000
   -571618.241 9  24074680.313                        3517.650          46.000
    410355.097 8  25058399.279                       -2565.060          39.000
    170501.602 9  25124113.093                       -1130.982          41.000
   -383014.720 9  20747339.196                        2364.361          53.000
    235057.435 9  21706165.067                       -1492.656          49.000
    448796.575 9  25268372.432                       -2803.794          42.000
   -165010.212 9  20357218.978                         986.793          54.000
 17  4 10 16 13 24.0000000  0  9G31G02G05G06G14G29G12G24G25
   -410080.541 9  22570383.914                        2503.428          50.000
    128898.620 9  22120416.042                        -835.621          48.000
   -575135.693 9  24074010.975                        3517.389          46.000
    412920.319 8  25058887.443                       -2565.290          39.000
    171632.781 9  25124328.379                       -1131.236          41.000
   -385378.833 9  20746889.316                        2364.010          53.000
    236550.222 9  21706449.131                       -1492.917          49.000
    451600.317 9  25268905.983                       -2803.644          42.000
   -165996.758 9  20357031.247                         986.347          54.000
 17  4 10 16 13 25.0000000  0  9G31G02G05G06G14G29G12G24G25
   -412583.717 9  22569907.571                        2503.309          50.000
    129734.455 9  22120575.103                        -835.654          48.000
   -578652.934 9  24073341.673                        3517.466          46.000
    415485.596 8  25059375.633                       -2565.049          39.000
    172764.169 9  25124543.692                       -1131.112          41.000
   -387742.663 9  20746439.490                        2364.029          53.000
    238043.273 9  21706733.239                       -1492.783          49.000
    454403.917 9  25269439.498                       -2803.160          41.000
   -166982.885 9  20356843.604                         986.288          54.000
 17  4 10 16 13 26.0000000  0 10G21G31G02G05G06G14G29G12G24G25
    -30432.482 7  25254831.813                        4389.424          37.000
   -415086.531 9  22569431.308                        2502.810          50.000
    130570.518 9  22120734.208                        -835.957          48.000
   -582170.083 9  24072672.380                        3517.354          46.000
    418050.828 8  25059863.806                       -2564.972          39.000
    173895.656 9  25124759.032                       -1131.405          41.000
   -390106.320 9  20745989.700                        2363.791          53.000
    239536.467 9  21707017.384                       -1492.998          49.000
    457207.264 9  25269972.960                       -2802.990          41.000
   -167968.730 9  20356656.015                         985.891          54.000
 17  4 10 16 13 27.0000000  0 10G21G31G02G05G06G14G29G12G24G25
    -34821.648 7  25253995.561                        4389.441          37.000
   -417589.015 9  22568955.107                        2502.518          50.000
    131406.772 9  22120893.350                        -836.112          48.000
   -585687.172 9  24072003.104                        3517.199          46.000
    420615.970 8  25060351.970                       -2564.870          39.000
    175027.194 9  25124974.380                       -1131.294          41.000
   -392469.849 9  20745539.928                        2363.689          54.000
    241029.753 9  21707301.555                       -1493.169          49.000
    460010.301 9  25270506.368                       -2802.676          41.000
   -168954.328 9  20356468.471                         985.726          54.000
 17  4 10 16 13 28.0000000  0 10G21G31G02G05G06G14G29G12G24G25
    -39210.414 7  25253160.354                        4388.674          37.000
   -420090.582 9  22568479.076                        2501.247          50.000
    132243.816 9  22121052.643                        -837.250          48.000
   -589203.622 9  24071333.954                        3516.255          46.000
    423181.617 8  25060840.223                       -2565.705          39.000
    176159.396 9  25125189.854                       -1132.383          41.000
   -394832.660 9  20745090.299                        2362.630          54.000
    242523.715 9  21707585.842                       -1494.181          49.000
    462813.637 9  25271039.830                       -2803.317          42.000
   -169939.078 9  20356281.087                         984.504          54.000
 17  4 10 16 13 29.0000000  0 10G21G31G02G05G06G14G29G12G24G25
    -43599.108 7  25252325.290                        4388.843          37.000
   -422591.594 9  22568003.153                        2500.923          50.000
    133081.274 9  22121212.017                        -837.515          48.000
   -592719.782 9  24070664.849                        3516.103          46.000
    425747.425 8  25061328.503                       -2565.799          39.000
    177291.887 9  25125405.390                       -1132.380          41.000
   -397195.099 9  20744640.741                        2362.426          53.000
    244018.010 9  21707870.201                       -1494.361          49.000
    465616.916 9  25271573.283                       -2803.105          41.000
   -170923.353 9  20356093.793                         984.208          54.000
 17  4 10 16 13 30.0000000  0 10G21G31G02G05G06G14G29G12G24G25
    -47987.741 7  25251490.377                        4388.768          37.000
   -425092.008 9  22567527.354                        2500.212          50.000
    133919.179 9  22121371.471                        -838.027          48.000
   -596235.646 9  24069995.806                        3515.874          46.000
    428313.378 9  25061816.819                       -2565.904          40.000
    178424.709 9  25125620.980                       -1132.874          41.000
   -399557.153 9  20744191.264                        2361.988          53.000
    245512.652 9  21708154.622                       -1494.694          49.000
    468420.145 9  25272106.718                       -2803.051          41.000
   -171907.116 9  20355906.597                         983.609          54.000
 17  4 10 16 13 31.0000000  0 10G21G31G02G05G06G14G29G12G24G25
    -52376.493 7  25250655.465                        4388.639          37.000
   -427592.062 9  22567051.618                        2499.765          50.000
    134757.321 9  22121530.979                        -838.403          48.000
   -599751.395 9  24069326.789                        3515.521          46.000
    430879.311 9  25062305.126                       -2566.026          40.000
    179557.632 9  25125836.587                       -1133.137          41.000
   -401919.020 9  20743741.813                        2361.614          53.000
    247007.445 9  21708439.070                       -1495.081          49.000
    471223.132 9  25272640.108                       -2803.109          42.000
   -172890.580 9  20355719.455                         983.127          54.000
 17  4 10 16 13 32.0000000  0 10G21G31G02G05G06G14G29G12G24G25
    -56765.094 7  25249820.419                        4388.886          37.000
   -430091.454 9  22566575.999                        2499.449          50.000
    135595.997 9  22121690.585                        -838.604          48.000
   -603266.767 9  24068657.836                        3515.601          46.000
    433445.482 9  25062793.495                       -2565.892          40.000
    180690.945 9  25126052.275                       -1133.076          41.000
   -404280.428 9  20743292.452                        2361.512          53.000
    248502.653 9  21708723.607                       -1495.062          49.000
    474026.163 9  25273173.508                       -2802.695          42.000
   -173873.463 9  20355532.429                         982.945          54.000
 17  4 10 16 13 33.0000000  0 10G21G31G02G05G06G14G29G12G24G25
    -61153.822 7  25248985.355                        4389.033          37.000
   -432590.471 9  22566100.459                        2499.086          50.000
    136434.901 9  22121850.236                        -838.808          49.000
   -606782.030 9  24067988.918                        3515.494          46.000
    436011.613 9  25063281.882                       -2565.838          40.000
    181824.367 9  25126267.981                       -1133.194          41.000
   -406641.662 9  20742843.126                        2361.417          54.000
    249998.004 9  21709008.162                       -1495.163          49.000
    476828.933 9  25273706.862                       -2802.403          42.000
   -174856.053 9  20355345.447                         982.720          54.000
 17  4 10 16 13 34.0000000  0 10G21G31G02G05G06G14G29G12G24G25
    -65542.703 7  25248150.291                        4388.799          37.000
   -435089.144 9  22565624.991                        2498.419          50.000
    137274.022 9  22122009.932                        -839.344          49.000
   -610297.218 9  24067320.000                        3515.038          46.000
    438577.682 9  25063770.234                       -2566.158          40.000
    182957.876 9  25126483.705                       -1133.607          41.000
   -409002.734 9  20742393.827                        2360.886          54.000
    251493.469 9  21709292.753                       -1495.619          49.000
    479631.454 9  25274240.163                       -2802.524          42.000
   -175838.360 9  20355158.519                         982.042          53.000
 17  4 10 16 13 35.0000000  0 10G21G31G02G05G06G14G29G12G24G25
    -69931.691 7  25247315.227                        4389.190          37.000
   -437587.420 9  22565149.595                        2498.180          50.000
    138113.395 9  22122169.672                        -839.386          48.000
   -613812.293 9  24066651.109                        3515.097          46.000
    441143.737 9  25064258.585                       -2565.999          40.000
    184091.515 9  25126699.447                       -1133.538          41.000
   -411363.609 9  20741944.573                        2360.888          54.000
    252989.094 9  21709577.362                       -1495.551          49.000
    482433.741 9  25274773.428                       -2802.097          42.000
   -176820.355 9  20354971.654                         981.890          53.000
 17  4 10 16 13 36.0000000  0 10G21G31G02G05G06G14G29G12G24G25
    -74320.588 7  25246480.145                        4388.850          37.000
   -440085.115 9  22564674.306                        2497.357          50.000
    138953.215 9  22122329.492                        -840.001          48.000
   -617327.042 9  24065982.280                        3514.600          46.000
    443709.955 8  25064746.954                       -2566.287          39.000
    185225.464 9  25126915.242                       -1134.084          41.000
   -413724.094 9  20741495.382                        2360.312          53.000
    254485.076 9  21709862.043                       -1496.179          49.000
    485236.005 9  25275306.685                       -2802.298          42.000
   -177801.849 9  20354784.878                         981.275          54.000
 17  4 10 16 13 37.0000000  0 10G21G31G02G05G06G14G29G12G24G25
    -78709.380 7  25245645.215                        4388.808          37.000
   -442582.192 9  22564199.133                        2496.902          50.000
    139793.530 9  22122489.411                        -840.395          48.000
   -620841.449 9  24065313.514                        3514.358          46.000
    446276.378 9  25065235.368                       -2566.342          40.000
    186359.762 9  25127131.091                       -1134.302          40.000
   -416084.148 9  20741046.289                        2360.034          54.000
    255981.444 9  21710146.794                       -1496.410          49.000
    488038.256 9  25275839.941                       -2802.137          42.000
   -178782.792 9  20354598.209                         980.814          54.000
 17  4 10 16 13 38.0000000  0 10G21G31G02G05G06G14G29G12G24G25
    -83098.052 7  25244810.410                        4388.804          37.000
   -445078.648 9  22563724.076                        2496.298          50.000
    140634.335 9  22122649.428                        -840.906          49.000
   -624355.490 9  24064644.820                        3514.001          46.000
    448843.034 9  25065723.818                       -2566.660          40.000
    187494.423 9  25127347.002                       -1134.638          40.000
   -418443.769 9  20740597.276                        2359.546          54.000
    257478.199 9  21710431.618                       -1496.804          49.000
    490840.517 9  25276373.197                       -2802.145          42.000
   -179763.183 9  20354411.648                         980.258          54.000
 17  4 10 16 13 39.0000000  0 10G21G31G02G05G06G14G29G12G24G25
    -87486.571 7  25243975.712                        4388.719          37.000
   -447574.445 9  22563249.153                        2495.574          50.000
    141475.650 9  22122809.535                        -841.481          48.000
   -627869.163 9  24063976.196                        3513.611          46.000
    451409.903 9  25066212.304                       -2566.904          40.000
    188629.476 9  25127562.985                       -1135.151          40.000
   -420802.932 9  20740148.352                        2359.059          53.000
    258975.383 9  21710716.521                       -1497.273          49.000
    493642.793 9  25276906.454                       -2802.294          42.000
   -180742.995 9  20354225.193                         979.637          54.000
 17  4 10 16 13 40.0000000  0 10G21G31G02G05G06G14G29G12G24G25
    -91874.987 7  25243140.925                        4388.407          37.000
   -450069.637 9  22562774.346                        2494.902          50.000
    142317.434 9  22122969.730                        -841.998          48.000
   -631382.492 9  24063307.636                        3513.207          47.000
    453976.975 9  25066700.825                       -2567.165          40.000
    189764.864 9  25127779.031                       -1135.499          40.000
   -423161.681 9  20739699.500                        2358.556          54.000
    260472.942 9  21711001.497                       -1497.739          49.000
    496445.044 9  25277439.710                       -2802.280          42.000
   -181722.278 9  20354038.837                         979.036          54.000
 17  4 10 16 13 41.0000000  0 10G21G31G02G05G06G14G29G12G24G25
    -96263.320 7  25242306.120                        4388.398          37.000
   -452564.248 9  22562299.647                        2494.384          50.000
    143159.670 9  22123130.007                        -842.414          48.000
   -634895.504 9  24062639.147                        3512.914          46.000
    456544.215 9  25067189.382                       -2567.336          40.000
    190900.558 9  25127995.121                       -1135.704          40.000
   -425520.047 9  20739250.720                        2358.209          54.000
    261970.845 9  21711286.534                       -1498.016          49.000
    499247.258 9  25277972.957                       -2802.198          42.000
   -182701.063 9  20353852.580                         978.615          54.000
 17  4 10 16 13 42.0000000  0 10G21G31G02G05G06G14G29G12G24G25
   -100651.589 7  25241471.288                        4388.120          37.000
   -455058.310 9  22561825.054                        2493.879          50.000
    144002.315 9  22123290.363                        -842.776          48.000
   -638408.241 9  24061970.711                        3512.672          46.000
    459111.560 9  25067677.966                       -2567.166          40.000
    192036.542 9  25128211.273                       -1136.048          40.000
   -427878.058 9  20738802.011                        2357.921          54.000
    263469.058 9  21711571.626                       -1498.311          49.000
    502049.399 9  25278506.187                       -2802.089          42.000
   -183679.370 9  20353666.411                         978.169          54.000
 17  4 10 16 13 43.0000000  0 10G21G31G02G05G06G14G29G12G24G25
   -105039.988 7  25240636.518                        4388.597          37.000
   -457551.955 9  22561350.533                        2493.515          50.000
    144845.241 9  22123450.773                        -843.060          48.000
   -641920.826 9  24061302.303                        3512.471          46.000
    461678.959 9  25068166.567                       -2567.359          40.000
    193172.670 9  25128427.444                       -1136.097          40.000
   -430235.847 9  20738353.338                        2357.742          54.000
    264967.462 9  21711856.762                       -1498.478          49.000
    504851.328 9  25279039.381                       -2801.831          41.000
   -184657.337 9  20353480.314                         977.804          54.000
 17  4 10 16 13 44.0000000  0 10G21G31G02G05G06G14G29G12G24G25
   -109428.218 7  25239801.946                        4388.509          37.000
   -460044.951 9  22560876.138                        2492.790          49.000
    145688.674 9  22123611.282                        -843.565          48.000
   -645433.038 9  24060633.965                        3512.079          46.000
    464246.549 9  25068655.205                       -2567.452          40.000
    194309.182 9  25128643.695                       -1136.539          40.000
   -432593.182 9  20737904.763                        2357.222          54.000
    266466.271 9  21712141.969                       -1498.915          48.000
    507653.276 9  25279572.583                       -2801.860          41.000
   -185634.735 9  20353294.325                         977.226          54.000
 17  4 10 16 13 45.0000000  0 10G21G31G02G05G06G14G29G12G24G25
   -113816.263 7  25238967.328                        4388.270          37.000
   -462537.278 9  22560401.876                        2492.140          49.000
    146532.650 9  22123771.880                        -844.113          48.000
   -648944.836 9  24059965.709                        3511.729          46.000
    466814.408 9  25069143.896                       -2567.773          40.000
    195446.097 9  25128860.035                       -1136.910          40.000
   -434950.035 9  20737456.268                        2356.714          53.000
    267965.512 9  21712427.257                       -1499.274          49.000
    510455.268 9  25280105.795                       -2801.937          41.000
   -186611.525 9  20353108.451                         976.610          53.000
 17  4 10 16 13 46.0000000  0 10G21G31G02G05G06G14G29G12G24G25
   -118204.217 7  25238132.586                        4388.096          37.000
   -465029.000 9  22559927.721                        2491.592          50.000
    147377.101 9  22123932.576                        -844.526          48.000
   -652456.316 9  24059297.514                        3511.522          47.000
    469382.500 9  25069632.631                       -2567.999          40.000
    196583.358 9  25129076.429                       -1137.231          40.000
   -437306.484 9  20737007.854                        2356.420          54.000
    269465.142 9  21712712.625                       -1499.667          49.000
    513257.223 9  25280638.998                       -2801.793          42.000
   -187587.788 9  20352922.676                         976.156          54.000
 17  4 10 16 13 47.0000000  0 10G21G31G02G05G06G14G29G12G24G25
   -122591.915 7  25237297.790                        4387.632          37.000
   -467519.975 9  22559453.710                        2490.790          49.000
    148222.159 9  22124093.397                        -845.226          48.000
   -655967.305 9  24058629.418                        3510.837          47.000
    471950.865 9  25070121.412                       -2568.338          40.000
    197721.087 9  25129292.912                       -1137.739          40.000
   -439662.378 9  20736559.538                        2355.779          53.000
    270965.272 9  21712998.092                       -1500.236          49.000
    516059.328 9  25281172.236                       -2802.084          42.000
   -188563.384 9  20352737.025                         975.396          54.000
 17  4 10 16 13 48.0000000  0 10G21G31G02G05G06G14G29G12G24G25
   -126979.618 7  25236462.913                        4387.875          37.000
   -470010.435 9  22558979.796                        2490.326          50.000
    149067.602 9  22124254.281                        -845.537          48.000
   -659478.064 9  24057961.358                        3510.827          47.000
    474519.385 9  25070610.219                       -2568.517          40.000
    198859.082 9  25129509.449                       -1137.996          40.000
   -442017.951 9  20736111.293                        2355.485          54.000
    272465.691 9  21713283.603                       -1500.496          49.000
    518861.314 9  25281705.439                       -2801.821          42.000
   -189538.538 9  20352551.465                         975.047          54.000
 17  4 10 16 13 49.0000000  0 10G21G31G02G05G06G14G29G12G24G25
   -131367.328 7  25235628.090                        4387.786          37.000
   -472500.417 9  22558505.973                        2489.830          50.000
    149913.381 9  22124415.227                        -845.857          47.000
   -662988.590 9  24057293.352                        3510.501          48.000
    477087.947 8  25071099.026                       -2568.485          39.000
    199997.268 9  25129726.021                       -1138.201          40.000
   -444373.251 9  20735663.094                        2355.265          53.000
    273966.353 9  21713569.177                       -1500.704          49.000
    521663.163 9  25282238.624                       -2801.819          41.000
   -190513.292 9  20352365.975                         974.625          54.000
 17  4 10 16 13 50.0000000  0 10G21G31G02G05G06G14G29G12G24G25
   -135755.041 7  25234793.268                        4387.931          37.000
   -474989.891 9  22558032.238                        2489.504          50.000
    150759.538 9  22124576.245                        -846.099          48.000
   -666498.901 9  24056625.381                        3510.452          47.000
    479656.494 9  25071587.842                       -2568.210          40.000
    201135.720 9  25129942.648                       -1138.551          40.000
   -446728.217 9  20735214.965                        2355.008          53.000
    275467.306 9  21713854.804                       -1500.979          49.000
    524464.892 9  25282771.791                       -2801.528          41.000
   -191487.608 9  20352180.575                         974.304          54.000
 17  4 10 16 13 51.0000000  0 10G21G31G02G05G06G14G29G12G24G25
   -140142.803 7  25233958.436                        4387.825          37.000
   -477478.895 9  22557558.602                        2488.842          50.000
    151606.031 9  22124737.325                        -846.621          48.000
   -670009.002 9  24055957.446                        3509.994          47.000
                  25072081.375                       -2568.319          33.000
    202274.351 9  25130159.309                       -1138.794          40.000
   -449082.920 9  20734766.873                        2354.531          54.000
    276968.482 9  21714140.467                       -1501.391          49.000
    527266.434 9  25283304.913                       -2801.298          41.000
   -192461.538 9  20351995.247                         973.733          54.000
 17  4 10 16 13 52.0000000  0 10G21G31G02G05G06G14G29G12G24G25
   -144530.362 7  25233123.613                        4387.810          37.000
   -479967.208 9  22557085.090                        2488.224          50.000
    152453.071 9  22124898.513                        -847.144          48.000
   -673518.660 9  24055289.609                        3509.586          47.000
                  25072570.951                       -2569.293          37.000
    203413.412 9  25130376.052                       -1139.011          40.000
   -451437.123 9  20734318.887                        2354.128          54.000
    278470.110 9  21714426.229                       -1501.666          49.000
    530068.079 9  25283838.062                       -2801.530          41.000
   -193434.847 9  20351810.034                         973.238          54.000
 17  4 10 16 13 53.0000000  0 10G21G31G02G05G06G14G29G12G24G25
   -148918.036 7  25232288.772                        4387.833          37.000
   -482455.130 9  22556611.651                        2487.789          50.000
    153300.374 9  22125059.745                        -847.397          48.000
   -677028.227 9  24054621.781                        3509.563          46.000
                  25073058.829                       -2568.985          37.000
    204552.598 9  25130592.812                       -1139.253          40.000
   -453791.132 9  20733870.929                        2353.945          54.000
    279971.906 9  21714712.008                       -1501.849          49.000
    532869.460 9  25284371.149                       -2801.251          41.000
   -194407.846 9  20351624.875                         972.919          54.000
 17  4 10 16 13 54.0000000  0 10G21G31G02G05G06G14G29G12G24G25
   -153305.603 7  25231453.922                        4387.528          37.000
   -484942.454 9  22556138.327                        2487.059          50.000
    154148.133 9  22125221.058                        -847.878          48.000
   -680537.453 9  24053954.015                        3509.146          46.000
                  25073546.894                       -2569.103          39.000
    205692.102 9  25130809.644                       -1139.539          40.000
   -456144.744 9  20733423.051                        2353.497          54.000
    281474.071 9  21714997.877                       -1502.263          49.000
    535670.842 9  25284904.244                       -2801.288          41.000
   -195380.310 9  20351439.833                         972.271          54.000
 17  4 10 16 13 55.0000000  0 10G21G31G02G05G06G14G29G12G24G25
   -157693.150 7  25230619.037                        4387.686          37.000
   -487429.221 9  22555665.111                        2486.506          50.000
    154996.320 9  22125382.459                        -848.394          48.000
   -684046.388 9  24053286.313                        3508.813          46.000
    492501.620 8  25074035.317                       -2569.458          39.000
    206831.912 9  25131026.529                       -1139.954          40.000
   -458497.989 9  20732975.244                        2353.086          53.000
    282976.561 9  21715283.808                       -1502.604          49.000
    538472.133 9  25285437.322                       -2801.296          41.000
   -196352.316 9  20351254.861                         971.807          54.000
 17  4 10 16 13 56.0000000  0 10G21G31G02G05G06G14G29G12G24G25
   -162080.773 7  25229784.116                        4387.884          37.000
   -489915.614 9  22555191.975                        2486.301          50.000
    155844.740 9  22125543.906                        -848.404          48.000
   -687555.217 9  24052618.628                        3508.902          47.000
    495070.864 8  25074524.151                       -2569.157          39.000
    207971.808 9  25131243.432                       -1139.786          40.000
   -460851.054 9  20732527.473                        2353.078          53.000
    284479.196 9  21715569.766                       -1502.610          49.000
    541273.160 9  25285970.355                       -2800.693          40.000
   -197323.999 9  20351069.971                         971.687          54.000
 17  4 10 16 13 57.0000000  0 10G21G31G02G05G06G14G29G12G24G25
   -166468.276 7  25228949.213                        4387.690          37.000
   -492401.359 9  22554718.955                        2485.760          50.000
    156693.674 9  22125705.451                        -848.853          48.000
   -691063.659 9  24051951.005                        3508.519          46.000
    497640.335 8  25075013.369                       -2569.256          39.000
    209112.102 9  25131460.416                       -1140.080          41.000
   -463203.664 9  20732079.783                        2352.747          54.000
    285982.242 9  21715855.795                       -1502.851          49.000
    544074.239 9  25286503.397                       -2800.735          40.000
   -198295.123 9  20350885.178                         971.182          54.000
 17  4 10 16 13 58.0000000  0 10G21G31G02G05G06G14G29G12G24G25
   -170855.778 7  25228114.274                        4387.760          37.000
   -494886.608 9  22554246.024                        2485.233          50.000
    157542.964 9  22125867.050                        -849.279          48.000
   -694571.888 9  24051283.427                        3508.254          46.000
    500209.883 8  25075502.194                       -2569.403          39.000
    210252.612 9  25131677.453                       -1140.437          41.000
   -465555.974 9  20731632.146                        2352.374          54.000
    287485.541 9  21716141.878                       -1503.130          49.000
    546875.158 9  25287036.412                       -2800.636          40.000
   -199265.825 9  20350700.457                         970.691          54.000
 17  4 10 16 13 59.0000000  0 10G21G31G02G05G06G14G29G12G24G25
   -175243.109 7  25227279.379                        4387.923          37.000
   -497371.177 9  22553773.228                        2484.720          50.000
    158392.791 9  22126028.764                        -849.559          48.000
   -698079.711 9  24050615.930                        3508.121          46.000
    502779.694 8  25075991.162                       -2569.529          39.000
    211393.534 9  25131894.561                       -1140.635          41.000
   -467907.807 9  20731184.607                        2352.105          54.000
    288989.289 9  21716428.042                       -1503.459          49.000
    549676.124 9  25287569.427                       -2800.522          40.000
   -200235.933 9  20350515.861                         970.322          54.000
 17  4 10 16 14  0.0000000  0 10G21G31G02G05G06G14G29G12G24G25
   -179630.423 7  25226444.503                        4387.129          37.000
   -499855.236 9  22553300.521                        2483.615          50.000
    159242.993 9  22126190.541                        -850.541          48.000
   -701587.278 9  24049948.468                        3507.260          46.000
    505349.603 8  25076479.943                       -2570.259          38.000
    212534.694 9  25132111.724                       -1141.464          40.000
   -470259.313 9  20730737.131                        2351.152          53.000
    290493.312 9  21716714.259                       -1504.349          49.000
    552476.979 9  25288102.424                       -2800.892          40.000
   -201205.592 9  20350331.346                         969.240          54.000
 17  4 10 16 14  1.0000000  0 10G21G31G02G05G06G14G29G12G24G25
   -184017.720 7  25225609.608                        4387.258          37.000
   -502338.774 9  22552827.921                        2483.268          50.000
    160093.585 9  22126352.399                        -850.791          48.000
   -705094.598 9  24049281.060                        3507.186          46.000
    507919.594 8  25076968.535                       -2569.899          38.000
    213676.100 9  25132328.931                       -1141.440          40.000
   -472610.500 9  20730289.709                        2351.060          54.000
    291997.617 9  21717000.530                       -1504.381          49.000
    555277.737 8  25288635.403                       -2800.650          39.000
   -202174.817 9  20350146.911                         968.995          54.000
 17  4 10 16 14  2.0000000  0 10G21G31G02G05G06G14G29G12G24G25
   -188405.004 8  25224774.741                        4387.506          38.000
   -504821.794 9  22552355.419                        2482.996          50.000
    160944.560 9  22126514.319                        -850.923          48.000
   -708601.661 9  24048613.706                        3507.166          46.000
    510489.714 8  25077457.423                       -2569.861          39.000
    214817.767 9  25132546.191                       -1141.497          41.000
   -474961.359 9  20729842.349                        2350.955          53.000
    293502.213 9  21717286.854                       -1504.489          49.000
    558078.378 8  25289168.365                       -2800.333          39.000
   -203143.587 9  20349962.565                         968.814          54.000
 17  4 10 16 14  3.0000000  0 10G21G31G02G05G06G14G29G12G24G25
   -192792.414 8  25223939.829                        4387.645          38.000
   -507304.443 9  22551882.980                        2482.673          50.000
    161795.754 9  22126676.293                        -851.089          48.000
   -712108.633 9  24047946.352                        3507.162          46.000
    513059.779 8  25077946.248                       -2569.771          38.000
    215959.536 9  25132763.469                       -1141.638          40.000
   -477312.046 9  20729395.025                        2350.813          53.000
    295006.944 9  21717573.205                       -1504.592          49.000
    560878.765 8  25289701.264                       -2800.094          39.000
   -204112.066 9  20349778.273                         968.560          54.000
 17  4 10 16 14  4.0000000  0 10G21G31G02G05G06G14G29G12G24G25
   -197179.737 8  25223104.925                        4387.216          38.000
   -509786.491 9  22551410.657                        2481.741          49.000
    162647.418 9  22126838.347                        -851.935          48.000
   -715615.271 9  24047279.069                        3506.391          46.000
    515630.040 8  25078435.171                       -2570.449          39.000
    217101.626 9  25132980.819                       -1142.333          40.000
   -479662.329 9  20728947.772                        2350.036          53.000
    296512.038 9  21717859.619                       -1505.331          49.000
    563679.098 8  25290234.154                       -2800.282          39.000
   -205080.022 9  20349594.079                         967.660          54.000
 17  4 10 16 14  5.0000000  0 10G21G31G02G05G06G14G29G12G24G25
   -201566.883 8  25222270.076                        4387.212          38.000
   -512267.871 9  22550938.468                        2481.132          50.000
    163499.610 9  22127000.508                        -852.350          48.000
   -719121.521 9  24046611.857                        3506.155          46.000
    518200.527 8  25078924.318                       -2570.523          39.000
    218244.116 9  25133198.241                       -1142.576          40.000
   -482012.142 9  20728500.608                        2349.669          53.000
    298017.559 9  21718146.122                       -1505.599          49.000
    566479.513 8  25290767.062                       -2800.324          39.000
   -206047.391 9  20349409.992                         967.211          54.000
 17  4 10 16 14  6.0000000  0 10G21G31G02G05G06G14G29G12G24G25
   -205954.045 8  25221435.253                        4387.139          38.000
   -514748.754 9  22550466.369                        2480.561          49.000
    164352.163 9  22127162.741                        -852.811          47.000
   -722627.540 9  24045944.690                        3505.784          45.000
    520771.105 8  25079413.455                       -2570.658          38.000
    219386.836 9  25133415.707                       -1142.944          40.000
   -484361.653 9  20728053.508                        2349.285          53.000
    299523.349 9  21718432.678                       -1505.968          49.000
    569279.795 8  25291299.943                       -2800.312          38.000
   -207014.336 9  20349225.986                         966.693          54.000
 17  4 10 16 14  7.0000000  0 10G21G31G02G05G06G14G29G12G24G25
   -210341.074 8  25220600.421                        4387.172          38.000
   -517229.015 9  22549994.385                        2480.220          50.000
    165205.199 9  22127325.055                        -853.021          48.000
   -726133.196 9  24045277.586                        3505.735          46.000
    523341.875 8  25079902.665                       -2570.566          39.000
    220529.898 9  25133633.244                       -1143.001          40.000
   -486710.736 9  20727606.487                        2349.157          54.000
    301029.527 9  21718719.306                       -1506.005          49.000
    572080.053 8  25291832.833                       -2800.049          38.000
   -207980.727 9  20349042.087                         966.425          54.000
 17  4 10 16 14  8.0000000  0 10G21G31G02G05G06G14G29G12G24G25
   -214728.073 8  25219765.571                        4387.091          38.000
   -519708.736 9  22549522.509                        2479.476          50.000
    166058.636 9  22127487.448                        -853.578          48.000
   -729638.587 9  24044610.545                        3505.305          46.000
    525912.798 8  25080391.883                       -2570.860          38.000
    221673.238 9  25133850.826                       -1143.390          40.000
   -489059.474 9  20727159.538                        2348.624          54.000
    302536.014 9  21719005.988                       -1506.559          49.000
    574880.208 8  25292365.696                       -2800.058          38.000
   -208946.665 9  20348858.268                         965.767          54.000
 17  4 10 16 14  9.0000000  0 10G21G31G02G05G06G14G29G12G24G25
   -219114.738 8  25218930.793                        4386.575          38.000
   -522187.643 9  22549050.793                        2478.762          50.000
    166912.756 9  22127649.967                        -854.189          48.000
   -733143.433 9  24043943.592                        3504.837          46.000
    528484.109 8  25080881.163                       -2571.366          39.000
    222817.121 9  25134068.507                       -1143.875          40.000
   -491407.594 9  20726712.697                        2348.087          54.000
    304043.077 9  21719292.786                       -1507.077          49.000
    577680.546 8  25292898.595                       -2800.182          38.000
   -209911.861 9  20348674.601                         965.081          54.000
 17  4 10 16 14 10.0000000  0 10G21G31G02G05G06G14G29G12G24G25
   -223501.492 8  25218095.988                        4386.942          38.000
   -524666.113 9  22548579.158                        2478.278          50.000
    167767.178 9  22127812.539                        -854.520          48.000
   -736648.111 9  24043276.676                        3504.756          46.000
    531055.425 8  25081370.471                       -2571.348          39.000
    223961.185 9  25134286.241                       -1144.148          40.000
   -493755.468 9  20726265.917                        2347.785          54.000
    305550.342 9  21719579.619                       -1507.296          49.000
    580480.711 8  25293431.458                       -2799.903          38.000
   -210876.697 9  20348490.997                         964.692          54.000
 17  4 10 16 14 11.0000000  0 10G21G31G02G05G06G14G29G12G24G25
   -227888.231 8  25217261.192                        4386.953          39.000
   -527144.085 9  22548107.613                        2477.875          50.000
    168621.951 9  22127975.183                        -854.778          48.000
   -740152.548 9  24042609.804                        3504.482          46.000
    533626.834 8  25081859.725                       -2571.295          39.000
    225105.469 9  25134504.011                       -1144.262          40.000
   -496103.041 9  20725819.192                        2347.554          54.000
    307057.865 9  21719866.507                       -1507.477          49.000
    583280.777 7  25293964.303                       -2800.021          37.000
   -211841.119 9  20348307.473                         964.375          54.000
 17  4 10 16 14 12.0000000  0 10G21G31G02G05G06G14G29G12G24G25
   -232274.858 8  25216426.423                        4386.522          39.000
   -529621.479 9  22547636.183                        2477.151          50.000
    169477.170 9  22128137.908                        -855.444          48.000
   -743656.677 9  24041942.994                        3504.002          45.000
    536198.391 8  25082349.032                       -2571.667          39.000
    226250.056 9  25134721.852                       -1144.754          40.000
   -498450.234 9  20725372.538                        2347.039          54.000
    308565.745 9  21720153.465                       -1508.071          49.000
    586080.729 7  25294497.131                       -2800.008          37.000
   -212805.022 9  20348124.039                         963.694          54.000
 17  4 10 16 14 13.0000000  0 10G21G31G02G05G06G14G29G12G24G25
   -236661.457 8  25215591.635                        4386.885          39.000
   -532098.317 9  22547164.852                        2476.905          50.000
    170332.807 9  22128300.712                        -855.542          48.000
   -747160.517 9  24041276.238                        3504.006          46.000
    538770.089 8  25082838.420                       -2571.420          39.000
    227394.924 9  25134939.747                       -1144.648          41.000
   -500797.071 9  20724925.946                        2346.999          54.000
    310073.927 9  21720440.477                       -1508.021          49.000
    588880.620 7  25295029.949                       -2799.399          37.000
   -213768.456 9  20347940.703                         963.531          54.000
 17  4 10 16 14 14.0000000  0 10G21G31G02G05G06G14G29G12G24G25
   -241047.997 8  25214756.866                        4386.557          39.000
   -534574.597 9  22546693.637                        2476.005          50.000
    171188.852 9  22128463.588                        -856.211          48.000
   -750664.074 9  24040609.536                        3503.366          46.000
    541341.926 8  25083327.790                       -2571.986          39.000
    228540.077 9  25135157.713                       -1145.282          41.000
   -503143.547 9  20724479.426                        2346.332          54.000
    311582.431 9  21720727.543                       -1508.609          49.000
    591680.433 7  25295562.759                       -2799.771          37.000
   -214731.424 9  20347757.447                         962.782          54.000
 17  4 10 16 14 15.0000000  0 10G21G31G02G05G06G14G29G12G24G25
   -245434.504 8  25213922.124                        4386.374          39.000
   -537050.349 9  22546222.511                        2475.426          49.000
    172045.299 9  22128626.554                        -856.712          48.000
   -754167.376 9  24039942.879                        3503.122          45.000
    543913.866 8  25083817.160                       -2572.079          39.000
    229685.490 9  25135375.724                       -1145.683          41.000
   -505489.687 9  20724032.977                        2345.895          54.000
    313091.243 9  21721014.681                       -1509.106          49.000
    594480.149 7  25296095.542                       -2799.789          37.000
   -215693.916 9  20347574.289                         962.187          54.000
 17  4 10 16 14 16.0000000  0 10G21G31G02G05G06G14G29G12G24G25
   -249820.862 8  25213087.390                        4386.314          39.000
   -539525.439 9  22545751.511                        2474.791          50.000
    172902.260 9  22128789.609                        -857.151          48.000
   -757670.275 9  24039276.302                        3502.803          46.000
    546486.052 8  25084306.592                       -2572.276          39.000
    230831.288 9  25135593.806                       -1145.944          41.000
   -507835.371 9  20723586.609                        2345.495          54.000
    314600.461 9  21721301.889                       -1509.407          49.000
    597279.888 8  25296628.334                       -2799.734          38.000
   -216655.845 9  20347391.239                         961.702          54.000
 17  4 10 16 14 17.0000000  0 10G21G31G02G05G06G14G29G12G24G25
   -254207.096 8  25212252.657                        4386.379          39.000
   -541999.914 9  22545280.635                        2474.399          49.000
    173759.706 9  22128952.762                        -857.451          48.000
   -761172.824 9  24038609.787                        3502.635          46.000
    549058.435 8  25084796.061                       -2572.303          39.000
    231977.441 9  25135811.960                       -1146.139          40.000
   -510180.630 9  20723140.330                        2345.259          54.000
    316110.073 9  21721589.179                       -1509.638          49.000
    600079.649 8  25297161.134                       -2799.566          38.000
   -217617.213 9  20347208.296                         961.344          54.000
 17  4 10 16 14 18.0000000  0 10G21G31G02G05G06G14G29G12G24G25
   -258593.353 8  25211417.923                        4386.485          39.000
   -544473.902 9  22544809.840                        2474.017          49.000
    174617.493 9  22129115.977                        -857.694          48.000
   -764675.157 9  24037943.317                        3502.540          45.000
    551630.898 8  25085285.565                       -2572.172          38.000
    233123.803 9  25136030.150                       -1146.247          40.000
   -512525.603 9  20722694.096                        2345.108          53.000
    317619.927 9  21721876.504                       -1509.772          49.000
    602879.262 7  25297693.908                       -2799.246          37.000
   -218578.179 9  20347025.425                         961.016          54.000
 17  4 10 16 14 19.0000000  0 10G21G31G02G05G06G14G29G12G24G25
   -262979.532 8  25210583.234                        4386.159          39.000
   -546947.303 9  22544339.170                        2473.261          49.000
    175475.723 9  22129279.273                        -858.337          47.000
   -768177.174 9  24037276.910                        3501.979          46.000
    554203.537 8  25085775.087                       -2572.716          39.000
    234270.478 9  25136248.393                       -1146.740          40.000
   -514870.182 9  20722247.942                        2344.513          53.000
    319130.134 9  21722163.900                       -1510.244          49.000
    605678.825 7  25298226.673                       -2799.306          37.000
   -219538.638 9  20346842.651                         960.308          54.000
 17  4 10 16 14 20.0000000  0 10G21G31G02G05G06G14G29G12G24G25
   -267365.818 9  25209748.492                        4386.310          40.000
   -549420.318 9  22543868.562                        2472.861          49.000
    176334.199 9  22129442.623                        -858.549          48.000
   -771679.067 9  24036610.529                        3501.809          45.000
    556776.117 8  25086264.591                       -2572.583          38.000
    235417.265 9  25136466.646                       -1146.755          40.000
   -517214.569 9  20721801.824                        2344.295          54.000
    320640.489 9  21722451.332                       -1510.448          49.000
    608478.140 8  25298759.384                       -2799.110          38.000
   -220498.774 9  20346659.941                         960.029          54.000
 17  4 10 16 14 21.0000000  0 10G21G31G02G05G06G14G29G12G24G25
   -271752.088 9  25208913.758                        4386.128          40.000
   -551892.798 9  22543398.062                        2472.044          49.000
    177193.072 9  22129606.044                        -859.181          48.000
   -775180.713 9  24035944.185                        3501.374          45.000
    559348.824 8  25086754.104                       -2572.969          38.000
    236564.313 9  25136684.961                       -1147.292          40.000
   -519558.622 9  20721355.769                        2343.715          54.000
    322151.137 9  21722738.809                       -1510.945          49.000
    611277.361 8  25299292.087                       -2799.354          38.000
   -221458.463 9  20346477.319                         959.287          54.000
 17  4 10 16 14 22.0000000  0 10G21G31G02G05G06G14G29G12G24G25
   -276138.070 9  25208079.069                        4385.829          40.000
   -554364.503 9  22542927.705                        2471.267          49.000
    178052.582 9  22129769.591                        -859.856          48.000
   -778681.841 9  24035277.947                        3500.814          46.000
    561921.887 8  25087243.670                       -2573.261          38.000
    237711.862 9  25136903.356                       -1147.802          40.000
   -521902.094 9  20720909.830                        2343.157          54.000
    323662.332 9  21723026.393                       -1511.474          49.000
    614076.722 8  25299824.807                       -2799.432          38.000
   -222417.454 9  20346294.832                         958.632          54.000
 17  4 10 16 14 23.0000000  0 10G21G31G02G05G06G14G29G12G24G25
   -280523.805 9  25207244.443                        4385.633          40.000
   -556835.452 9  22542457.499                        2470.601          49.000
    178912.704 9  22129933.253                        -860.451          48.000
   -782182.496 9  24034611.790                        3500.444          46.000
    564495.283 8  25087733.308                       -2573.524          38.000
    238859.902 9  25137121.840                       -1148.302          40.000
   -524245.004 9  20720463.989                        2342.618          54.000
    325174.051 9  21723314.075                       -1511.992          49.000
    616876.228 8  25300357.545                       -2799.571          38.000
   -223375.752 9  20346112.478                         957.925          54.000
 17  4 10 16 14 24.0000000  0 10G21G31G02G05G06G14G29G12G24G25
   -284909.367 9  25206409.843                        4385.692          40.000
   -559305.727 9  22541987.410                        2470.044          49.000
    179773.356 9  22130097.014                        -860.787          48.000
   -785682.738 9  24033945.722                        3500.208          45.000
    567068.937 8  25088222.982                       -2573.711          38.000
    240008.330 9  25137340.396                       -1148.462          40.000
   -526587.442 9  20720018.246                        2342.355          54.000
    326686.199 9  21723601.847                       -1512.266          49.000
    619675.763 8  25300890.292                       -2799.413          38.000
   -224333.465 9  20345930.232                         957.498          54.000
 17  4 10 16 14 25.0000000  0 10G21G31G02G05G06G14G29G12G24G25
   -289295.087 9  25205575.217                        4385.908          40.000
   -561775.653 9  22541517.392                        2469.806          50.000
    180634.215 9  22130260.810                        -860.924          48.000
   -789182.887 9  24033279.672                        3500.120          46.000
    569642.490 8  25088712.656                       -2573.426          38.000
    241156.840 9  25137558.961                       -1148.521          40.000
   -528929.726 9  20719572.530                        2342.274          54.000
    328198.456 9  21723889.628                       -1512.217          49.000
    622475.013 8  25301422.977                       -2798.998          38.000
   -225290.911 9  20345748.040                         957.377          54.000
 17  4 10 16 14 26.0000000  0 10G21G31G02G05G06G14G29G12G24G25
   -293680.854 9  25204740.582                        4385.849          40.000
   -564245.127 9  22541047.472                        2469.353          50.000
    181495.392 9  22130424.678                        -861.193          48.000
   -792682.851 9  24032613.649                        3499.954          46.000
    572216.111 8  25089202.329                       -2573.430          38.000
    242305.537 9  25137777.571                       -1148.690          40.000
   -531271.746 9  20719126.859                        2342.023          54.000
    329710.941 9  21724177.453                       -1512.522          49.000
    625274.101 8  25301955.634                       -2798.752          39.000
   -226247.972 9  20345565.919                         956.996          54.000
 17  4 10 16 14 27.0000000  0 10G21G31G02G05G06G14G29G12G24G25
   -298066.528 9  25203905.964                        4385.772          40.000
   -566714.008 9  22540577.651                        2468.733          49.000
    182357.025 9  22130588.635                        -861.764          48.000
   -796182.492 9  24031947.697                        3499.610          45.000
    574789.895 8  25089692.021                       -2573.700          38.000
    243454.539 9  25137996.216                       -1149.047          40.000
   -533613.366 9  20718681.268                        2341.586          54.000
    331223.768 9  21724465.332                       -1512.817          49.000
    628073.161 8  25302488.274                       -2798.939          39.000
   -227204.519 9  20345383.896                         956.488          54.000
 17  4 10 16 14 28.0000000  0 10G21G31G02G05G06G14G29G12G24G25
   -302452.247 9  25203071.338                        4385.874          41.000
   -569182.423 9  22540107.928                        2468.159          49.000
    183218.978 9  22130752.646                        -862.175          48.000
   -799681.933 9  24031281.781                        3499.292          46.000
    577363.721 8  25090181.748                       -2573.819          38.000
    244603.731 9  25138214.906                       -1149.323          40.000
   -535954.717 9  20718235.730                        2341.181          54.000
    332736.840 9  21724753.273                       -1513.253          49.000
    630872.034 8  25303020.887                       -2798.762          39.000
   -228160.673 9  20345201.953                         955.888          54.000
 17  4 10 16 14 29.0000000  0 10G21G31G02G05G06G14G29G12G24G25
   -306837.890 9  25202236.739                        4385.736          40.000
   -571650.273 9  22539638.303                        2467.692          49.000
    184081.351 9  22130916.746                        -862.480          48.000
   -803181.076 9  24030615.928                        3499.115          45.000
    579937.718 8  25090671.485                       -2574.022          38.000
    245753.226 9  25138433.659                       -1149.521          40.000
   -538295.708 9  20717790.265                        2340.951          54.000
    334250.218 9  21725041.268                       -1513.351          49.000
    633670.818 8  25303553.491                       -2798.496          39.000
   -229116.358 9  20345020.100                         955.602          54.000
 17  4 10 16 14 30.0000000  0 10G21G31G02G05G06G14G29G12G24G25
   -311223.426 9  25201402.139                        4385.391          41.000
   -574117.510 9  22539168.804                        2466.787          49.000
    184944.201 9  22131080.936                        -863.215          48.000
   -806679.868 9  24029950.137                        3498.477          45.000
    582511.867 8  25091161.275                       -2574.320          38.000
    246903.050 9  25138652.465                       -1150.162          40.000
   -540636.274 9  20717344.870                        2340.213          54.000
    335763.991 9  21725329.344                       -1514.088          49.000
    636469.627 8  25304086.095                       -2798.957          39.000
   -230071.492 9  20344838.354                         954.748          54.000
 17  4 10 16 14 31.0000000  0 10G21G31G02G05G06G14G29G12G24G25
   -315608.819 9  25200567.575                        4385.471          40.000
   -576584.107 9  22538699.420                        2466.544          49.000
    185807.555 9  22131245.223                        -863.385          48.000
   -810178.299 9  24029284.409                        3498.476          46.000
    585086.247 8  25091651.127                       -2574.198          38.000
    248053.244 9  25138871.343                       -1150.125          40.000
   -542976.397 9  20716899.565                        2340.151          54.000
    337278.157 9  21725617.491                       -1514.090          49.000
    639268.418 8  25304618.699                       -2798.579          39.000
   -231026.067 9  20344656.707                         954.529          54.000
 17  4 10 16 14 32.0000000  0 10G21G31G02G05G06G14G29G12G24G25
   -319994.266 9  25199733.020                        4385.487          41.000
   -579050.239 9  22538230.135                        2465.864          49.000
    186671.233 9  22131409.565                        -863.890          48.000
   -813676.524 9  24028618.734                        3498.130          46.000
    587660.681 8  25092140.953                       -2574.403          38.000
    249203.620 9  25139090.256                       -1150.432          40.000
   -545316.258 9  20716454.314                        2339.701          53.000
    338792.554 9  21725905.691                       -1514.532          49.000
    642067.057 9  25305151.286                       -2798.638          40.000
   -231980.245 9  20344475.149                         953.958          54.000
 17  4 10 16 14 33.0000000  0 10G21G31G02G05G06G14G29G12G24G25
   -324379.481 9  25198898.510                        4385.258          41.000
   -581515.656 9  22537760.984                        2465.176          49.000
    187535.481 9  22131574.031                        -864.358          48.000
   -817174.303 9  24027953.149                        3497.698          45.000
    590235.404 8  25092630.859                       -2574.624          38.000
    250354.445 9  25139309.250                       -1150.959          40.000
   -547655.595 9  20716009.152                        2339.229          53.000
    340307.435 9  21726193.981                       -1514.956          49.000
    644865.759 8  25305683.872                       -2798.646          39.000
   -232933.792 9  20344293.707                         953.355          54.000
 17  4 10 16 14 34.0000000  0 10G21G31G02G05G06G14G29G12G24G25
   -328764.651 9  25198064.009                        4385.347          41.000
   -583980.513 9  22537291.931                        2464.679          49.000
    188400.151 9  22131738.569                        -864.776          48.000
   -820671.795 9  24027287.617                        3497.509          46.000
    592810.275 8  25093120.792                       -2574.888          38.000
    251505.552 9  25139528.297                       -1151.144          40.000
   -549994.579 9  20715564.061                        2338.941          53.000
    341822.630 9  21726482.325                       -1515.216          49.000
    647664.408 9  25306216.449                       -2798.448          40.000
   -233886.860 9  20344112.354                         952.959          54.000
 17  4 10 16 14 35.0000000  0 10G21G31G02G05G06G14G29G12G24G25
   -333149.759 9  25197229.526                        4384.878          40.000
   -586444.815 9  22536822.976                        2463.813          49.000
    189265.234 9  22131903.188                        -865.510          48.000
   -824168.992 9  24026622.130                        3496.849          45.000
    595385.260 8  25093610.743                       -2575.287          38.000
    252656.951 9  25139747.380                       -1151.797          40.000
   -552333.197 9  20715119.042                        2338.239          53.000
    343338.153 9  21726770.731                       -1515.875          49.000
    650462.992 9  25306749.009                       -2798.701          40.000
   -234839.444 9  20343931.091                         952.173          54.000
 17  4 10 16 14 36.0000000  0 10G21G31G02G05G06G14G29G12G24G25
   -337534.814 9  25196395.042                        4385.134          41.000
   -588908.551 9  22536354.138                        2463.447          49.000
    190130.740 9  22132067.886                        -865.718          48.000
   -827665.889 9  24025956.705                        3496.753          45.000
    597960.413 8  25094100.720                       -2575.299          38.000
    253808.617 9  25139966.517                       -1151.749          40.000
   -554671.443 9  20714674.095                        2338.068          54.000
    344854.006 9  21727059.208                       -1515.973          49.000
    653261.492 9  25307281.559                       -2798.412          40.000
   -235791.532 9  20343749.925                         951.844          54.000
 17  4 10 16 14 37.0000000  0 10G21G31G02G05G06G14G29G12G24G25
   -341919.726 9  25195560.577                        4384.971          41.000
   -591371.661 9  22535885.424                        2462.918          49.000
    190996.739 9  22132232.675                        -866.149          48.000
   -831162.428 9  24025291.352                        3496.456          46.000
    600535.754 8  25094590.707                       -2575.291          38.000
    254960.671 9  25140185.725                       -1152.066          40.000
   -557009.257 9  20714229.218                        2337.722          53.000
    346370.257 9  21727347.757                       -1516.292          49.000
    656059.988 9  25307814.110                       -2798.284          40.000
   -236743.073 9  20343568.859                         951.408          54.000
 17  4 10 16 14 38.0000000  0 10G21G31G02G05G06G14G29G12G24G25
   -346304.615 9  25194726.120                        4385.041          41.000
   -593834.257 9  22535416.800                        2462.551          49.000
    191863.104 9  22132397.543                        -866.332          48.000
   -834658.720 9  24024626.035                        3496.334          45.000
    603111.184 8  25095080.729                       -2575.137          38.000
    256112.943 9  25140404.978                       -1152.122          40.000
   -559346.763 9  20713784.414                        2337.570          53.000
    347886.776 9  21727636.360                       -1516.415          49.000
    658858.403 9  25308346.642                       -2798.172          40.000
   -237694.174 9  20343387.881                         951.137          54.000
 17  4 10 16 14 39.0000000  0 10G21G31G02G05G06G14G29G12G24G25
   -350689.704 9  25193891.610                        4385.204          41.000
   -596296.532 9  22534948.248                        2462.242          50.000
    192729.646 9  22132562.438                        -866.504          48.000
   -838154.953 9  24023960.735                        3496.299          46.000
    605686.531 8  25095570.760                       -2575.126          38.000
    257265.266 9  25140624.222                       -1152.195          40.000
   -561684.136 9  20713339.618                        2337.422          53.000
    349403.385 9  21727924.971                       -1516.549          49.000
    661656.484 9  25308879.121                       -2797.930          40.000
   -238645.027 9  20343206.939                         950.827          54.000
 17  4 10 16 14 40.0000000  0 10G21G31G02G05G06G14G29G12G24G25
   -355074.754 9  25193057.100                        4384.898          41.000
   -598758.258 9  22534479.794                        2461.273          50.000
    193596.589 9  22132727.405                        -867.279          48.000
   -841650.918 9  24023295.489                        3495.682          46.000
    608262.013 8  25096060.809                       -2575.687          38.000
    258417.866 9  25140843.529                       -1152.857          40.000
   -564021.166 9  20712894.894                        2336.714          53.000
    350920.291 9  21728213.645                       -1517.189          49.000
    664454.461 9  25309411.574                       -2798.073          41.000
   -239595.424 9  20343026.096                         950.041          54.000
 17  4 10 16 14 41.0000000  0 10G21G31G02G05G06G14G29G12G24G25
   -359459.592 9  25192222.643                        4384.937          41.000
   -601219.289 9  22534011.473                        2460.924          50.000
    194464.090 9  22132892.479                        -867.475          48.000
   -845146.440 9  24022630.315                        3495.587          45.000
    610837.738 8  25096550.894                       -2575.518          38.000
    259570.878 9  25141062.916                       -1152.919          40.000
   -566357.698 9  20712450.268                        2336.602          53.000
    352437.655 9  21728502.400                       -1517.282          49.000
    667252.507 9  25309944.044                       -2797.814          41.000
   -240545.198 9  20342845.360                         949.814          54.000
 17  4 10 16 14 42.0000000  0 10G21G31G02G05G06G14G29G12G24G25
   -363844.584 9  25191388.151                        4385.085          41.000
   -603679.959 9  22533543.215                        2460.525          50.000
    195331.814 9  22133057.607                        -867.802          49.000
   -848641.873 9  24021965.159                        3495.419          45.000
    613413.410 8  25097040.961                       -2575.623          38.000
    260723.969 9  25141282.312                       -1153.095          40.000
   -568694.056 9  20712005.669                        2336.310          54.000
    353955.147 9  21728791.190                       -1517.535          49.000
    670050.295 9  25310476.460                       -2797.634          41.000
   -241494.677 9  20342664.686                         949.338          54.000
 17  4 10 16 14 43.0000000  0 10G21G31G02G05G06G14G29G12G24G25
   -368229.581 9  25190553.668                        4384.930          41.000
   -606140.139 9  22533075.065                        2459.894          50.000
    196199.877 9  22133222.797                        -868.324          49.000
   -852137.080 9  24021300.047                        3495.022          46.000
    615989.156 8  25097531.063                       -2575.924          38.000
    261877.276 9  25141501.761                       -1153.482          40.000
   -571030.135 9  20711561.132                        2335.888          54.000
    355472.881 9  21729080.016                       -1517.881          49.000
    672847.920 9  25311008.850                       -2797.710          41.000
   -242443.761 9  20342484.084                         948.855          54.000
 17  4 10 16 14 44.0000000  0 10G21G31G02G05G06G14G29G12G24G25
   -372614.277 9  25189719.247                        4384.517          41.000
   -608599.515 9  22532607.057                        2459.017          50.000
    197068.610 9  22133388.112                        -869.022          49.000
   -855631.750 9  24020635.042                        3494.450          46.000
    618565.288 8  25098021.228                       -2576.279          38.000
    263031.108 9  25141721.291                       -1154.176          40.000
   -573365.599 9  20711116.703                        2335.200          53.000
    356991.188 9  21729368.958                       -1518.556          49.000
    675645.722 9  25311541.266                       -2797.890          41.000
   -243392.103 9  20342303.625                         948.064          54.000
 17  4 10 16 14 45.0000000  0 10G21G31G02G05G06G14G29G12G24G25
   -376998.839 9  25188884.853                        4384.688          41.000
   -611058.247 9  22532139.175                        2458.617          49.000
    197937.837 9  22133553.526                        -869.262          48.000
   -859126.045 9  24019970.109                        3494.234          46.000
    621141.617 8  25098511.429                       -2576.303          38.000
    264185.306 9  25141940.901                       -1154.204          40.000
   -575700.621 9  20710672.354                        2334.998          53.000
    358509.897 9  21729657.963                       -1518.722          49.000
    678443.524 9  25312073.692                       -2797.607          41.000
   -244339.886 9  20342123.264                         947.685          54.000
 17  4 10 16 14 46.0000000  0 10G21G31G02G05G06G14G29G12G24G25
   -381383.413 9  25188050.450                        4384.422          41.000
   -613516.492 9  22531671.391                        2457.819          49.000
    198807.404 9  22133719.002                        -869.889          49.000
   -862620.141 9  24019305.211                        3493.837          46.000
    623718.022 8  25099001.648                       -2576.639          38.000
    265339.718 9  25142160.547                       -1154.715          40.000
   -578035.359 9  20710228.067                        2334.439          53.000
    360028.849 9  21729947.021                       -1519.189          49.000
    681241.157 9  25312606.081                       -2797.685          42.000
   -245287.265 9  20341942.992                         947.013          54.000
 17  4 10 16 14 47.0000000  0 10G21G31G02G05G06G14G29G12G24G25
   -385767.886 9  25187216.056                        4384.644          41.000
   -615974.137 9  22531203.714                        2457.544          49.000
    199677.442 9  22133884.576                        -870.061          49.000
   -866113.878 9  24018640.386                        3493.736          46.000
    626294.600 8  25099491.920                       -2576.315          38.000
    266494.462 9  25142380.247                       -1154.656          40.000
   -580369.683 9  20709783.852                        2334.333          53.000
    361548.181 9  21730236.151                       -1519.235          49.000
    684038.773 9  25313138.462                       -2797.331          41.000
   -246234.103 9  20341762.810                         946.744          54.000
 17  4 10 16 14 48.0000000  0 10G21G31G02G05G06G14G29G12G24G25
   -390152.220 9  25186381.680                        4384.528          41.000
   -618431.152 9  22530736.153                        2456.950          49.000
    200547.970 9  22134050.240                        -870.547          48.000
   -869607.246 9  24017975.640                        3493.395          46.000
    628871.408 8  25099982.229                       -2576.693          38.000
    267649.555 9  25142600.018                       -1155.060          40.000
   -582703.574 9  20709339.727                        2333.892          53.000
    363067.908 9  21730525.352                       -1519.689          48.000
    686836.375 9  25313670.843                       -2797.310          41.000
   -247180.406 9  20341582.735                         946.219          54.000
 17  4 10 16 14 49.0000000  0 10G21G31G02G05G06G14G29G12G24G25
   -394536.616 9  25185547.312                        4384.205          41.000
   -620887.718 9  22530268.681                        2456.129          49.000
    201418.789 9  22134215.957                        -871.156          49.000
   -873100.465 9  24017310.903                        3492.975          46.000
    631448.194 8  25100472.528                       -2576.804          38.000
    268804.801 9  25142819.816                       -1155.499          40.000
   -585037.229 9  20708895.646                        2333.305          53.000
    364587.820 9  21730814.580                       -1520.194          49.000
    689633.786 9  25314203.179                       -2797.527          42.000
   -248126.342 9  20341402.740                         945.515          54.000
 17  4 10 16 14 50.0000000  0 10G21G31G02G05G06G14G29G12G24G25
   -398921.065 9  25184712.927                        4384.531          41.000
   -623343.827 9  22529801.299                        2455.985          49.000
    202289.931 9  22134381.737                        -871.234          48.000
   -876593.468 9  24016646.220                        3492.961          46.000
    634025.061 8  25100962.845                       -2576.905          38.000
    269960.251 9  25143039.659                       -1155.353          40.000
   -587370.619 9  20708451.609                        2333.358          54.000
    366107.971 9  21731103.862                       -1520.170          49.000
    692431.042 9  25314735.488                       -2797.042          42.000
   -249071.888 9  20341222.817                         945.420          54.000
 17  4 10 16 14 51.0000000  0 10G21G31G02G05G06G14G29G12G24G25
   -403305.463 9  25183878.551                        4384.457          41.000
   -625799.394 9  22529334.015                        2455.388          49.000
    203161.466 9  22134547.598                        -871.637          48.000
   -880086.204 9  24015981.573                        3492.653          45.000
    636602.021 8  25101453.189                       -2576.947          38.000
    271115.963 9  25143259.546                       -1155.697          40.000
   -589703.663 9  20708007.645                        2332.949          54.000
    367628.419 9  21731393.188                       -1520.514          49.000
    695228.204 9  25315267.788                       -2797.034          42.000
   -250016.978 9  20341042.974                         944.929          54.000
 17  4 10 16 14 52.0000000  0 10G21G31G02G05G06G14G29G12G24G25
   -407689.768 9  25183044.193                        4384.534          41.000
   -628254.362 9  22528866.847                        2454.990          49.000
    204033.448 9  22134713.547                        -871.871          48.000
   -883578.623 9  24015316.997                        3492.584          46.000
    639179.153 8  25101943.559                       -2576.862          38.000
    272271.991 9  25143479.505                       -1155.891          40.000
   -592036.320 9  20707563.751                        2332.804          54.000
    369149.221 9  21731682.595                       -1520.630          49.000
    698025.333 9  25315800.071                       -2796.797          42.000
   -250961.548 9  20340863.229                         944.639          54.000
 17  4 10 16 14 53.0000000  0 10G21G31G02G05G06G14G29G12G24G25
   -412074.113 9  25182209.826                        4384.376          41.000
   -630708.869 9  22528399.769                        2454.314          49.000
    204905.751 9  22134879.550                        -872.429          48.000
   -887070.834 9  24014652.457                        3492.125          45.000
    641756.331 8  25102433.930                       -2577.315          38.000
    273428.199 9  25143699.490                       -1156.321          40.000
   -594368.705 9  20707119.912                        2332.326          54.000
    370670.249 9  21731972.028                       -1521.089          49.000
    700822.286 9  25316332.327                       -2796.783          42.000
   -251905.737 9  20340683.565                         944.068          54.000
 17  4 10 16 14 54.0000000  0 10G21G31G02G05G06G14G29G12G24G25
   -416458.313 9  25181375.476                        4384.334          42.000
   -633162.726 9  22527932.807                        2453.681          49.000
    205778.558 9  22135045.652                        -872.882          48.000
   -890562.676 9  24013987.980                        3491.800          45.000
    644333.713 8  25102924.327                       -2577.322          38.000
    274584.777 9  25143919.556                       -1156.612          40.000
   -596700.636 9  20706676.161                        2331.898          54.000
    372191.693 9  21732261.551                       -1521.517          49.000
    703619.241 9  25316864.582                       -2796.764          42.000
   -252849.350 9  20340504.017                         943.470          54.000
 17  4 10 16 14 55.0000000  0 10G21G31G02G05G06G14G29G12G24G25
   -420842.558 9  25180541.127                        4384.265          41.000
   -635616.152 9  22527465.925                        2453.282          49.000
    206651.659 9  22135211.816                        -873.232          48.000
   -894054.336 9  24013323.538                        3491.596          45.000
    646911.126 8  25103414.734                       -2577.450          38.000
    275741.502 9  25144139.658                       -1156.748          40.000
   -599032.332 9  20706232.446                        2331.622          54.000
    373713.324 9  21732551.109                       -1521.694          48.000
    706416.007 9  25317396.802                       -2796.649          42.000
   -253792.606 9  20340324.523                         943.084          54.000
 17  4 10 16 14 56.0000000  0 10G21G31G02G05G06G14G29G12G24G25
   -425226.770 9  25179706.787                        4384.284          42.000
   -638069.027 9  22526999.150                        2452.666          49.000
    207525.167 9  22135378.051                        -873.648          48.000
   -897545.716 9  24012659.150                        3491.370          45.000
    649488.653 8  25103905.176                       -2577.576          38.000
    276898.499 9  25144359.804                       -1157.007          40.000
   -601363.675 9  20705788.812                        2331.234          54.000
    375235.264 9  21732840.722                       -1522.003          48.000
    709212.682 9  25317929.004                       -2796.583          42.000
   -254735.386 9  20340145.127                         942.669          54.000
 17  4 10 16 14 57.0000000  0 10G21G31G02G05G06G14G29G12G24G25
   -429610.865 9  25178872.473                        4384.183          42.000
   -640521.296 9  22526532.501                        2452.185          49.000
    208399.137 9  22135544.376                        -873.984          48.000
   -901036.740 9  24011994.824                        3491.076          45.000
    652066.357 7  25104395.663                       -2577.486          37.000
    278055.839 9  25144580.013                       -1157.279          40.000
   -603694.608 9  20705345.249                        2330.913          54.000
    376757.585 9  21733130.405                       -1522.329          48.000
    712009.344 9  25318461.197                       -2796.457          43.000
   -255677.640 9  20339965.829                         942.204          54.000
 17  4 10 16 14 58.0000000  0 10G21G31G02G05G06G14G29G12G24G25
   -433994.881 9  25178038.168                        4384.165          42.000
   -642972.972 9  22526065.950                        2451.602          49.000
    209273.555 9  22135710.782                        -874.416          48.000
   -904527.445 9  24011330.552                        3490.747          45.000
    654644.238 7  25104886.176                       -2577.652          37.000
    279213.486 9  25144800.285                       -1157.661          40.000
   -606025.153 9  20704901.758                        2330.575          54.000
    378280.247 9  21733420.152                       -1522.595          48.000
    714805.961 9  25318993.390                       -2796.335          43.000
   -256619.378 9  20339786.621                         941.664          54.000
 17  4 10 16 14 59.0000000  0 10G21G31G02G05G06G14G29G12G24G25
   -438378.963 9  25177203.846                        4384.165          41.000
   -645424.213 9  22525599.497                        2451.052          49.000
    210148.262 9  22135877.240                        -874.808          48.000
   -908017.981 9  24010666.325                        3490.485          45.000
    657222.109 8  25105376.681                       -2577.731          38.000
    280371.273 9  25145020.592                       -1157.757          40.000
   -608355.462 9  20704458.312                        2330.249          54.000
    379803.110 9  21733709.942                       -1522.902          49.000
    717602.375 9  25319525.539                       -2796.257          43.000
   -257560.769 9  20339607.484                         941.259          54.000
 17  4 10 16 15  0.0000000  0 10G21G31G02G05G06G14G29G12G24G25
   -442763.010 9  25176369.532                        4384.215          42.000
   -647874.927 9  22525133.133                        2450.655          49.000
    211023.361 9  22136043.780                        -875.137          48.000
   -911508.243 9  24010002.142                        3490.301          45.000
    659800.119 7  25105867.213                       -2577.932          37.000
    281529.330 9  25145240.952                       -1157.996          40.000
   -610685.432 9  20704014.928                        2329.964          54.000
    381326.265 9  21733999.787                       -1523.113          48.000
    720398.673 9  25320057.687                       -2796.073          43.000
   -258501.702 9  20339428.436                         940.918          54.000
 17  4 10 16 15  1.0000000  0 10G21G31G02G05G06G14G29G12G24G25
   -447146.910 9  25175535.254                        4383.939          42.000
   -650324.980 9  22524666.894                        2449.833          49.000
    211898.958 9  22136210.408                        -875.784          48.000
   -914998.118 9  24009338.040                        3489.626          45.000
    662378.351 7  25106357.780                       -2578.296          37.000
    282687.747 9  25145461.394                       -1158.462          40.000
   -613014.956 9  20703571.633                        2329.351          54.000
    382849.832 9  21734289.712                       -1523.700          48.000
    723194.990 9  25320589.827                       -2796.296          42.000
   -259442.056 9  20339249.487                         940.164          54.000
 17  4 10 16 15  2.0000000  0 10G21G31G02G05G06G14G29G12G24G25
   -451530.844 9  25174700.958                        4383.960          42.000
   -652774.578 9  22524200.745                        2449.374          49.000
    212774.871 9  22136377.100                        -876.045          48.000
   -918487.815 9  24008673.974                        3489.601          45.000
    664956.606 7  25106848.356                       -2578.349          37.000
    283846.345 9  25145681.871                       -1158.688          40.000
   -615344.224 9  20703128.392                        2329.124          54.000
    384373.617 9  21734579.672                       -1523.884          49.000
    725991.118 9  25321121.930                       -2796.049          42.000
   -260382.036 9  20339070.618                         939.811          54.000
 17  4 10 16 15  3.0000000  0 10G21G31G02G05G06G14G29G12G24G25
   -455914.747 9  25173866.663                        4383.826          42.000
   -655223.643 9  22523734.703                        2448.811          50.000
    213651.176 9  22136543.871                        -876.443          48.000
   -921977.239 9  24008009.952                        3489.368          45.000
    667534.967 8  25107338.932                       -2578.321          38.000
    285005.212 9  25145902.392                       -1158.985          40.000
   -617673.158 9  20702685.204                        2328.824          54.000
    385897.699 9  21734869.696                       -1524.211          48.000
    728787.142 9  25321654.016                       -2795.944          43.000
   -261321.557 9  20338891.830                         939.386          54.000
 17  4 10 16 15  4.0000000  0 10G21G31G02G05G06G14G29G12G24G25
   -460298.602 9  25173032.385                        4383.860          42.000
   -657672.147 9  22523268.760                        2448.274          49.000
    214527.896 9  22136710.714                        -876.838          48.000
   -925466.362 9  24007345.975                        3489.023          45.000
    670113.459 8  25107829.553                       -2578.486          38.000
    286164.343 9  25146122.967                       -1159.175          40.000
   -620001.730 9  20702242.097                        2328.478          54.000
    387422.093 9  21735159.781                       -1524.473          48.000
    731583.086 9  25322186.084                       -2795.741          43.000
   -262260.598 9  20338713.139                         938.934          54.000
 17  4 10 16 15  5.0000000  0 10G21G31G02G05G06G14G29G12G24G25
   -464682.298 9  25172198.143                        4383.545          42.000
   -660119.998 9  22522802.950                        2447.533          49.000
    215405.119 9  22136877.656                        -877.457          48.000
   -928955.104 9  24006682.078                        3488.536          45.000
    672692.186 7  25108320.236                       -2578.954          37.000
    287323.858 9  25146343.614                       -1159.699          40.000
   -622329.849 9  20701799.061                        2327.886          54.000
    388946.910 9  21735449.947                       -1525.030          48.000
    734379.056 9  25322718.161                       -2795.977          43.000
   -263199.059 9  20338534.556                         938.175          54.000
 17  4 10 16 15  6.0000000  0 10G21G31G02G05G06G14G29G12G24G25
   -469065.932 9  25171363.909                        4383.605          42.000
   -662567.279 9  22522337.238                        2447.030          49.000
    216282.762 9  22137044.677                        -877.786          48.000
   -932443.543 9  24006018.235                        3488.437          45.000
    675271.028 7  25108810.929                       -2578.625          37.000
    288483.655 9  25146564.323                       -1159.859          40.000
   -624657.597 9  20701356.106                        2327.639          54.000
    390472.052 9  21735740.167                       -1525.205          49.000
    737174.952 9  25323250.220                       -2795.844          43.000
   -264137.029 9  20338356.063                         937.808          54.000
 17  4 10 16 15  7.0000000  0 10G21G31G02G05G06G14G29G12G24G25
   -473449.515 9  25170529.703                        4383.725          42.000
   -665014.012 9  22521871.634                        2446.705          49.000
    217160.809 9  22137211.780                        -878.026          48.000
   -935931.680 9  24005354.454                        3488.210          45.000
    677850.038 7  25109301.657                       -2578.830          37.000
    289643.713 9  25146785.086                       -1159.917          40.000
   -626984.994 9  20700913.223                        2327.459          54.000
    391997.510 9  21736030.449                       -1525.369          49.000
    739970.754 9  25323782.271                       -2795.646          43.000
   -265074.534 9  20338177.658                         937.522          54.000
 17  4 10 16 15  8.0000000  0 10G21G31G02G05G06G14G29G12G24G25
   -477833.076 9  25169695.497                        4383.436          42.000
   -667460.230 9  22521406.128                        2445.910          49.000
    218039.233 9  22137378.944                        -878.691          48.000
   -939419.573 9  24004690.718                        3487.707          45.000
    680429.111 8  25109792.403                       -2579.068          38.000
    290804.023 9  25147005.894                       -1160.440          40.000
   -629312.073 9  20700470.392                        2326.834          53.000
    393523.242 9  21736320.794                       -1525.942          49.000
    742766.417 9  25324314.285                       -2795.698          43.000
   -266011.596 9  20337999.334                         936.759          54.000
 17  4 10 16 15  9.0000000  0 10G21G31G02G05G06G14G29G12G24G25
   -482216.462 9  25168861.326                        4383.251          42.000
   -669905.758 9  22520940.748                        2445.189          49.000
    218918.189 9  22137546.216                        -879.251          48.000
   -942907.046 9  24004027.063                        3487.231          45.000
    683008.447 7  25110283.193                       -2579.490          37.000
    291964.755 9  25147226.791                       -1161.048          40.000
   -631638.669 9  20700027.661                        2326.320          53.000
    395049.418 9  21736611.211                       -1526.410          48.000
    745562.146 9  25324846.317                       -2795.745          42.000
   -266948.056 9  20337821.136                         936.185          54.000
 17  4 10 16 15 10.0000000  0 10G21G31G02G05G06G14G29G12G24G25
   -486599.785 9  25168027.173                        4383.499          42.000
   -672350.715 9  22520475.492                        2444.907          49.000
    219797.576 9  22137713.560                        -879.363          48.000
   -946394.212 9  24003363.461                        3487.220          45.000
    685587.928 7  25110774.011                       -2579.336          37.000
    293125.749 9  25147447.741                       -1160.987          40.000
   -633964.888 9  20699585.000                        2326.244          53.000
    396575.931 9  21736901.698                       -1526.490          49.000
    748357.806 9  25325378.332                       -2795.447          43.000
   -267884.024 9  20337643.026                         935.957          54.000
 17  4 10 16 15 11.0000000  0 10G21G31G02G05G06G14G29G12G24G25
   -490982.824 9  25167193.083                        4382.960          42.000
   -674794.894 9  22520010.370                        2443.848          49.000
    220677.586 9  22137881.019                        -880.248          48.000
   -949880.871 9  24002699.966                        3486.490          45.000
    688167.762 7  25111264.890                       -2579.953          37.000
    294287.246 9  25147668.790                       -1161.646          40.000
   -636290.534 9  20699142.438                        2325.425          53.000
    398102.970 9  21737192.284                       -1527.253          49.000
    751153.610 9  25325910.373                       -2795.833          43.000
   -268819.285 9  20337465.051                         934.986          54.000
 17  4 10 16 15 12.0000000  0 10G21G31G02G05G06G14G29G12G24G25
   -495365.814 9  25166358.984                        4382.823          42.000
   -677238.539 9  22519545.347                        2443.305          49.000
    221558.000 9  22138048.559                        -880.695          48.000
   -953367.239 9  24002036.525                        3486.133          45.000
    690747.699 8  25111755.806                       -2579.998          38.000
    295449.010 9  25147889.892                       -1162.038          40.000
   -638615.832 9  20698699.956                        2325.017          53.000
    399630.318 9  21737482.915                       -1527.662          48.000
    753949.307 9  25326442.387                       -2795.835          43.000
   -269754.095 9  20337287.164                         934.503          54.000
 17  4 10 16 15 13.0000000  0 10G21G31G02G05G06G14G29G12G24G25
   -499748.791 9  25165524.902                        4383.118          42.000
   -679681.649 9  22519080.430                        2442.983          49.000
    222438.791 9  22138216.170                        -880.816          48.000
   -956853.354 9  24001373.138                        3486.143          45.000
    693327.757 8  25112246.758                       -2580.000          38.000
    296611.000 9  25148111.048                       -1161.883          40.000
   -640940.804 9  20698257.528                        2324.969          53.000
    401157.942 9  21737773.608                       -1527.566          49.000
    756744.879 9  25326974.384                       -2795.380          43.000
   -270688.451 9  20337109.368                         934.354          54.000
 17  4 10 16 15 14.0000000  0 10G21G31G02G05G06G14G29G12G24G25
   -504131.624 9  25164690.839                        4382.884          42.000
   -682124.129 9  22518615.621                        2442.267          49.000
    223320.083 9  22138383.880                        -881.446          48.000
   -960339.093 9  24000709.822                        3485.685          45.000
    695908.031 7  25112737.736                       -2580.374          37.000
    297773.368 9  25148332.258                       -1162.301          40.000
   -643265.338 9  20697815.190                        2324.421          54.000
    402685.970 9  21738064.382                       -1528.128          48.000
    759540.458 9  25327506.389                       -2795.479          43.000
   -271622.230 9  20336931.669                         933.608          54.000
 17  4 10 16 15 15.0000000  0 10G21G31G02G05G06G14G29G12G24G25
   -508514.389 9  25163856.793                        4382.808          42.000
   -684566.036 9  22518150.937                        2441.657          49.000
    224201.791 9  22138551.670                        -881.897          48.000
   -963824.518 9  24000046.559                        3485.306          45.000
    698488.409 8  25113228.732                       -2580.308          38.000
    298936.011 9  25148553.521                       -1162.619          40.000
   -645589.499 9  20697372.922                        2323.967          53.000
    404214.331 9  21738355.209                       -1528.492          48.000
    762335.966 9  25328038.368                       -2795.444          43.000
   -272555.535 9  20336754.069                         933.135          54.000
 17  4 10 16 15 16.0000000  0 10G21G31G02G05G06G14G29G12G24G25
   -512897.247 9  25163022.730                        4382.926          43.000
   -687007.546 9  22517686.334                        2441.412          49.000
    225083.754 9  22138719.505                        -882.065          48.000
   -967309.806 9  23999383.333                        3485.215          45.000
    701068.792 8  25113719.737                       -2580.466          38.000
    300098.794 9  25148774.811                       -1162.853          40.000
   -647913.464 9  20696930.682                        2323.891          53.000
    405742.851 9  21738646.072                       -1528.581          49.000
    765131.243 9  25328570.311                       -2795.061          43.000
   -273488.508 9  20336576.531                         932.864          54.000
 17  4 10 16 15 17.0000000  0 10G21G31G02G05G06G14G29G12G24G25
   -517279.959 9  25162188.693                        4382.822          43.000
   -689448.392 9  22517221.846                        2440.739          49.000
    225966.225 9  22138887.429                        -882.568          48.000
   -970794.718 9  23998720.169                        3484.883          45.000
    703649.388 7  25114210.787                       -2580.556          37.000
    301261.929 9  25148996.163                       -1163.141          40.000
   -650236.970 9  20696488.531                        2323.463          54.000
    407271.789 9  21738937.016                       -1528.951          49.000
    767926.554 9  25329102.254                       -2795.207          43.000
   -274420.907 9  20336399.101                         932.296          54.000
 17  4 10 16 15 18.0000000  0 10G21G31G02G05G06G14G29G12G24G25
   -521662.624 9  25161354.666                        4382.824          43.000
   -691888.706 9  22516757.466                        2440.278          49.000
    226849.084 9  22139055.434                        -882.886          48.000
   -974279.348 9  23998057.058                        3484.642          45.000
    706230.107 8  25114701.854                       -2580.805          38.000
    302425.326 8  25149217.561                       -1163.368          39.000
   -652560.135 9  20696046.442                        2323.167          54.000
    408801.021 9  21739228.022                       -1529.200          49.000
    770721.756 9  25329634.179                       -2795.044          43.000
   -275352.841 9  20336221.769                         931.865          54.000
 17  4 10 16 15 19.0000000  0 10G21G31G02G05G06G14G29G12G24G25
   -526045.281 9  25160520.647                        4382.723          43.000
   -694328.490 9  22516293.184                        2439.609          49.000
    227732.315 9  22139223.510                        -883.302          48.000
   -977763.719 9  23997394.001                        3484.362          45.000
    708810.907 8  25115192.966                       -2580.711          38.000
    303588.969 8  25149439.011                       -1163.705          39.000
   -654882.980 9  20695604.416                        2322.805          54.000
    410330.531 9  21739519.072                       -1529.481          48.000
    773516.856 9  25330166.077                       -2795.040          42.000
   -276284.334 9  20336044.508                         931.423          54.000
 17  4 10 16 15 20.0000000  0 10G21G31G02G05G06G14G29G12G24G25
   -530427.870 9  25159686.628                        4382.793          43.000
   -696767.725 9  22515829.001                        2439.180          49.000
    228615.963 9  22139391.666                        -883.670          48.000
   -981247.789 9  23996730.998                        3484.093          45.000
    711391.844 8  25115684.061                       -2580.835          38.000
    304752.882 8  25149660.498                       -1163.823          39.000
   -657205.458 9  20695162.462                        2322.482          54.000
    411860.376 9  21739810.195                       -1529.832          48.000
    776311.866 9  25330697.967                       -2794.802          42.000
   -277215.349 9  20335867.345                         931.048          54.000
 17  4 10 16 15 21.0000000  0 10G21G31G02G05G06G14G29G12G24G25
   -534810.390 9  25158852.636                        4382.459          43.000
   -699206.380 9  22515364.933                        2438.434          49.000
    229500.032 9  22139559.894                        -884.235          48.000
   -984731.557 9  23996068.048                        3483.589          44.000
    713972.933 8  25116175.164                       -2581.273          38.000
    305917.090 8  25149882.038                       -1164.260          39.000
   -659527.567 9  20694720.579                        2321.959          53.000
    413390.539 9  21740101.370                       -1530.283          48.000
    779106.790 9  25331229.829                       -2794.836          42.000
   -278145.869 9  20335690.272                         930.372          54.000
 17  4 10 16 15 22.0000000  0 10G21G31G02G05G06G14G29G12G24G25
   -539192.918 9  25158018.644                        4382.509          43.000
   -701644.546 9  22514900.955                        2437.906          48.000
    230384.438 9  22139728.194                        -884.529          48.000
   -988215.108 9  23995405.152                        3483.360          45.000
    716554.055 7  25116666.285                       -2581.068          37.000
    307081.502 8  25150103.614                       -1164.515          39.000
   -661849.387 9  20694278.749                        2321.660          53.000
    414920.951 9  21740392.591                       -1530.558          48.000
    781901.575 9  25331761.674                       -2794.709          42.000
   -279075.978 9  20335513.280                         929.899          54.000
 17  4 10 16 15 23.0000000  0 10G21G31G02G05G06G14G29G12G24G25
   -543575.411 9  25157184.661                        4382.420          43.000
   -704082.167 9  22514437.084                        2437.220          49.000
    231269.248 9  22139896.564                        -885.116          48.000
   -991698.382 9  23994742.292                        3483.006          45.000
    719135.332 8  25117157.442                       -2581.468          38.000
    308246.181 8  25150325.243                       -1164.972          39.000
   -664170.861 9  20693836.982                        2321.169          53.000
    416451.668 9  21740683.874                       -1531.000          49.000
    784696.274 9  25332293.492                       -2794.749          42.000
   -280005.623 9  20335336.376                         929.289          54.000
 17  4 10 16 15 24.0000000  0 10G21G31G02G05G06G14G29G12G24G25
   -547957.826 9  25156350.696                        4382.487          43.000
   -706519.217 9  22513973.321                        2436.825          49.000
    232154.483 9  22140065.016                        -885.397          48.000
   -995181.340 9  23994079.503                        3482.859          45.000
    721716.745 8  25117648.644                       -2581.727          38.000
    309411.143 8  25150546.935                       -1165.005          39.000
   -666491.962 9  20693395.296                        2320.983          53.000
    417982.718 9  21740975.228                       -1531.179          48.000
    787490.905 9  25332825.310                       -2794.535          42.000
   -280934.775 9  20335159.562                         928.983          54.000
 17  4 10 16 15 25.0000000  0 10G21G31G02G05G06G14G29G12G24G25
   -552340.062 9  25155516.766                        4382.106          43.000
   -708955.589 9  22513509.682                        2436.050          49.000
    233040.250 9  22140233.565                        -886.043          48.000
   -998663.886 9  23993416.785                        3482.398          45.000
    724298.374 7  25118139.890                       -2581.698          37.000
    310576.499 8  25150768.708                       -1165.397          39.000
   -668812.582 9  20692953.699                        2320.397          53.000
    419514.197 9  21741266.654                       -1531.625          48.000
    790285.589 9  25333357.127                       -2794.689          42.000
   -281863.321 9  20334982.874                         928.277          54.000
 17  4 10 16 15 26.0000000  0 10G21G31G02G05G06G14G29G12G24G25
   -556722.193 9  25154682.846                        4382.384          43.000
   -711391.355 9  22513046.169                        2435.696          49.000
    233926.465 9  22140402.204                        -886.143          48.000
  -1002146.095 9  23992754.131                        3482.398          45.000
    726880.207 8  25118631.163                       -2581.776          38.000
    311742.198 9  25150990.534                       -1165.640          40.000
   -671132.803 9  20692512.173                        2320.299          54.000
    421046.042 9  21741558.160                       -1531.720          49.000
    793080.231 9  25333888.936                       -2794.300          42.000
   -282791.346 9  20334806.274                         928.054          54.000
 17  4 10 16 15 27.0000000  0 10G21G31G02G05G06G14G29G12G24G25
   -561104.313 9  25153848.934                        4382.018          43.000
   -713826.610 9  22512582.744                        2434.913          49.000
    234813.063 9  22140570.915                        -886.908          48.000
  -1005628.027 9  23992091.529                        3481.630          45.000
    729462.106 8  25119122.463                       -2582.137          38.000
    312908.106 8  25151212.414                       -1166.043          39.000
   -673452.693 9  20692070.710                        2319.621          53.000
    422578.166 9  21741849.711                       -1532.373          49.000
    795874.758 9  25334420.727                       -2794.579          42.000
   -283718.924 9  20334629.764                         927.235          54.000
 17  4 10 16 15 28.0000000  0 10G21G31G02G05G06G14G29G12G24G25
   -565486.334 9  25153015.041                        4382.007          43.000
   -716261.261 9  22512119.436                        2434.379          49.000
    235700.098 9  22140739.705                        -887.236          48.000
  -1009109.643 9  23991428.991                        3481.413          45.000
    732044.189 7  25119613.798                       -2582.097          37.000
    314074.350 8  25151434.356                       -1166.402          39.000
   -675772.187 9  20691629.327                        2319.344          53.000
    424110.647 9  21742141.325                       -1532.666          48.000
    798669.219 9  25334952.510                       -2794.337          42.000
   -284645.988 9  20334453.352                         926.792          54.000
 17  4 10 16 15 29.0000000  0 10G21G31G02G05G06G14G29G12G24G25
   -569868.390 9  25152181.147                        4382.166          43.000
   -718695.458 9  22511656.218                        2434.203          49.000
    236587.451 9  22140908.559                        -887.350          48.000
  -1012591.068 9  23990766.497                        3481.495          45.000
    734626.294 7  25120105.134                       -2581.925          37.000
    315240.752 8  25151656.334                       -1166.304          39.000
   -678091.422 9  20691187.980                        2319.316          53.000
    425643.338 9  21742432.983                       -1532.599          49.000
    801463.518 9  25335484.247                       -2794.030          42.000
   -285572.683 9  20334277.011                         926.664          54.000
 17  4 10 16 15 30.0000000  0 10G21G31G02G05G06G14G29G12G24G25
   -574250.530 9  25151347.226                        4382.261          43.000
   -721129.228 9  22511193.088                        2433.731          49.000
    237475.072 9  22141077.466                        -887.575          48.000
  -1016072.329 9  23990104.020                        3481.351          45.000
    737208.415 8  25120596.478                       -2582.076          38.000
    316407.290 9  25151878.330                       -1166.369          40.000
   -680410.433 9  20690746.687                        2319.063          53.000
    427176.212 9  21742724.677                       -1532.788          49.000
    804257.560 9  25336015.949                       -2793.722          43.000
   -286499.023 9  20334100.742                         926.315          54.000
 17  4 10 16 15 31.0000000  0 10G21G31G02G05G06G14G29G12G24G25
   -578632.504 9  25150513.342                        4382.022          43.000
   -723562.315 9  22510730.084                        2432.957          49.000
    238363.233 9  22141246.462                        -888.237          48.000
  -1019553.177 9  23989441.634                        3480.801          45.000
    739790.752 8  25121087.877                       -2582.365          38.000
    317574.228 9  25152100.397                       -1166.901          40.000
   -682728.959 9  20690305.483                        2318.483          53.000
    428709.532 9  21743016.451                       -1533.312          49.000
    807051.661 9  25336547.659                       -2793.877          42.000
   -287424.771 9  20333924.581                         925.647          54.000
 17  4 10 16 15 32.0000000  0 10G21G31G02G05G06G14G29G12G24G25
   -583014.555 9  25149679.448                        4381.812          43.000
   -725995.006 9  22510267.151                        2432.244          49.000
    239251.650 9  22141415.521                        -888.782          48.000
  -1023033.881 9  23988779.274                        3480.421          45.000
    742373.079 7  25121579.257                       -2582.483          37.000
    318741.286 9  25152322.491                       -1167.306          40.000
   -685047.286 9  20689864.323                        2317.991          54.000
    430243.008 9  21743308.261                       -1533.797          48.000
    809845.527 9  25337079.325                       -2793.936          42.000
   -288350.181 9  20333748.481                         925.046          54.000
 17  4 10 16 15 33.0000000  0 10G21G31G02G05G06G14G29G12G24G25
   -587396.388 9  25148845.590                        4381.761          43.000
   -728426.950 9  22509804.361                        2431.727          49.000
    240140.656 9  22141584.687                        -889.150          48.000
  -1026514.111 9  23988116.994                        3480.175          45.000
    744955.740 8  25122070.709                       -2582.585          38.000
    319908.807 9  25152544.674                       -1167.540          40.000
   -687365.071 9  20689423.262                        2317.690          54.000
    431776.990 9  21743600.170                       -1534.089          49.000
    812639.490 9  25337611.018                       -2793.741          42.000
   -289274.923 9  20333572.516                         924.567          54.000
 17  4 10 16 15 34.0000000  0 10G21G31G02G05G06G14G29G12G24G25
   -591778.166 9  25148011.750                        4381.942          43.000
   -730858.362 9  22509341.670                        2431.280          49.000
    241030.045 9  22141753.924                        -889.432          48.000
  -1029994.062 9  23987454.777                        3479.992          45.000
    747538.497 8  25122562.160                       -2582.739          38.000
    321076.577 9  25152766.894                       -1167.763          40.000
   -689682.517 9  20688982.264                        2317.422          54.000
    433311.270 9  21743892.141                       -1534.281          49.000
    815433.364 9  25338142.693                       -2793.634          42.000
   -290199.212 9  20333396.631                         924.192          54.000
 17  4 10 16 15 35.0000000  0 10G21G31G02G05G06G14G29G12G24G25
   -596159.873 9  25147177.928                        4381.479          43.000
   -733289.204 9  22508879.086                        2430.455          49.000
    241919.854 9  22141923.242                        -890.105          48.000
  -1033473.700 9  23986792.622                        3479.322          45.000
    750121.368 8  25123053.657                       -2582.891          38.000
    322244.627 8  25152989.175                       -1168.235          39.000
   -691999.600 9  20688541.328                        2316.808          54.000
    434845.872 9  21744184.165                       -1534.857          49.000
    818227.176 9  25338674.350                       -2793.951          42.000
   -291123.014 9  20333220.845                         923.432          54.000
 17  4 10 16 15 36.0000000  0 10G21G31G02G05G06G14G29G12G24G25
   -600541.524 9  25146344.114                        4381.620          43.000
   -735719.485 9  22508416.608                        2430.009          49.000
    242810.077 9  22142092.641                        -890.422          48.000
  -1036953.059 9  23986130.513                        3479.209          45.000
    752704.400 7  25123545.180                       -2583.186          37.000
    323412.954 8  25153211.502                       -1168.464          39.000
   -694316.319 9  20688100.472                        2316.567          54.000
    436380.791 9  21744476.252                       -1535.050          49.000
    821020.906 9  25339205.998                       -2793.685          42.000
   -292046.337 9  20333045.148                         923.083          54.000
 17  4 10 16 15 37.0000000  0 10G21G31G02G05G06G14G29G12G24G25
   -604923.101 9  25145510.319                        4381.755          43.000
   -738149.200 9  22507954.247                        2429.701          49.000
    243700.719 9  22142262.110                        -890.684          48.000
  -1040432.098 9  23985468.456                        3479.012          45.000
    755287.543 8  25124036.730                       -2582.976          38.000
    324581.579 8  25153433.882                       -1168.603          39.000
   -696632.666 9  20687659.688                        2316.398          54.000
    437916.033 9  21744768.402                       -1535.122          49.000
    823814.560 9  25339737.637                       -2793.396          43.000
   -292969.160 9  20332869.549                         922.784          54.000
 17  4 10 16 15 38.0000000  0 10G21G31G02G05G06G14G29G12G24G25
   -609304.645 9  25144676.524                        4381.825          43.000
   -740578.371 9  22507491.976                        2429.161          49.000
    244591.738 9  22142431.661                        -890.954          48.000
  -1043910.879 9  23984806.463                        3478.806          45.000
    757870.805 8  25124528.298                       -2583.128          38.000
    325750.422 8  25153656.306                       -1168.550          39.000
   -698948.680 9  20687218.957                        2316.103          54.000
    439451.573 9  21745060.605                       -1535.414          48.000
    826608.124 9  25340269.268                       -2793.310          43.000
   -293891.525 9  20332694.030                         922.362          54.000
 17  4 10 16 15 39.0000000  0 10G21G31G02G05G06G14G29G12G24G25
   -613686.246 9  25143842.719                        4381.733          43.000
   -743007.111 9  22507029.794                        2428.650          49.000
    245483.048 9  22142601.256                        -891.271          48.000
  -1047389.489 9  23984144.505                        3478.645          45.000
    760454.068 7  25125019.875                       -2583.065          37.000
    326919.451 8  25153878.758                       -1168.908          39.000
   -701264.458 9  20686778.280                        2315.831          54.000
    440987.302 9  21745352.844                       -1535.625          48.000
    829401.466 9  25340800.853                       -2793.067          42.000
   -294813.543 9  20332518.583                         922.007          54.000
 17  4 10 16 15 40.0000000  0 10G21G31G02G05G06G14G29G12G24G25
   -618067.734 9  25143008.942                        4381.653          43.000
   -745435.220 9  22506567.727                        2427.977          49.000
    246374.841 9  22142770.940                        -891.864          48.000
  -1050867.728 9  23983482.609                        3478.198          45.000
    763037.516 8  25125511.478                       -2583.282          38.000
    328088.813 8  25154101.281                       -1169.372          39.000
   -703579.806 9  20686337.675                        2315.308          54.000
    442523.424 9  21745645.154                       -1536.145          48.000
    832194.787 9  25341332.430                       -2793.157          42.000
   -295735.000 9  20332343.235                         921.306          54.000
 17  4 10 16 15 41.0000000  0 10G21G31G02G05G06G14G29G12G24G25
   -622448.971 9  25142175.209                        4381.638          43.000
   -747862.595 9  22506105.804                        2427.491          49.000
    247267.213 9  22142940.740                        -892.151          48.000
  -1054345.505 9  23982820.812                        3478.013          45.000
    765621.301 8  25126003.162                       -2583.459          38.000
    329258.615 8  25154323.884                       -1169.529          39.000
   -705894.617 9  20685897.186                        2315.011          54.000
    444060.033 9  21745937.563                       -1536.383          49.000
    834988.212 9  25341864.024                       -2793.100          42.000
   -296655.815 9  20332168.011                         920.952          54.000
 17  4 10 16 15 42.0000000  0 10G21G31G02G05G06G14G29G12G24G25
   -626830.339 9  25141341.467                        4381.270          43.000
   -750289.594 9  22505643.953                        2426.688          49.000
    248159.820 9  22143110.585                        -892.892          48.000
  -1057823.157 9  23982159.024                        3477.434          45.000
    768205.005 8  25126494.820                       -2583.831          38.000
    330428.518 8  25154546.496                       -1170.138          39.000
   -708209.254 9  20685456.714                        2314.389          53.000
    445596.772 9  21746229.998                       -1536.937          48.000
    837781.361 9  25342395.565                       -2793.190          42.000
   -297576.331 9  20331992.841                         920.215          54.000
 17  4 10 16 15 43.0000000  0 10G21G31G02G05G06G14G29G12G24G25
   -631211.623 9  25140507.743                        4381.333          43.000
   -752716.003 9  22505182.208                        2426.272          49.000
    249052.856 9  22143280.511                        -893.093          48.000
  -1061300.499 9  23981497.316                        3477.393          45.000
    770788.878 8  25126986.521                       -2583.845          38.000
    331598.715 8  25154769.180                       -1170.239          39.000
   -710523.507 9  20685016.323                        2314.245          53.000
    447133.855 9  21746522.496                       -1537.070          48.000
    840574.454 9  25342927.097                       -2792.981          42.000
   -298496.340 9  20331817.778                         919.916          54.000
 17  4 10 16 15 44.0000000  0 10G21G31G02G05G06G14G29G12G24G25
   -635592.937 9  25139674.010                        4381.248          43.000
   -755141.941 9  22504720.562                        2425.655          49.000
    249946.228 9  22143450.508                        -893.612          48.000
  -1064777.617 9  23980835.635                        3476.962          45.000
    773372.778 8  25127478.214                       -2583.915          38.000
    332769.097 8  25154991.882                       -1170.575          39.000
   -712837.477 9  20684575.986                        2313.735          53.000
    448671.170 9  21746815.039                       -1537.476          48.000
    843367.397 9  25343458.602                       -2792.948          43.000
   -299415.949 9  20331642.787                         919.344          54.000
 17  4 10 16 15 45.0000000  0 10G21G31G02G05G06G14G29G12G24G25
   -639974.107 9  25138840.304                        4381.207          43.000
   -757567.240 9  22504259.032                        2425.165          48.000
    250840.094 9  22143620.594                        -893.933          48.000
  -1068254.369 9  23980174.026                        3476.779          45.000
    775956.883 8  25127969.952                       -2583.907          38.000
    333939.821 8  25155214.664                       -1170.715          39.000
   -715151.014 9  20684135.729                        2313.508          54.000
    450208.880 9  21747107.653                       -1537.723          48.000
    846160.342 9  25343990.099                       -2792.823          43.000
   -300335.005 9  20331467.894                         918.984          54.000
 17  4 10 16 15 46.0000000  0 10G21G31G02G05G06G14G29G12G24G25
   -644355.028 9  25138006.652                        4381.109          43.000
   -759991.778 9  22503797.654                        2424.505          48.000
    251734.564 9  22143790.787                        -894.427          48.000
  -1071730.614 9  23979512.514                        3476.362          45.000
    778541.321 8  25128461.761                       -2584.290          38.000
    335111.030 8  25155437.535                       -1171.120          39.000
   -717463.994 9  20683695.579                        2313.066          53.000
    451747.110 9  21747400.384                       -1538.169          48.000
    848953.385 9  25344521.622                       -2792.740          43.000
   -301253.382 9  20331293.135                         918.405          54.000
 17  4 10 16 15 47.0000000  0 10G21G31G02G05G06G14G29G12G24G25
   -648735.876 9  25137173.008                        4380.823          43.000
   -762415.755 9  22503336.365                        2423.745          49.000
    252629.452 9  22143961.061                        -895.068          48.000
  -1075206.561 9  23978851.066                        3475.906          45.000
    781125.891 8  25128953.588                       -2584.539          38.000
    336282.511 8  25155660.460                       -1171.564          39.000
   -719776.613 9  20683255.501                        2312.487          53.000
    453285.657 9  21747693.159                       -1538.660          48.000
    851746.345 9  25345053.136                       -2792.881          43.000
   -302171.273 9  20331118.465                         917.725          54.000
 17  4 10 16 15 48.0000000  0 10G21G31G02G05G06G14G29G12G24G25
   -653116.751 9  25136339.356                        4380.959          43.000
   -764839.248 9  22502875.183                        2423.403          49.000
    253524.663 9  22144131.398                        -895.229          48.000
  -1078682.290 9  23978189.662                        3475.798          45.000
    783710.499 8  25129445.406                       -2584.498          38.000
    337454.180 8  25155883.439                       -1171.607          39.000
   -722088.956 9  20682815.476                        2312.359          54.000
    454824.442 9  21747985.978                       -1538.741          49.000
    854539.126 9  25345584.605                       -2792.567          43.000
   -303088.762 9  20330943.876                         917.426          54.000
 17  4 10 16 15 49.0000000  0 10G21G31G02G05G06G14G29G12G24G25
   -657497.669 9  25135505.703                        4381.012          43.000
   -767262.281 9  22502414.082                        2422.905          49.000
    254420.193 9  22144301.806                        -895.634          48.000
  -1082157.824 9  23977528.285                        3475.467          46.000
    786295.158 8  25129937.251                       -2584.637          38.000
    338626.029 8  25156106.453                       -1171.810          39.000
   -724401.038 9  20682375.505                        2311.975          54.000
    456363.445 9  21748278.843                       -1539.047          49.000
    857331.733 9  25346116.039                       -2792.401          43.000
   -304005.867 9  20330769.349                         916.940          54.000
 17  4 10 16 15 50.0000000  0 10G21G31G02G05G06G14G29G12G24G25
   -661878.458 9  25134672.060                        4380.760          43.000
   -769684.680 9  22501953.097                        2421.995          49.000
    255316.188 9  22144472.294                        -896.311          47.000
  -1085633.004 9  23976866.988                        3474.947          45.000
    788880.004 8  25130429.114                       -2585.127          38.000
    339798.215 8  25156329.521                       -1172.377          39.000
   -726712.699 9  20681935.605                        2311.382          53.000
    457902.827 9  21748571.779                       -1539.613          48.000
    860124.315 9  25346647.472                       -2792.632          43.000
   -304922.431 9  20330594.938                         916.204          54.000
 17  4 10 16 15 51.0000000  0 10G21G31G02G05G06G14G29G12G24G25
   -666259.205 9  25133838.434                        4380.751          43.000
   -772106.544 9  22501492.219                        2421.588          48.000
    256212.568 9  22144642.854                        -896.522          48.000
  -1089107.908 9  23976205.736                        3474.781          46.000
    791464.929 8  25130920.994                       -2584.871          38.000
    340970.657 8  25156552.660                       -1172.570          39.000
   -729024.021 9  20681495.777                        2311.187          54.000
    459442.507 9  21748864.768                       -1539.789          49.000
    862916.777 9  25347178.879                       -2792.347          43.000
   -305838.529 9  20330420.617                         915.918          54.000
 17  4 10 16 15 52.0000000  0 10G21G31G02G05G06G14G29G12G24G25
   -670639.912 9  25133004.817                        4380.667          43.000
   -774527.880 9  22501031.431                        2421.028          49.000
    257109.326 9  22144813.485                        -896.945          48.000
  -1092582.557 9  23975544.537                        3474.556          46.000
    794049.959 8  25131412.902                       -2585.021          38.000
    342143.327 8  25156775.827                       -1172.749          39.000
   -731335.020 9  20681056.003                        2310.855          53.000
    460982.464 9  21749157.811                       -1540.080          49.000
    865709.149 9  25347710.268                       -2792.340          43.000
   -306754.188 9  20330246.367                         915.425          54.000
 17  4 10 16 15 53.0000000  0 10G21G31G02G05G06G14G29G12G24G25
   -675020.483 9  25132171.227                        4380.582          43.000
   -776948.547 9  22500570.776                        2420.457          48.000
    258006.600 9  22144984.215                        -897.421          48.000
  -1096056.789 9  23974883.428                        3474.152          46.000
    796635.250 8  25131904.872                       -2585.329          38.000
    343316.378 8  25156999.073                       -1173.061          39.000
   -733645.546 9  20680616.326                        2310.371          54.000
    462522.851 9  21749450.943                       -1540.513          48.000
    868501.535 9  25348241.657                       -2792.286          43.000
   -307669.254 9  20330072.243                         914.840          54.000
 17  4 10 16 15 54.0000000  0 10G21G31G02G05G06G14G29G12G24G25
   -679400.998 9  25131337.646                        4380.476          43.000
   -779368.669 9  22500110.220                        2419.875          48.000
    258904.260 9  22145155.025                        -897.833          48.000
  -1099530.746 9  23974222.372                        3473.762          46.000
    799220.621 8  25132396.851                       -2585.471          38.000
    344489.695 8  25157222.365                       -1173.470          39.000
   -735955.738 9  20680176.704                        2310.014          54.000
    464063.527 9  21749744.129                       -1540.801          49.000
    871293.803 9  25348773.028                       -2792.211          43.000
   -308583.866 9  20329898.198                         914.407          54.000
 17  4 10 16 15 55.0000000  0 10G21G31G02G05G06G14G29G12G24G25
   -683781.339 9  25130504.101                        4380.191          43.000
   -781788.108 9  22499649.789                        2419.007          48.000
    259802.454 9  22145325.933                        -898.514          48.000
  -1103004.290 9  23973561.397                        3473.270          46.000
    801806.246 8  25132888.883                       -2585.697          38.000
    345663.401 8  25157445.727                       -1174.027          39.000
   -738265.448 9  20679737.188                        2309.415          54.000
    465604.648 9  21750037.396                       -1541.381          49.000
    874086.112 9  25349304.400                       -2792.359          43.000
   -309497.874 9  20329724.270                         913.650          54.000
 17  4 10 16 15 56.0000000  0 10G21G31G02G05G06G14G29G12G24G25
   -688161.635 9  25129670.574                        4380.229          42.000
   -784207.017 9  22499189.465                        2418.651          48.000
    260701.033 9  22145496.922                        -898.774          48.000
  -1106477.547 9  23972900.476                        3473.144          46.000
    804391.973 8  25133380.942                       -2585.922          38.000
    346837.344 8  25157669.135                       -1173.992          39.000
   -740574.827 9  20679297.727                        2309.215          54.000
    467146.060 9  21750330.725                       -1541.604          49.000
    876878.322 9  25349835.762                       -2792.199          44.000
   -310411.416 9  20329550.431                         913.302          54.000
 17  4 10 16 15 57.0000000  0 10G21G31G02G05G06G14G29G12G24G25
   -692541.851 9  25128837.064                        4380.351          43.000
   -786625.323 9  22498729.257                        2418.049          48.000
    261600.053 9  22145667.991                        -899.165          48.000
  -1109950.464 9  23972239.626                        3472.775          46.000
    806977.867 8  25133873.029                       -2585.979          38.000
    348011.606 8  25157892.596                       -1174.288          39.000
   -742883.810 9  20678858.336                        2308.865          53.000
    468687.817 9  21750624.125                       -1541.818          49.000
    879670.499 9  25350367.106                       -2792.062          44.000
   -311324.452 9  20329376.691                         912.916          54.000
 17  4 10 16 15 58.0000000  0 10G21G31G02G05G06G14G29G12G24G25
   -696921.893 9  25128003.582                        4380.182          43.000
   -789042.990 9  22498269.174                        2417.651          48.000
    262499.566 9  22145839.149                        -899.425          48.000
  -1113423.001 9  23971578.838                        3472.665          46.000
    809563.971 8  25134365.159                       -2585.972          38.000
    349186.237 8  25158116.129                       -1174.481          39.000
   -745192.345 9  20678419.035                        2308.613          54.000
    470229.994 9  21750917.606                       -1542.088          49.000
    882462.697 9  25350898.468                       -2791.925          43.000
   -312236.913 9  20329203.049                         912.521          54.000
 17  4 10 16 15 59.0000000  0 10G21G31G02G05G06G14G29G12G24G25
   -701302.034 9  25127170.081                        4380.230          43.000
   -791460.218 9  22497809.181                        2417.064          48.000
    263399.359 9  22146010.370                        -899.814          48.000
  -1116895.368 9  23970918.095                        3472.333          46.000
    812150.053 8  25134857.281                       -2585.925          39.000
    350361.013 8  25158339.679                       -1174.804          39.000
   -747500.656 9  20677979.788                        2308.296          54.000
    471772.343 9  21751211.123                       -1542.351          49.000
    885254.683 9  25351429.777                       -2791.822          44.000
   -313149.021 9  20329029.478                         912.005          54.000
 17  4 10 16 16  0.0000000  0 10G21G31G02G05G06G14G29G12G24G25
   -705682.129 9  25126336.580                        4380.299          43.000
   -793876.930 9  22497349.277                        2416.679          48.000
    264299.527 9  22146181.663                        -900.109          48.000
  -1120367.481 9  23970257.388                        3472.261          45.000
    814736.256 8  25135349.430                       -2585.871          38.000
    351536.003 8  25158563.265                       -1174.910          38.000
   -749808.638 9  20677540.594                        2308.076          54.000
    473314.986 9  21751504.693                       -1542.555          49.000
    888046.542 9  25351961.059                       -2791.563          44.000
   -314060.689 9  20328855.988                         911.666          54.000
 17  4 10 16 16  1.0000000  0 10G21G31G02G05G06G14G29G12G24G25
   -710062.136 9  25125503.107                        4379.906          42.000
   -796293.050 9  22496889.498                        2415.826          48.000
    265200.133 9  22146353.036                        -900.845          48.000
  -1123839.254 9  23969596.743                        3471.571          45.000
    817322.615 8  25135841.605                       -2586.505          38.000
    352711.304 8  25158786.914                       -1175.411          38.000
   -752116.229 9  20677101.481                        2307.395          54.000
    474857.975 9  21751798.334                       -1543.138          49.000
    890838.340 9  25352492.332                       -2791.790          43.000
   -314971.842 9  20328682.596                         910.883          54.000
 17  4 10 16 16  2.0000000  0 10G21G31G02G05G06G14G29G12G24G25
   -714442.080 9  25124669.642                        4380.382          43.000
   -798708.605 9  22496429.818                        2415.772          48.000
    266101.161 9  22146524.489                        -900.688          48.000
  -1127310.722 9  23968936.161                        3471.846          45.000
    819909.113 8  25136333.816                       -2586.161          38.000
    353886.884 8  25159010.616                       -1175.149          38.000
   -754423.455 9  20676662.439                        2307.543          54.000
    476401.291 9  21752092.030                       -1543.018          49.000
    893630.061 9  25353023.587                       -2791.172          44.000
   -315882.493 9  20328509.302                         910.918          54.000
 17  4 10 16 16  3.0000000  0 10G21G31G02G05G06G14G29G12G24G25
   -718822.028 9  25123836.177                        4379.900          42.000
   -801123.670 9  22495970.244                        2414.822          48.000
    267002.524 9  22146696.005                        -901.544          48.000
  -1130781.962 9  23968275.615                        3471.138          46.000
    822495.669 8  25136826.036                       -2586.531          38.000
    355062.665 8  25159234.363                       -1175.835          38.000
   -756730.389 9  20676223.451                        2306.792          54.000
    477944.849 9  21752385.779                       -1543.682          49.000
    896421.608 9  25353554.815                       -2791.359          44.000
   -316792.744 9  20328336.088                         910.069          54.000
 17  4 10 16 16  4.0000000  0 10G21G31G02G05G06G14G29G12G24G25
   -723202.064 9  25123002.703                        4380.069          42.000
   -803538.321 9  22495510.742                        2414.503          48.000
    267904.149 9  22146867.574                        -901.721          48.000
  -1134253.045 9  23967615.105                        3471.021          46.000
    825082.183 8  25137318.248                       -2586.443          38.000
    356238.598 8  25159458.146                       -1176.068          38.000
   -759037.112 9  20675784.498                        2306.656          54.000
    479488.574 9  21752679.545                       -1543.791          49.000
    899212.956 9  25354085.998                       -2791.165          44.000
   -317702.660 9  20328162.929                         909.811          54.000
 17  4 10 16 16  5.0000000  0 10G21G31G02G05G06G14G29G12G24G25
   -727581.912 9  25122169.265                        4379.866          42.000
   -805952.277 9  22495051.374                        2413.720          48.000
    268806.312 9  22147039.242                        -902.345          48.000
  -1137723.695 9  23966954.665                        3470.465          45.000
    827668.974 8  25137810.512                       -2586.830          38.000
    357414.895 8  25159681.991                       -1176.323          38.000
   -761343.344 9  20675345.644                        2306.064          54.000
    481032.748 9  21752973.401                       -1544.316          49.000
    902004.335 9  25354617.182                       -2791.341          44.000
   -318611.961 9  20327989.894                         909.078          54.000
 17  4 10 16 16  6.0000000  0 10G21G31G02G05G06G14G29G12G24G25
   -731961.650 9  25121335.854                        4379.776          42.000
   -808365.631 9  22494592.123                        2413.159          48.000
    269708.916 9  22147210.999                        -902.690          48.000
  -1141194.025 9  23966294.289                        3470.276          45.000
    830255.928 8  25138302.813                       -2586.937          38.000
    358591.538 8  25159905.917                       -1176.840          38.000
   -763649.183 9  20674906.870                        2305.756          54.000
    482577.272 9  21753267.329                       -1544.579          49.000
    904795.645 9  25355148.356                       -2791.125          44.000
   -319520.746 9  20327816.958                         908.675          54.000
 17  4 10 16 16  7.0000000  0 10G21G31G02G05G06G14G29G12G24G25
   -736341.491 9  25120502.416                        4379.995          42.000
   -810778.572 9  22494132.951                        2412.894          48.000
    270611.792 9  22147382.810                        -902.921          48.000
  -1144664.192 9  23965633.939                        3470.220          45.000
    832842.852 8  25138795.113                       -2586.838          38.000
    359768.269 8  25160129.860                       -1176.693          38.000
   -765954.806 9  20674468.132                        2305.691          54.000
    484121.974 9  21753561.283                       -1544.657          49.000
    907586.724 9  25355679.486                       -2790.780          44.000
   -320429.190 9  20327644.084                         908.416          54.000
 17  4 10 16 16  8.0000000  0 10G21G31G02G05G06G14G29G12G24G25
   -740721.324 9  25119668.987                        4379.739          42.000
   -813191.032 9  22493673.860                        2412.246          48.000
    271514.993 9  22147554.674                        -903.399          48.000
  -1148134.135 9  23964973.634                        3469.774          46.000
    835429.819 8  25139287.414                       -2586.956          38.000
    360945.214 8  25160353.848                       -1177.103          38.000
   -768260.146 9  20674029.447                        2305.202          54.000
    485666.917 9  21753855.282                       -1545.121          49.000
    910377.645 9  25356210.589                       -2790.830          44.000
   -321337.239 9  20327471.281                         907.854          54.000
 17  4 10 16 16  9.0000000  0 10G21G31G02G05G06G14G29G12G24G25
   -745100.952 9  25118835.593                        4379.619          42.000
   -815602.768 9  22493214.903                        2411.432          48.000
    272418.752 9  22147726.654                        -903.973          48.000
  -1151603.628 9  23964313.409                        3469.327          46.000
    838017.083 8  25139779.768                       -2587.424          38.000
    362122.580 8  25160577.908                       -1177.564          39.000
   -770564.970 9  20673590.852                        2304.639          54.000
    487212.349 9  21754149.380                       -1545.607          49.000
    913168.657 9  25356741.710                       -2791.027          44.000
   -322244.641 9  20327298.613                         907.156          54.000
 17  4 10 16 16 10.0000000  0 10G21G31G02G05G06G14G29G12G24G25
   -749480.547 9  25118002.209                        4379.770          42.000
   -818013.958 9  22492756.063                        2411.035          48.000
    273322.902 9  22147898.706                        -904.151          48.000
  -1155072.847 9  23963653.238                        3469.260          46.000
    840604.437 8  25140272.140                       -2587.138          38.000
    363300.203 8  25160802.030                       -1177.651          39.000
   -772869.460 9  20673152.328                        2304.498          54.000
    488758.071 9  21754443.522                       -1545.645          49.000
    915959.552 9  25357272.804                       -2790.740          44.000
   -323151.584 9  20327126.034                         906.904          54.000
 17  4 10 16 16 11.0000000  0 10G21G31G02G05G06G14G29G12G24G25
   -753860.075 9  25117168.834                        4379.460          42.000
   -820424.602 9  22492297.311                        2410.386          48.000
    274227.455 9  22148070.838                        -904.684          48.000
  -1158541.771 9  23962993.130                        3468.839          46.000
    843191.922 8  25140764.548                       -2587.502          38.000
    364478.096 8  25161026.188                       -1177.960          39.000
   -775173.591 9  20672713.867                        2303.978          54.000
    490304.111 9  21754737.726                       -1546.161          49.000
    918750.368 9  25357803.881                       -2790.764          44.000
   -324058.051 9  20326953.535                         906.228          54.000
 17  4 10 16 16 12.0000000  0 10G21G31G02G05G06G14G29G12G24G25
   -758239.560 9  25116335.458                        4379.282          42.000
   -822834.703 9  22491838.676                        2409.715          48.000
    275132.404 9  22148243.051                        -905.308          48.000
  -1162010.400 9  23962333.066                        3468.333          46.000
    845779.513 8  25141256.964                       -2587.838          38.000
    365656.246 8  25161250.400                       -1178.425          39.000
   -777477.385 9  20672275.469                        2303.475          54.000
    491850.448 9  21755031.984                       -1546.617          48.000
    921541.085 9  25358334.939                       -2790.842          44.000
   -324964.057 9  20326781.135                         905.605          54.000
 17  4 10 16 16 13.0000000  0 10G21G31G02G05G06G14G29G12G24G25
   -762618.959 9  25115502.100                        4379.444          42.000
   -825244.196 9  22491380.148                        2409.376          48.000
    276037.793 9  22148415.344                        -905.505          48.000
  -1165478.703 9  23961673.074                        3468.282          46.000
    848367.267 8  25141749.417                       -2587.873          38.000
    366834.691 8  25161474.674                       -1178.548          39.000
   -779780.784 9  20671837.150                        2303.320          54.000
    493397.131 9  21755326.305                       -1546.673          48.000
    924331.777 9  25358865.998                       -2790.595          44.000
   -325869.549 9  20326608.824                         905.345          54.000
 17  4 10 16 16 14.0000000  0 10G21G31G02G05G06G14G29G12G24G25
   -766998.216 9  25114668.770                        4379.228          42.000
   -827653.053 9  22490921.736                        2408.502          48.000
    276943.669 9  22148587.727                        -906.145          48.000
  -1168946.619 9  23961013.153                        3467.657          46.000
    850955.238 8  25142241.941                       -2588.270          38.000
    368013.485 8  25161699.002                       -1178.906          39.000
   -782083.743 9  20671398.922                        2302.688          54.000
    494944.211 9  21755620.706                       -1547.337          48.000
    927122.461 9  25359397.047                       -2790.787          44.000
   -326774.478 9  20326436.620                         904.609          54.000
 17  4 10 16 16 15.0000000  0 10G21G31G02G05G06G14G29G12G24G25
   -771377.468 9  25113835.439                        4379.442          41.000
   -830061.412 9  22490463.422                        2408.301          47.000
    277849.889 9  22148760.181                        -906.185          48.000
  -1172414.307 9  23960353.277                        3467.764          46.000
    853543.234 8  25142734.456                       -2587.649          38.000
    369192.489 8  25161923.365                       -1178.827          39.000
   -784386.408 9  20670960.737                        2302.728          54.000
    496491.539 9  21755915.152                       -1547.252          48.000
    929912.997 9  25359928.070                       -2790.260          44.000
   -327678.989 9  20326264.497                         904.500          54.000
 17  4 10 16 16 16.0000000  0 10G21G31G02G05G06G14G29G12G24G25
   -775756.668 9  25113002.126                        4379.295          42.000
   -832469.221 9  22490005.207                        2407.706          48.000
    278756.509 9  22148932.715                        -906.667          49.000
  -1175881.692 9  23959693.454                        3467.369          46.000
    856131.370 8  25143227.006                       -2588.133          38.000
    370371.768 8  25162147.791                       -1179.286          39.000
   -786688.718 9  20670522.634                        2302.313          54.000
    498039.177 9  21756209.651                       -1547.631          49.000
    932703.434 9  25360459.075                       -2790.220          44.000
   -328583.024 9  20326092.463                         903.942          54.000
 17  4 10 16 16 17.0000000  0 10G21G31G02G05G06G14G29G12G24G25
   -780135.896 9  25112168.795                        4379.187          41.000
   -834876.557 9  22489547.081                        2407.129          48.000
    279663.441 9  22149105.303                        -907.033          48.000
  -1179348.878 9  23959033.667                        3467.111          46.000
    858719.516 8  25143719.548                       -2587.952          38.000
    371551.207 8  25162372.244                       -1179.505          39.000
   -788990.764 9  20670084.575                        2301.960          54.000
    499587.035 9  21756504.195                       -1547.912          49.000
    935493.693 9  25360990.044                       -2790.148          44.000
   -329486.676 9  20325920.500                         903.486          54.000
 17  4 10 16 16 18.0000000  0 10G21G31G02G05G06G14G29G12G24G25
   -784515.014 9  25111335.491                        4379.610          41.000
   -837283.264 9  22489089.071                        2406.760          47.000
    280570.848 9  22149277.980                        -907.240          48.000
  -1182815.692 9  23958373.952                        3467.048          46.000
    861307.891 8  25144212.143                       -2588.079          38.000
    372730.992 8  25162596.768                       -1179.632          39.000
   -791292.382 9  20669646.596                        2301.824          53.000
    501135.277 9  21756798.820                       -1548.021          49.000
    938283.941 9  25361521.004                       -2789.834          44.000
   -330389.782 9  20325748.645                         903.229          54.000
 17  4 10 16 16 19.0000000  0 10G21G31G02G05G06G14G29G12G24G25
   -788894.124 9  25110502.187                        4379.363          41.000
   -839689.497 9  22488631.151                        2406.201          48.000
    281478.583 9  22149450.729                        -907.742          48.000
  -1186282.299 9  23957714.272                        3466.675          45.000
    863896.286 8  25144704.721                       -2588.255          38.000
    373910.947 8  25162821.337                       -1179.909          39.000
   -793593.723 9  20669208.671                        2301.412          54.000
    502683.745 9  21757093.480                       -1548.331          49.000
    941074.009 9  25362051.937                       -2789.776          44.000
   -331292.479 9  20325576.870                         902.638          54.000
 17  4 10 16 16 20.0000000  0 10G21G31G02G05G06G14G29G12G24G25
   -793273.109 9  25109668.901                        4378.946          41.000
   -842095.083 9  22488173.355                        2405.244          48.000
    282386.802 9  22149623.558                        -908.442          48.000
  -1189748.521 9  23957054.673                        3466.028          45.000
    866484.894 8  25145197.352                       -2588.733          38.000
    375091.261 8  25163045.969                       -1180.524          39.000
   -795894.624 9  20668770.826                        2300.727          54.000
    504232.612 9  21757388.229                       -1548.986          49.000
    943864.065 9  25362582.862                       -2790.081          44.000
   -332194.628 9  20325405.184                         901.880          54.000
 17  4 10 16 16 21.0000000  0 10G21G31G02G05G06G14G29G12G24G25
   -797651.922 9  25108835.641                        4378.852          41.000
   -844500.013 9  22487715.685                        2404.780          48.000
    283295.530 9  22149796.486                        -908.837          48.000
  -1193214.342 9  23956395.145                        3465.744          46.000
    869073.716 8  25145690.019                       -2588.802          38.000
    376271.951 8  25163270.663                       -1180.750          39.000
   -798195.059 9  20668333.080                        2300.314          54.000
    505781.901 9  21757683.050                       -1549.378          48.000
    946654.131 9  25363113.795                       -2789.962          44.000
   -333096.183 9  20325233.624                         901.412          54.000
 17  4 10 16 16 22.0000000  0 10G21G31G02G05G06G14G29G12G24G25
   -802030.697 9  25108002.400                        4378.845          41.000
   -846904.387 9  22487258.122                        2404.135          48.000
    284204.640 9  22149969.494                        -909.213          48.000
  -1196679.883 9  23955735.671                        3465.492          46.000
    871662.660 8  25146182.704                       -2589.036          38.000
    377452.893 8  25163495.410                       -1181.021          38.000
   -800495.164 9  20667895.387                        2300.021          54.000
    507331.474 9  21757977.925                       -1549.656          49.000
    949444.061 9  25363644.693                       -2789.771          44.000
   -333997.280 9  20325062.153                         900.922          54.000
 17  4 10 16 16 23.0000000  0 10G21G31G02G05G06G14G29G12G24G25
   -806409.521 9  25107169.150                        4378.833          41.000
   -849308.308 9  22486800.648                        2403.574          48.000
    285114.060 9  22150142.555                        -909.709          48.000
  -1200145.231 9  23955076.241                        3465.236          46.000
    874251.601 8  25146675.397                       -2589.079          38.000
    378633.992 8  25163720.176                       -1181.194          39.000
   -802795.009 9  20667457.748                        2299.625          54.000
    508881.266 9  21758272.844                       -1550.007          49.000
    952233.825 9  25364175.563                       -2789.762          44.000
   -334897.997 9  20324890.744                         900.386          54.000
 17  4 10 16 16 24.0000000  0 10G21G31G02G05G06G14G29G12G24G25
   -810788.302 9  25106335.899                        4378.818          41.000
   -851711.690 9  22486343.272                        2403.077          48.000
    286023.853 9  22150315.697                        -909.992          48.000
  -1203610.285 9  23954416.857                        3464.920          45.000
    876840.657 8  25147168.109                       -2589.113          38.000
    379815.350 8  25163944.986                       -1181.507          38.000
   -805094.521 9  20667020.171                        2299.319          54.000
    510431.340 9  21758567.817                       -1550.241          49.000
    955023.470 9  25364706.407                       -2789.615          44.000
   -335798.260 9  20324719.434                         900.018          54.000
 17  4 10 16 16 25.0000000  0 10G21G31G02G05G06G14G29G12G24G25
   -815167.043 9  25105502.658                        4378.555          41.000
   -854114.556 9  22485886.004                        2402.516          48.000
    286934.025 9  22150488.901                        -910.524          48.000
  -1207075.089 9  23953757.516                        3464.529          45.000
    879429.785 8  25147660.829                       -2589.289          38.000
    380996.930 8  25164169.850                       -1181.730          38.000
   -807393.718 9  20666582.648                        2298.936          54.000
    511981.690 9  21758862.844                       -1550.558          49.000
    957812.995 9  25365237.225                       -2789.575          44.000
   -336698.079 9  20324548.195                         899.462          54.000
 17  4 10 16 16 26.0000000  0 10G21G31G02G05G06G14G29G12G24G25
   -819545.645 9  25104669.434                        4378.452          40.000
   -856516.757 9  22485428.870                        2401.876          48.000
    287844.687 9  22150662.204                        -910.873          48.000
  -1210539.493 9  23953098.257                        3464.185          45.000
    882019.154 8  25148153.594                       -2589.274          38.000
    382178.881 8  25164394.785                       -1182.149          38.000
   -809692.457 9  20666145.214                        2298.527          53.000
    513532.454 9  21759157.951                       -1550.976          49.000
    960602.515 9  25365768.051                       -2789.513          44.000
   -337597.326 9  20324377.081                         899.006          54.000
 17  4 10 16 16 27.0000000  0 10G21G31G02G05G06G14G29G12G24G25
   -823924.267 9  25103836.219                        4378.539          40.000
   -858918.491 9  22484971.825                        2401.534          48.000
    288755.679 9  22150835.569                        -911.176          48.000
  -1214003.676 9  23952439.033                        3464.007          45.000
    884608.544 8  25148646.350                       -2589.499          38.000
    383361.019 8  25164619.756                       -1182.267          39.000
   -811990.920 9  20665707.834                        2298.307          53.000
    515083.449 9  21759453.102                       -1551.146          49.000
    963391.875 9  25366298.832                       -2789.311          44.000
   -338496.173 9  20324206.030                         898.623          54.000
 17  4 10 16 16 28.0000000  0 10G21G31G02G05G06G14G29G12G24G25
   -828302.846 9  25103002.978                        4378.623          40.000
   -861319.661 9  22484514.878                        2400.950          48.000
    289667.069 9  22151008.988                        -911.586          48.000
  -1217467.576 9  23951779.853                        3463.761          45.000
    887198.044 8  25149139.133                       -2589.551          38.000
    384543.417 8  25164844.754                       -1182.538          38.000
   -814289.034 9  20665270.499                        2297.928          53.000
    516634.747 9  21759748.290                       -1551.445          49.000
    966181.130 9  25366829.587                       -2789.165          44.000
   -339394.544 9  20324035.059                         898.150          54.000
 17  4 10 16 16 29.0000000  0 10G21G31G02G05G06G14G29G12G24G25
   -832681.224 9  25102169.486                        4378.377          40.000
   -863720.142 9  22484057.762                        2400.332          48.000
    290578.996 9  22151182.219                        -912.076          48.000
  -1220931.029 9  23951120.460                        3463.301          45.000
    889787.810 8  25149631.657                       -2589.559          38.000
    385726.217 8  25165069.528                       -1183.049          38.000
   -816586.656 9  20664832.958                        2297.455          54.000
    518186.489 9  21760043.271                       -1551.792          49.000
    968970.436 9  25367360.056                       -2789.205          44.000
   -340292.305 9  20323863.910                         897.601          54.000
 17  4 10 16 16 30.0000000  0 10G21G31G02G05G06G14G29G12G24G25
   -837059.374 8  25101336.674                        4378.321          39.000
   -866119.894 9  22483601.432                        2399.664          48.000
    291491.496 9  22151356.192                        -912.522          48.000
  -1224394.031 9  23950461.807                        3463.077          45.000
    892377.853 8  25150124.887                       -2589.723          38.000
    386909.424 8  25165295.026                       -1183.169          38.000
   -818883.761 9  20664396.177                        2297.110          54.000
    519738.719 9  21760338.986                       -1552.179          49.000
    971759.806 9  25367891.177                       -2789.044          44.000
   -341189.424 9  20323693.520                         897.064          54.000
 17  4 10 16 16 31.0000000  0 10G21G31G02G05G06G14G29G12G24G25
   -841437.414 8  25100503.531                        4378.199          39.000
   -868519.040 9  22483144.860                        2399.083          48.000
    292404.459 9  22151529.915                        -913.039          48.000
  -1227856.664 9  23949802.869                        3462.571          45.000
    894968.115 8  25150617.804                       -2590.303          38.000
    388092.970 8  25165520.239                       -1183.528          38.000
   -821180.450 9  20663959.109                        2296.672          54.000
    521291.310 9  21760634.414                       -1552.551          49.000
    974549.160 9  25368421.949                       -2789.165          44.000
   -342086.003 9  20323522.888                         896.457          54.000
 17  4 10 16 16 32.0000000  0 10G21G31G02G05G06G14G29G12G24G25
   -845815.591 8  25099670.146                        4378.169          39.000
   -870917.819 9  22482688.164                        2398.433          48.000
    293317.623 9  22151703.459                        -913.399          48.000
  -1231319.207 9  23949143.735                        3462.378          45.000
    897558.252 8  25151110.498                       -2590.289          38.000
    389276.584 8  25165745.263                       -1183.835          38.000
   -823476.987 9  20663521.872                        2296.353          54.000
    522844.012 9  21760929.664                       -1552.877          49.000
    977338.219 9  25368952.454                       -2789.099          44.000
   -342982.306 9  20323352.096                         896.037          53.000
 17  4 10 16 16 33.0000000  0 10G21G31G02G05G06G14G29G12G24G25
   -850193.660 8  25098837.253                        4377.785          39.000
   -873316.010 9  22482232.039                        2398.001          48.000
    294231.209 9  22151877.557                        -913.561          48.000
  -1234781.427 9  23948485.136                        3462.310          45.000
    900148.559 8  25151603.674                       -2590.277          38.000
    390460.486 8  25165970.806                       -1183.881          38.000
   -825773.140 9  20663085.171                        2296.129          54.000
    524397.048 9  21761225.432                       -1552.947          49.000
    980127.206 9  25369483.405                       -2788.691          44.000
   -343878.111 9  20323181.867                         895.810          54.000
 17  4 10 16 16 34.0000000  0 10G21G31G02G05G06G14G29G12G24G25
   -854571.621 8  25098004.146                        4377.939          39.000
   -875713.573 9  22481775.798                        2397.343          48.000
    295145.281 9  22152051.503                        -914.088          48.000
  -1238243.262 9  23947826.368                        3461.882          45.000
    902739.058 8  25152096.644                       -2590.662          38.000
    391644.710 8  25166196.161                       -1183.965          38.000
   -828068.855 9  20662648.309                        2295.705          54.000
    525950.477 9  21761521.040                       -1553.375          49.000
    982916.177 9  25370014.115                       -2788.792          44.000
   -344773.352 9  20323011.513                         895.184          54.000
 17  4 10 16 16 35.0000000  0 10G21G31G02G05G06G14G29G12G24G25
   -858949.510 8  25097171.047                        4377.868          39.000
   -878110.555 9  22481319.665                        2396.483          48.000
    296059.769 9  22152225.529                        -914.817          48.000
  -1241704.785 9  23947167.653                        3461.031          45.000
    905329.678 8  25152589.642                       -2590.775          38.000
    392829.248 8  25166421.579                       -1184.770          38.000
   -830364.200 9  20662211.519                        2295.002          54.000
    527504.240 9  21761816.718                       -1554.111          49.000
    985705.048 9  25370544.816                       -2788.882          44.000
   -345668.107 9  20322841.239                         894.478          54.000
 17  4 10 16 16 36.0000000  0 10G21G31G02G05G06G14G29G12G24G25
   -863327.308 8  25096337.966                        4378.026          39.000
   -880506.953 9  22480863.638                        2395.918          48.000
    296974.687 9  22152399.636                        -915.261          48.000
  -1245166.001 9  23946509.001                        3461.037          45.000
    907920.429 8  25153082.648                       -2590.874          38.000
    394014.057 7  25166647.041                       -1185.174          37.000
   -832659.170 9  20661774.809                        2294.712          54.000
    529058.333 9  21762112.451                       -1554.396          49.000
    988493.890 9  25371075.508                       -2788.846          44.000
   -346562.349 9  20322671.063                         893.959          54.000
 17  4 10 16 16 37.0000000  0 10G21G31G02G05G06G14G29G12G24G25
   -867705.059 8  25095505.136                        4378.003          39.000
   -882902.811 9  22480407.960                        2395.796          48.000
    297889.986 9  22152574.064                        -915.344          48.000
  -1248626.913 9  23945850.652                        3460.897          45.000
    910511.317 8  25153575.931                       -2591.036          38.000
    395199.134 8  25166872.790                       -1185.199          38.000
   -834953.797 9  20661338.394                        2294.567          54.000
    530612.719 9  21762408.478                       -1554.533          49.000
    991282.627 9  25371606.423                       -2788.750          44.000
   -347456.139 9  20322501.218                         893.780          54.000
 17  4 10 16 16 38.0000000  0 10G21G31G02G05G06G14G29G12G24G25
   -872082.814 8  25094671.921                        4377.621          39.000
   -885298.184 9  22479951.996                        2395.450          48.000
    298805.624 9  22152748.171                        -915.664          48.000
  -1252087.601 9  23945191.965                        3460.791          45.000
    913102.234 8  25154068.831                       -2590.342          38.000
    396384.374 8  25167098.189                       -1185.234          38.000
   -837248.126 9  20660901.666                        2294.100          54.000
    532167.352 9  21762704.183                       -1554.704          49.000
    994071.209 9  25372136.937                       -2788.332          43.000
   -348349.505 9  20322331.069                         893.246          54.000
 17  4 10 16 16 39.0000000  0 10G21G31G02G05G06G14G29G12G24G25
   -876460.428 8  25093838.716                        4377.594          39.000
   -887692.898 9  22479496.131                        2394.388          48.000
    299721.737 9  22152922.359                        -916.268          48.000
  -1255547.913 9  23944533.330                        3460.263          45.000
    915693.359 8  25154561.765                       -2591.400          38.000
    397569.951 7  25167323.634                       -1185.511          37.000
   -839542.042 9  20660464.991                        2293.725          53.000
    533722.358 9  21762999.934                       -1555.084          49.000
    996859.773 9  25372667.414                       -2788.383          43.000
   -349242.333 9  20322161.010                         892.680          54.000
 17  4 10 16 16 40.0000000  0 10G21G31G02G05G06G14G29G12G24G25
   -880838.022 8  25093005.438                        4377.849          39.000
   -890087.089 9  22479040.292                        2394.130          48.000
    300638.233 9  22153096.528                        -916.559          48.000
  -1259007.936 9  23943874.669                        3459.979          45.000
    918284.615 8  25155054.638                       -2591.618          38.000
    398755.808 8  25167549.052                       -1186.165          38.000
   -841835.612 9  20660028.308                        2293.401          54.000
    535277.671 9  21763295.657                       -1555.358          49.000
    999648.236 9  25373197.794                       -2788.359          43.000
   -350134.693 9  20321990.950                         892.259          54.000
 17  4 10 16 16 41.0000000  0 10G21G31G02G05G06G14G29G12G24G25
   -885215.545 8  25092172.697                        4377.490          39.000
   -892480.718 9  22478585.097                        2393.546          48.000
    301555.130 9  22153271.314                        -917.038          48.000
  -1262467.672 9  23943216.589                        3459.607          45.000
    920875.955 8  25155548.073                       -2591.957          39.000
    399941.914 7  25167775.050                       -1185.930          37.000
   -844128.836 9  20659592.215                        2293.123          54.000
    536833.283 9  21763591.979                       -1555.670          49.000
   1002436.612 9  25373728.700                       -2788.508          44.000
   -351026.576 9  20321821.525                         891.711          54.000
 17  4 10 16 16 42.0000000  0 10G21G31G02G05G06G14G29G12G24G25
   -889592.998 8  25091339.482                        4377.109          39.000
   -894873.761 9  22478129.535                        2392.583          48.000
    302472.439 9  22153445.689                        -917.574          48.000
  -1265927.095 9  23942558.097                        3459.157          45.000
    923467.384 8  25156041.035                       -2591.619          39.000
    401128.298 7  25168000.620                       -1186.831          37.000
   -846421.694 9  20659155.710                        2292.662          54.000
    538389.222 9  21763887.881                       -1556.139          49.000
   1005224.894 9  25374259.098                       -2788.281          43.000
   -351917.969 9  20321651.707                         891.085          54.000
 17  4 10 16 16 43.0000000  0 10G21G31G02G05G06G14G29G12G24G25
   -893970.513 8  25090506.741                        4377.581          38.000
   -897266.374 9  22477674.527                        2392.360          48.000
    303390.052 9  22153620.608                        -917.819          48.000
  -1269386.315 9  23941900.124                        3458.925          45.000
    926058.871 8  25156534.497                       -2591.583          38.000
    402314.828 8  25168226.699                       -1186.985          38.000
   -848714.296 9  20658719.742                        2292.295          54.000
    539945.367 9  21764184.301                       -1556.307          49.000
   1008012.981 9  25374789.942                       -2788.058          43.000
   -352808.977 9  20321482.451                         890.721          54.000
 17  4 10 16 16 44.0000000  0 10G21G31G02G05G06G14G29G12G24G25
   -898347.787 8  25089673.625                        4377.512          38.000
   -899658.252 9  22477219.260                        2391.594          49.000
    304308.233 9  22153795.225                        -918.370          48.000
  -1272845.072 9  23941241.847                        3458.585          45.000
    928650.633 8  25157027.610                       -2591.711          39.000
    403501.823 8  25168452.465                       -1187.296          38.000
   -851006.370 9  20658283.470                        2291.887          54.000
    541501.990 9  21764480.418                       -1556.767          49.000
   1010801.163 9  25375320.393                       -2788.130          43.000
   -353699.351 9  20321312.901                         890.135          54.000
 17  4 10 16 16 45.0000000  0 10G21G31G02G05G06G14G29G12G24G25
   -902724.933 8  25088840.643                        4376.985          38.000
   -902049.530 9  22476764.207                        2391.013          48.000
    305226.850 9  22153970.028                        -918.836          48.000
  -1276303.493 9  23940583.722                        3458.257          45.000
    931242.575 8  25157520.840                       -2592.021          39.000
    404689.081 7  25168678.383                       -1187.430          37.000
   -853298.061 9  20657847.358                        2291.540          54.000
    543058.957 9  21764776.695                       -1557.102          49.000
   1013589.298 9  25375850.933                       -2788.100          43.000
   -354589.202 9  20321143.556                         889.586          54.000
 17  4 10 16 16 46.0000000  0 10G21G31G02G05G06G14G29G12G24G25
   -907102.110 8  25088008.018                        4377.426          38.000
   -904440.305 9  22476309.628                        2390.686          48.000
    306145.809 9  22154145.270                        -918.923          48.000
  -1279761.671 9  23939926.026                        3458.263          45.000
    933834.578 8  25158014.454                       -2591.936          38.000
    405876.561 7  25168904.721                       -1187.426          37.000
   -855589.444 9  20657411.685                        2291.415          53.000
    544616.180 9  21765073.392                       -1557.149          49.000
   1016377.266 9  25376381.821                       -2787.717          43.000
   -355478.634 9  20320974.667                         889.399          54.000
 17  4 10 16 16 47.0000000  0 10G21G31G02G05G06G14G29G12G24G25
   -911479.153 8  25087175.598                        4377.216          38.000
   -906830.462 9  22475855.335                        2390.065          48.000
    307065.234 9  22154320.779                        -919.437          48.000
  -1283219.483 9  23939268.580                        3457.818          45.000
    936426.734 8  25158508.264                       -2592.001          39.000
    407064.350 7  25169131.291                       -1187.754          37.000
   -857880.411 9  20656976.270                        2290.953          53.000
    546173.776 9  21765370.340                       -1557.580          49.000
   1019165.199 9  25376912.880                       -2787.715          43.000
   -356367.532 9  20320806.046                         888.904          54.000
 17  4 10 16 16 48.0000000  0 10G21G31G02G05G06G14G29G12G24G25
   -915856.117 8  25086342.053                        4377.029          38.000
   -909220.032 9  22475400.033                        2389.334          48.000
    307985.084 9  22154495.235                        -919.986          48.000
  -1286676.975 9  23938610.053                        3457.400          45.000
    939019.050 8  25159001.003                       -2592.133          39.000
    408252.458 7  25169356.798                       -1188.169          37.000
   -860171.004 9  20656539.784                        2290.575          53.000
    547731.705 9  21765666.224                       -1557.981          49.000
   1021953.090 9  25377442.795                       -2787.700          42.000
   -357255.929 9  20320636.398                         888.330          54.000
 17  4 10 16 16 49.0000000  0 10G21G31G02G05G06G14G29G12G24G25
   -920232.848 8  25085508.847                        4376.664          38.000
   -911608.907 9  22474945.132                        2388.677          48.000
    308905.488 9  22154670.065                        -920.702          48.000
  -1290134.016 9  23937951.892                        3456.799          45.000
    941611.638 8  25159494.054                       -2592.691          38.000
    409440.963 7  25169582.672                       -1188.809          37.000
   -862461.090 9  20656103.681                        2289.903          53.000
    549290.098 9  21765962.466                       -1558.568          49.000
   1024741.034 9  25377973.004                       -2787.924          42.000
   -358143.685 9  20320467.151                         887.364          54.000
 17  4 10 16 16 50.0000000  0 10G21G31G02G05G06G14G29G12G24G25
   -924609.505 7  25084676.034                        4376.776          37.000
   -913997.170 9  22474490.732                        2388.040          48.000
    309826.330 9  22154845.369                        -921.050          48.000
  -1293590.734 9  23937294.169                        3456.681          45.000
    944204.363 8  25159987.516                       -2592.667          38.000
    410629.748 7  25169808.965                       -1188.806          37.000
   -864750.778 9  20655668.025                        2289.539          53.000
    550848.836 9  21766259.154                       -1558.722          49.000
   1027528.926 9  25378503.571                       -2787.743          42.000
   -359030.949 9  20320298.370                         887.266          54.000
 17  4 10 16 16 51.0000000  0 10G21G31G02G05G06G14G29G12G24G25
   -928986.216 8  25083843.079                        4376.946          38.000
   -916384.995 9  22474036.278                        2387.855          48.000
    310747.441 9  22155020.584                        -921.029          48.000
  -1297047.259 9  23936636.357                        3456.734          45.000
    946797.085 8  25160480.861                       -2592.527          38.000
    411818.675 7  25170035.169                       -1188.351          37.000
   -867040.240 9  20655232.289                        2289.586          53.000
    552407.768 9  21766555.744                       -1558.751          49.000
   1030316.612 9  25379033.978                       -2787.365          42.000
   -359917.843 9  20320129.534                         886.971          54.000
 17  4 10 16 16 52.0000000  0 10G21G31G02G05G06G14G29G12G24G25
   -933362.808 8  25083010.204                        4376.640          38.000
   -918772.195 9  22473582.002                        2386.970          48.000
    311669.023 9  22155195.959                        -921.726          48.000
  -1300503.433 9  23935978.670                        3456.276          45.000
    949389.985 8  25160974.288                       -2592.764          38.000
    413007.934 7  25170261.489                       -1189.001          37.000
   -869329.290 9  20654796.687                        2288.986          53.000
    553967.076 9  21766852.477                       -1559.445          49.000
   1033104.255 9  25379564.437                       -2787.547          42.000
   -360804.199 9  20319960.868                         886.213          54.000
 17  4 10 16 16 53.0000000  0 10G21G31G02G05G06G14G29G12G24G25
   -937739.207 8  25082177.373                        4376.300          38.000
   -921158.700 9  22473127.861                        2385.933          48.000
    312591.137 9  22155371.433                        -922.507          48.000
  -1303959.170 9  23935321.072                        3455.627          45.000
    951983.160 8  25161467.768                       -2593.453          38.000
    414197.612 8  25170487.907                       -1190.089          38.000
   -871617.835 9  20654361.192                        2288.140          53.000
    555526.822 9  21767149.290                       -1560.198          49.000
   1035891.939 9  25380094.906                       -2787.569          42.000
   -361689.943 9  20319792.310                         885.364          54.000
 17  4 10 16 16 54.0000000  0 10G21G31G02G05G06G14G29G12G24G25
   -942115.617 8  25081344.623                        4376.591          38.000
   -923544.732 9  22472673.881                        2385.882          48.000
    313513.563 9  22155547.050                        -922.471          48.000
  -1307414.674 9  23934663.581                        3455.445          45.000
    954576.348 8  25161961.310                       -2592.822          38.000
    415387.469 7  25170714.433                       -1189.959          37.000
   -873906.115 9  20653925.814                        2288.322          54.000
    557086.795 9  21767446.220                       -1559.926          49.000
   1038679.459 9  25380625.420                       -2787.370          42.000
   -362575.293 9  20319623.912                         885.303          54.000
 17  4 10 16 16 55.0000000  0 10G21G31G02G05G06G14G29G12G24G25
   -946492.261 8  25080511.677                        4376.408          38.000
   -925930.497 9  22472219.793                        2385.357          48.000
    314436.100 9  22155722.524                        -922.878          48.000
  -1310870.189 9  23934005.938                        3455.236          45.000
    957169.374 8  25162454.656                       -2593.183          38.000
    416577.255 7  25170940.780                       -1190.017          37.000
   -876194.326 9  20653490.301                        2287.895          54.000
    558646.787 9  21767742.998                       -1560.286          49.000
   1041466.566 9  25381155.701                       -2787.270          41.000
   -363460.453 9  20319455.389                         884.773          54.000
 17  4 10 16 16 56.0000000  0 10G21G31G02G05G06G14G29G12G24G25
   -950868.665 8  25079678.864                        4376.391          38.000
   -928315.507 9  22471765.938                        2384.699          48.000
    315359.230 9  22155898.203                        -923.231          48.000
  -1314325.184 9  23933348.474                        3454.676          44.000
    959762.704 8  25162948.163                       -2593.599          38.000
    417767.537 7  25171167.323                       -1190.683          37.000
   -878481.991 9  20653054.976                        2287.465          54.000
    560207.286 9  21768039.963                       -1560.690          49.000
   1044253.778 9  25381686.089                       -2787.236          41.000
   -364344.938 9  20319287.081                         884.230          54.000
 17  4 10 16 16 57.0000000  0 10G21G31G02G05G06G14G29G12G24G25
   -955244.910 8  25078846.435                        4376.404          38.000
   -930699.869 9  22471312.556                        2384.072          48.000
    316282.849 9  22156074.320                        -923.657          48.000
  -1317779.801 9  23932691.430                        3454.340          44.000
    962356.241 8  25163442.044                       -2593.585          38.000
    418958.147 7  25171394.278                       -1191.031          37.000
   -880769.209 9  20652620.088                        2286.928          54.000
    561768.185 9  21768337.348                       -1560.993          49.000
   1047040.989 9  25382216.826                       -2786.864          41.000
   -365228.856 9  20319119.237                         883.731          54.000
 17  4 10 16 16 58.0000000  0 10G21G31G02G05G06G14G29G12G24G25
   -959621.156 8  25078014.570                        4376.307          38.000
   -933083.743 9  22470859.844                        2383.600          48.000
    317206.801 9  22156251.072                        -924.213          48.000
  -1321234.189 9  23932035.003                        3454.147          45.000
    964949.824 8  25163936.507                       -2593.122          38.000
    420148.945 7  25171621.831                       -1191.096          37.000
   -883056.152 9  20652185.826                        2286.709          54.000
    563329.326 9  21768635.350                       -1561.326          49.000
   1049828.035 9  25382748.108                       -2786.858          41.000
   -366112.360 9  20318952.037                         883.310          54.000
 17  4 10 16 16 59.0000000  0 10G21G31G02G05G06G14G29G12G24G25
   -963997.337 8  25077180.989                        4376.012          38.000
   -935467.056 9  22470405.489                        2383.045          48.000
    318131.148 9  22156426.161                        -924.503          48.000
  -1324688.278 9  23931376.896                        3453.992          44.000
    967543.532 8  25164429.263                       -2593.706          38.000
    421340.006 7  25171847.704                       -1191.063          37.000
   -885342.738 9  20651749.885                        2286.429          54.000
    564890.776 9  21768931.672                       -1561.556          49.000
   1052614.996 9  25383277.629                       -2786.908          41.000
   -366995.398 9  20318783.193                         882.824          54.000
 17  4 10 16 17  0.0000000  0 10G21G31G02G05G06G14G29G12G24G25
   -968373.414 8  25076347.747                        4375.949          38.000
   -937849.747 9  22469951.598                        2382.363          48.000
    319055.961 9  22156601.671                        -925.216          48.000
  -1328141.978 9  23930719.200                        3453.353          44.000
    970137.407 8  25164922.386                       -2594.005          38.000
    422531.415 7  25172073.980                       -1191.674          37.000
   -887628.906 9  20651314.372                        2286.000          54.000
    566452.593 9  21769228.396                       -1561.928          49.000
   1055401.932 9  25383807.491                       -2787.129          41.000
   -367877.895 9  20318614.786                         882.285          54.000
 17  4 10 16 17  1.0000000  0 10G21G31G02G05G06G14G29G12G24G25
   -972749.347 8  25075515.015                        4376.049          38.000
   -940231.796 9  22469498.296                        2381.957          48.000
    319981.253 9  22156777.752                        -925.258          48.000
  -1331595.321 9  23930062.039                        3453.348          44.000
    972731.473 7  25165416.026                       -2593.588          37.000
    423723.146 7  25172300.782                       -1191.862          37.000
   -889914.631 9  20650879.413                        2285.765          54.000
    568014.811 9  21769525.674                       -1562.110          48.000
   1058188.833 9  25384337.816                       -2786.642          41.000
   -368759.825 9  20318446.960                         881.906          54.000
 17  4 10 16 17  2.0000000  0 10G21G31G02G05G06G14G29G12G24G25
   -977125.248 8  25074682.292                        4375.910          38.000
   -942613.326 9  22469045.093                        2381.286          48.000
    320906.917 9  22156953.896                        -925.805          48.000
  -1335048.388 9  23929404.942                        3452.944          44.000
    975325.661 7  25165909.676                       -2594.184          37.000
    424915.104 7  25172527.621                       -1192.045          37.000
   -892200.038 9  20650444.517                        2285.284          54.000
    569577.295 9  21769823.006                       -1562.581          49.000
   1060975.602 9  25384868.124                       -2786.576          41.000
   -369641.308 9  20318279.224                         881.257          54.000
 17  4 10 16 17  3.0000000  0 10G21G31G02G05G06G14G29G12G24G25
   -981500.883 8  25073849.640                        4375.760          38.000
   -944994.088 9  22468592.060                        2380.646          48.000
    321833.182 9  22157130.174                        -926.263          49.000
  -1338500.960 9  23928747.951                        3452.630          44.000
    977920.131 8  25166403.406                       -2594.421          38.000
    426107.515 7  25172754.557                       -1192.346          37.000
   -894484.877 9  20650009.737                        2284.815          54.000
    571140.312 9  21770120.453                       -1563.063          49.000
   1063762.508 9  25385398.486                       -2786.708          41.000
   -370522.114 9  20318111.630                         880.731          54.000
 17  4 10 16 17  4.0000000  0 10G21G31G02G05G06G14G29G12G24G25
   -985876.547 8  25073016.944                        4375.131          38.000
   -947374.414 9  22468139.080                        2380.217          48.000
    322759.722 9  22157306.479                        -926.504          49.000
  -1341953.341 9  23928090.961                        3452.250          44.000
    980514.613 8  25166897.100                       -2594.842          38.000
    427300.085 7  25172981.485                       -1192.462          37.000
   -896769.490 9  20649574.975                        2284.612          54.000
    572703.496 9  21770417.901                       -1563.159          49.000
   1066549.192 9  25385928.767                       -2786.514          41.000
   -371402.564 9  20317944.063                         880.392          55.000
 17  4 10 16 17  5.0000000  0 10G21G31G02G05G06G14G29G12G24G25
   -990252.113 8  25072184.292                        4375.459          38.000
   -949754.108 9  22467686.234                        2379.498          48.000
    323686.735 9  22157482.882                        -927.162          48.000
  -1345405.374 9  23927434.051                        3452.016          44.000
    983109.250 7  25167390.848                       -2594.314          37.000
    428492.982 7  25173208.493                       -1192.894          37.000
   -899053.678 9  20649140.302                        2284.087          54.000
    574267.069 9  21770715.438                       -1563.666          49.000
   1069335.846 9  25386459.066                       -2786.710          40.000
   -372282.471 9  20317776.622                         879.786          54.000
 17  4 10 16 17  6.0000000  0 10G21G31G02G05G06G14G29G12G24G25
   -994627.653 8  25071351.667                        4375.558          38.000
   -952133.279 9  22467233.505                        2379.038          48.000
    324614.109 9  22157659.365                        -927.296          48.000
  -1348857.129 9  23926777.213                        3451.985          44.000
    985703.997 8  25167884.623                       -2594.221          38.000
    429686.104 7  25173435.564                       -1192.880          37.000
   -901337.543 9  20648705.718                        2283.819          54.000
    575830.921 9  21771013.047                       -1563.986          49.000
   1072122.393 9  25386989.365                       -2786.157          40.000
   -373161.925 9  20317609.278                         879.360          54.000
 17  4 10 16 17  7.0000000  0 10G21G31G02G05G06G14G29G12G24G25
   -999003.250 8  25070518.997                        4375.606          38.000
   -954511.975 9  22466780.829                        2378.552          48.000
    325541.796 9  22157835.875                        -927.775          48.000
  -1352308.673 9  23926120.374                        3451.667          43.000
    988298.777 8  25168378.371                       -2595.056          38.000
    430879.396 7  25173662.616                       -1193.533          37.000
   -903621.150 9  20648271.143                        2283.536          54.000
    577394.990 9  21771310.673                       -1564.113          49.000
   1074908.755 9  25387519.583                       -2785.997          40.000
   -374041.004 9  20317441.979                         878.955          54.000
 17  4 10 16 17  8.0000000  0 10G21G31G02G05G06G14G29G12G24G25
  -1003378.741 8  25069686.363                        4375.146          38.000
   -956890.130 9  22466328.278                        2377.937          48.000
    326469.874 9  22158012.475                        -928.212          48.000
  -1355759.932 9  23925463.616                        3451.377          44.000
    990893.626 8  25168872.146                       -2594.238          38.000
    432072.915 7  25173889.714                       -1193.213          37.000
   -905904.413 9  20647836.658                        2283.169          54.000
    578959.360 9  21771608.371                       -1564.682          49.000
   1077694.989 9  25388049.802                       -2785.801          40.000
   -374919.607 9  20317274.779                         878.446          54.000
 17  4 10 16 17  9.0000000  0 10G21G31G02G05G06G14G29G12G24G25
  -1007754.137 8  25068853.756                        4375.685          38.000
   -959267.634 9  22465875.870                        2377.287          48.000
    327398.430 9  22158189.190                        -928.800          48.000
  -1359210.786 9  23924806.947                        3450.801          44.000
    993488.718 8  25169365.983                       -2595.114          38.000
    433266.822 7  25174116.900                       -1194.298          37.000
   -908187.238 9  20647402.271                        2282.669          54.000
    580524.120 9  21771906.158                       -1565.080          49.000
   1080481.212 9  25388580.039                       -2786.111          40.000
   -375797.650 9  20317107.713                         877.853          54.000
 17  4 10 16 17 10.0000000  0 10G21G31G02G05G06G14G29G12G24G25
  -1012129.382 8  25068021.140                        4375.128          38.000
   -961644.538 9  22465423.534                        2376.614          48.000
    328327.429 9  22158365.951                        -929.231          48.000
  -1362661.304 9  23924150.305                        3450.314          43.000
    996083.933 7  25169859.811                       -2595.108          37.000
    434461.004 7  25174344.096                       -1194.450          37.000
   -910469.670 9  20646967.929                        2282.291          54.000
    582089.223 9  21772203.981                       -1565.177          49.000
   1083267.376 9  25389110.221                       -2786.003          40.000
   -376675.171 9  20316940.709                         877.240          54.000
 17  4 10 16 17 11.0000000  0 10G21G31G02G05G06G14G29G12G24G25
  -1016504.668 8  25067188.533                        4374.966          38.000
   -964020.938 9  22464971.313                        2375.996          48.000
    329256.768 9  22158542.792                        -929.673          48.000
  -1366111.574 9  23923493.726                        3449.945          43.000
    998679.221 8  25170353.666                       -2595.557          38.000
    435655.392 7  25174571.354                       -1194.685          37.000
   -912751.802 9  20646533.658                        2281.768          54.000
    583654.593 9  21772501.867                       -1565.657          49.000
   1086053.396 9  25389640.404                       -2785.731          40.000
   -377552.267 9  20316773.794                         876.618          54.000
 17  4 10 16 17 12.0000000  0 10G21G31G02G05G06G14G29G12G24G25
  -1020879.795 8  25066355.953                        4374.857          38.000
   -966396.728 9  22464519.218                        2375.467          48.000
    330186.565 9  22158719.722                        -930.122          48.000
  -1369561.494 9  23922837.209                        3449.678          43.000
   1001274.705 8  25170847.575                       -2595.898          38.000
    436850.093 7  25174798.666                       -1194.453          36.000
   -915033.522 9  20646099.467                        2281.509          54.000
    585220.327 9  21772799.833                       -1565.994          49.000
   1088839.398 9  25390170.587                       -2786.171          40.000
   -378428.831 9  20316606.987                         876.225          54.000
 17  4 10 16 17 13.0000000  0 10G21G31G02G05G06G14G29G12G24G25
  -1025254.873 8  25065523.372                        4375.366          38.000
   -968771.919 9  22464067.230                        2375.184          48.000
    331116.793 9  22158896.723                        -930.171          48.000
  -1373011.076 9  23922180.764                        3449.731          43.000
   1003870.308 8  25171341.493                       -2595.436          38.000
    438045.114 7  25175026.032                       -1194.877          36.000
   -917314.858 9  20645665.348                        2281.462          54.000
    586786.400 9  21773097.861                       -1565.963          49.000
   1091625.319 9  25390700.761                       -2785.603          40.000
   -379304.890 9  20316440.278                         876.108          54.000
 17  4 10 16 17 14.0000000  0 10G21G31G02G05G06G14G29G12G24G25
  -1029629.858 8  25064690.810                        4375.059          38.000
   -971146.565 9  22463615.340                        2374.617          48.000
    332047.401 9  22159073.796                        -930.382          48.000
  -1376460.360 9  23921524.372                        3449.382          43.000
   1006465.996 7  25171835.428                       -2595.624          37.000
    439240.360 7  25175253.451                       -1194.812          36.000
   -919595.850 9  20645231.301                        2281.218          54.000
    588352.772 9  21773395.943                       -1566.161          49.000
   1094411.133 9  25391230.917                       -2785.274          40.000
   -380180.478 9  20316273.658                         875.649          54.000
 17  4 10 16 17 15.0000000  0 10G21G31G02G05G06G14G29G12G24G25
  -1034004.901 8  25063858.221                        4375.037          38.000
   -973520.733 9  22463163.540                        2373.844          48.000
    332978.342 9  22159250.932                        -931.148          48.000
  -1379909.419 9  23920868.016                        3448.847          43.000
   1009061.744 7  25172329.364                       -2595.559          36.000
    440435.822 7  25175480.879                       -1196.083          36.000
   -921876.557 9  20644797.298                        2280.474          54.000
    589919.381 9  21773694.061                       -1566.837          49.000
   1097196.778 9  25391761.028                       -2785.625          40.000
   -381055.670 9  20316107.110                         874.915          54.000
 17  4 10 16 17 16.0000000  0 10G21G31G02G05G06G14G29G12G24G25
  -1038379.841 8  25063025.676                        4374.729          38.000
   -975894.347 9  22462711.847                        2373.382          48.000
    333909.673 9  22159428.157                        -931.536          48.000
  -1383358.181 9  23920211.732                        3448.606          43.000
   1011657.579 7  25172823.344                       -2595.661          36.000
    441631.502 7  25175708.378                       -1196.001          36.000
   -924156.922 9  20644363.367                        2280.191          54.000
    591486.292 9  21773992.260                       -1567.082          49.000
   1099982.286 9  25392291.140                       -2785.237          40.000
   -381930.392 9  20315940.651                         874.594          54.000
 17  4 10 16 17 17.0000000  0 10G21G31G02G05G06G14G29G12G24G25
  -1042754.662 8  25062193.132                        4374.713          38.000
   -978267.309 9  22462260.279                        2372.547          48.000
    334841.484 9  22159605.454                        -931.974          48.000
  -1386806.568 9  23919555.510                        3448.387          43.000
   1014253.669 7  25173317.360                       -2596.305          36.000
    442827.523 7  25175935.931                       -1196.066          36.000
   -926436.846 9  20643929.525                        2279.728          54.000
    593053.602 9  21774290.520                       -1567.532          49.000
   1102767.797 9  25392821.233                       -2785.212          40.000
   -382804.541 9  20315774.308                         873.820          54.000
 17  4 10 16 17 18.0000000  0 10G21G31G02G05G06G14G29G12G24G25
  -1047129.457 8  25061360.596                        4375.075          38.000
   -980639.740 9  22461808.800                        2372.499          48.000
    335773.674 9  22159782.839                        -932.083          48.000
  -1390254.655 9  23918899.350                        3448.307          43.000
   1016849.790 7  25173811.376                       -2595.322          36.000
    444023.795 7  25176163.520                       -1195.856          36.000
   -928716.437 9  20643495.736                        2279.751          54.000
    594621.194 9  21774588.826                       -1567.328          49.000
   1105553.202 9  25393351.309                       -2784.941          40.000
   -383678.239 9  20315608.037                         873.810          54.000
 17  4 10 16 17 19.0000000  0 10G21G31G02G05G06G14G29G12G24G25
  -1051504.236 8  25060528.069                        4374.462          38.000
   -983011.677 9  22461357.429                        2371.792          48.000
    336706.204 9  22159960.279                        -932.923          48.000
  -1393702.522 9  23918243.226                        3447.964          43.000
   1019446.038 7  25174305.419                       -2596.744          36.000
    445220.241 7  25176391.154                       -1196.357          36.000
   -930995.747 9  20643062.002                        2279.198          54.000
    596189.035 9  21774887.185                       -1567.906          49.000
   1108338.420 9  25393881.349                       -2785.004          40.000
   -384551.520 9  20315441.855                         873.167          54.000
 17  4 10 16 17 20.0000000  0 10G21G31G02G05G06G14G29G12G24G25
  -1055878.967 8  25059695.551                        4374.842          38.000
   -985383.048 9  22460906.164                        2371.158          48.000
    337639.115 9  22160137.790                        -933.085          48.000
  -1397150.069 9  23917587.165                        3447.418          43.000
   1022042.341 7  25174799.461                       -2597.001          36.000
    446416.954 7  25176618.841                       -1196.646          37.000
   -933274.694 9  20642628.338                        2278.751          54.000
    597757.177 9  21775185.598                       -1568.268          49.000
   1111123.579 9  25394411.389                       -2784.968          40.000
   -385424.321 9  20315275.762                         872.490          54.000
 17  4 10 16 17 21.0000000  0 10G21G31G02G05G06G14G29G12G24G25
  -1060253.622 8  25058863.043                        4374.847          38.000
   -987753.824 9  22460455.016                        2370.454          49.000
    338572.474 9  22160315.390                        -933.777          48.000
  -1400597.298 9  23916931.167                        3446.956          44.000
   1024638.782 7  25175293.540                       -2596.728          36.000
    447613.972 7  25176846.590                       -1197.168          37.000
   -935553.261 9  20642194.737                        2278.308          54.000
    599325.670 9  21775484.073                       -1568.890          49.000
   1113908.672 9  25394941.402                       -2785.065          40.000
   -386296.618 9  20315109.768                         871.970          54.000
 17  4 10 16 17 22.0000000  0 10G21G31G02G05G06G14G29G12G24G25
  -1064628.155 8  25058030.560                        4374.300          38.000
   -990124.032 9  22460003.975                        2370.000          48.000
    339506.222 9  22160493.061                        -933.854          48.000
  -1404044.220 9  23916275.231                        3446.877          44.000
   1027235.366 6  25175787.645                       -2596.893          35.000
    448811.240 7  25177074.385                       -1197.263          37.000
   -937831.463 9  20641761.217                        2278.074          54.000
    600894.466 9  21775782.611                       -1568.949          49.000
   1116693.683 9  25395471.415                       -2785.279          40.000
   -387168.431 9  20314943.863                         871.634          54.000
 17  4 10 16 17 23.0000000  0 10G21G31G02G05G06G14G29G12G24G25
  -1069002.675 8  25057198.078                        4374.622          38.000
   -992493.681 9  22459553.041                        2369.003          49.000
    340440.378 9  22160670.805                        -934.669          48.000
  -1407490.834 9  23915619.348                        3446.382          43.000
   1029832.031 7  25176281.750                       -2596.580          36.000
    450008.779 7  25177302.233                       -1198.010          37.000
   -940109.317 9  20641327.750                        2277.431          54.000
    602463.572 9  21776081.202                       -1569.512          49.000
   1119478.562 9  25396001.401                       -2784.690          40.000
   -388039.763 9  20314778.048                         870.884          54.000
 17  4 10 16 17 24.0000000  0 10G21G31G02G05G06G14G29G12G24G25
  -1073376.951 8  25056365.659                        4374.665          38.000
   -994862.597 9  22459102.251                        2368.788          49.000
    341375.104 9  22160848.655                        -934.675          48.000
  -1410936.963 9  23914963.564                        3446.249          44.000
   1032429.007 7  25176775.909                       -2596.462          36.000
    451206.713 7  25177530.179                       -1197.271          37.000
   -942386.639 9  20640894.400                        2277.340          54.000
    604033.169 9  21776379.883                       -1569.677          49.000
   1122263.561 9  25396531.414                       -2784.460          40.000
   -388910.446 9  20314612.357                         870.635          54.000
 17  4 10 16 17 25.0000000  0 10G21G31G02G05G06G14G29G12G24G25
  -1077751.300 8  25055533.213                        4374.495          38.000
   -997231.117 9  22458651.531                        2368.449          48.000
    342310.077 9  22161026.559                        -935.138          48.000
  -1414382.943 9  23914307.815                        3445.951          44.000
   1035025.960 7  25177270.068                       -2596.944          36.000
    452404.805 7  25177758.143                       -1198.102          36.000
   -944663.769 9  20640461.076                        2277.079          54.000
    605602.902 9  21776678.590                       -1569.777          49.000
   1125048.307 9  25397061.374                       -2784.431          40.000
   -389780.805 9  20314446.729                         870.295          54.000
 17  4 10 16 17 26.0000000  0 10G21G31G02G05G06G14G29G12G24G25
  -1082125.783 7  25054700.740                        4374.346          37.000
   -999599.255 9  22458200.875                        2368.040          48.000
    343245.247 9  22161204.508                        -935.131          48.000
  -1417828.812 9  23913652.085                        3445.833          43.000
   1037622.821 7  25177764.218                       -2596.231          36.000
    453602.943 7  25177986.116                       -1198.079          37.000
   -946940.727 9  20640027.779                        2276.966          54.000
    607172.768 9  21776977.325                       -1569.896          49.000
   1127832.759 9  25397591.289                       -2784.052          40.000
   -390650.875 9  20314281.164                         870.094          54.000
 17  4 10 16 17 27.0000000  0 10G21G31G02G05G06G14G29G12G24G25
  -1086500.204 7  25053868.275                        4373.655          37.000
  -1001966.826 9  22457750.334                        2367.187          48.000
    344180.835 9  22161382.528                        -936.059          48.000
  -1421274.371 9  23912996.417                        3445.358          43.000
   1040219.825 7  25178258.404                       -2597.392          36.000
    454801.340 7  25178214.142                       -1198.664          36.000
   -949217.322 9  20639594.562                        2276.248          54.000
    608742.947 9  21777276.112                       -1570.380          49.000
   1130617.127 9  25398121.177                       -2784.637          40.000
   -391520.454 9  20314115.679                         869.133          54.000
 17  4 10 16 17 28.0000000  0 10G21G31G02G05G06G14G29G12G24G25
  -1090874.534 7  25053035.829                        4374.107          37.000
  -1004333.793 9  22457299.910                        2366.520          48.000
    345116.845 9  22161560.628                        -936.293          48.000
  -1424719.577 9  23912340.820                        3444.975          43.000
   1042816.930 7  25178752.616                       -2597.081          36.000
    456000.062 7  25178442.231                       -1199.237          37.000
   -951493.525 9  20639161.417                        2275.973          54.000
    610313.477 9  21777574.972                       -1570.785          48.000
   1133401.393 9  25398651.047                       -2783.860          41.000
   -392389.527 9  20313950.292                         868.656          54.000
 17  4 10 16 17 29.0000000  0 10G21G31G02G05G06G14G29G12G24G25
  -1095248.814 7  25052203.401                        4374.316          37.000
  -1006700.199 9  22456849.592                        2366.103          48.000
    346053.266 9  22161738.800                        -936.679          48.000
  -1428164.485 9  23911685.268                        3444.802          43.000
   1045414.204 7  25179246.891                       -2597.321          36.000
    457198.997 7  25178670.365                       -1198.696          37.000
   -953769.368 9  20638728.344                        2275.671          54.000
    611884.310 9  21777873.894                       -1570.934          49.000
   1136185.593 9  25399180.899                       -2783.829          41.000
   -393258.116 9  20313784.995                         868.355          54.000
 17  4 10 16 17 30.0000000  0 10G21G31G02G05G06G14G29G12G24G25
  -1099623.030 7  25051370.990                        4374.204          37.000
  -1009066.079 9  22456399.373                        2365.683          48.000
    346990.042 9  22161917.044                        -936.919          48.000
  -1431609.127 9  23911029.779                        3444.576          43.000
   1048011.546 7  25179741.175                       -2597.450          36.000
    458398.217 7  25178898.553                       -1199.292          36.000
   -956044.887 9  20638295.324                        2275.421          54.000
    613455.423 9  21778172.869                       -1571.166          49.000
   1138969.667 9  25399710.724                       -2783.813          41.000
   -394126.264 9  20313619.795                         867.995          54.000
 17  4 10 16 17 31.0000000  0 10G21G31G02G05G06G14G29G12G24G25
  -1103997.079 7  25050538.615                        4374.333          37.000
  -1011431.269 9  22455949.288                        2364.990          48.000
    347927.339 9  22162095.386                        -937.405          48.000
  -1435053.338 9  23910374.370                        3444.308          43.000
   1050609.121 7  25180235.495                       -2597.763          36.000
    459597.783 7  25179126.794                       -1199.447          37.000
   -958319.930 9  20637862.402                        2274.987          54.000
    615026.969 9  21778471.925                       -1571.559          49.000
   1141753.797 9  25400240.559                       -2784.136          41.000
   -394993.800 9  20313454.695                         867.329          54.000
 17  4 10 16 17 32.0000000  0 10G21G31G02G05G06G14G29G12G24G25
  -1108371.073 7  25049706.249                        4374.011          37.000
  -1013795.945 9  22455499.302                        2364.499          48.000
    348865.003 9  22162273.808                        -937.772          48.000
  -1438497.288 9  23909719.006                        3443.920          43.000
   1053206.750 7  25180729.824                       -2597.611          36.000
    460797.569 7  25179355.088                       -1199.665          37.000
   -960594.660 9  20637429.543                        2274.668          54.000
    616598.771 9  21778771.035                       -1571.849          49.000
   1144537.759 9  25400770.357                       -2783.900          41.000
   -395860.900 9  20313289.692                         866.957          54.000
 17  4 10 16 17 33.0000000  0 10G21G31G02G05G06G14G29G12G24G25
  -1112744.994 8  25048873.910                        4373.927          38.000
  -1016160.017 9  22455049.422                        2363.785          48.000
    349803.093 9  22162452.302                        -938.343          48.000
  -1441940.922 9  23909063.695                        3443.459          43.000
   1055804.544 7  25181224.170                       -2598.284          36.000
    461997.666 7  25179583.428                       -1200.527          37.000
   -962868.996 9  20636996.755                        2274.244          54.000
    618170.925 9  21779070.207                       -1572.257          49.000
   1147321.632 9  25401300.138                       -2783.871          41.000
   -396727.488 9  20313124.779                         866.347          54.000
 17  4 10 16 17 34.0000000  0 10G21G31G02G05G06G14G29G12G24G25
  -1117118.831 7  25048041.580                        4373.590          37.000
  -1018523.522 9  22454599.659                        2363.065          48.000
    350741.587 9  22162630.876                        -938.774          48.000
  -1445384.242 9  23908408.456                        3443.122          43.000
   1058402.463 7  25181718.535                       -2598.499          36.000
    463198.022 7  25179811.830                       -1201.009          37.000
   -965142.969 9  20636564.030                        2273.630          54.000
    619743.397 9  21779369.442                       -1572.731          49.000
   1150105.424 9  25401829.901                       -2783.808          41.000
   -397593.585 9  20312959.973                         865.697          54.000
 17  4 10 16 17 35.0000000  0 10G21G31G02G05G06G14G29G12G24G25
  -1121492.620 7  25047209.268                        4373.635          37.000
  -1020886.473 9  22454149.994                        2362.742          48.000
    351680.475 9  22162809.530                        -938.996          48.000
  -1448827.285 9  23907753.261                        3443.176          43.000
   1061000.489 7  25182212.926                       -2598.298          36.000
    464398.610 7  25180040.276                       -1200.854          36.000
   -967416.597 9  20636131.376                        2273.483          54.000
    621316.168 9  21779668.739                       -1572.801          49.000
   1152889.140 9  25402359.655                       -2783.486          41.000
   -398459.211 9  20312795.247                         865.482          54.000
 17  4 10 16 17 36.0000000  0 10G21G31G02G05G06G14G29G12G24G25
  -1125866.423 7  25046376.947                        4373.739          37.000
  -1023248.927 9  22453700.436                        2362.459          48.000
    352619.695 9  22162988.238                        -939.100          48.000
  -1452270.050 9  23907098.129                        3442.826          43.000
   1063598.543 7  25182707.308                       -2597.864          36.000
    465599.405 7  25180268.758                       -1200.925          36.000
   -969689.939 9  20635698.776                        2273.509          54.000
    622889.189 9  21779968.090                       -1572.940          49.000
   1155672.693 9  25402889.373                       -2782.989          41.000
   -399324.428 9  20312630.602                         865.327          54.000
 17  4 10 16 17 37.0000000  0 10G21G31G02G05G06G14G29G12G24G25
  -1130240.093 7  25045544.652                        4373.759          37.000
  -1025610.750 9  22453250.985                        2361.685          48.000
    353559.379 9  22163167.045                        -939.755          48.000
  -1455712.460 9  23906443.051                        3442.418          43.000
   1066196.786 7  25183201.744                       -2598.197          36.000
    466800.513 7  25180497.294                       -1201.020          36.000
   -971962.855 9  20635266.247                        2272.904          53.000
    624462.580 9  21780267.503                       -1573.381          49.000
   1158456.219 9  25403419.092                       -2783.408          41.000
   -400189.096 9  20312466.055                         864.587          54.000
 17  4 10 16 17 38.0000000  0 10G21G31G02G05G06G14G29G12G24G25
  -1134613.674 7  25044712.367                        4373.788          37.000
  -1027971.974 9  22452801.660                        2361.115          48.000
    354499.505 9  22163345.931                        -940.179          48.000
  -1459154.513 9  23905788.044                        3442.058          43.000
   1068795.213 7  25183696.207                       -2598.538          36.000
    468001.929 7  25180725.911                       -1201.451          36.000
   -974235.377 9  20634833.799                        2272.503          54.000
    626036.322 9  21780566.988                       -1573.762          49.000
   1161239.677 9  25403948.792                       -2783.219          41.000
   -401053.241 9  20312301.615                         864.067          54.000
 17  4 10 16 17 39.0000000  0 10G21G31G02G05G06G14G29G12G24G25
  -1138987.220 7  25043880.090                        4373.892          37.000
  -1030332.689 9  22452352.424                        2360.323          48.000
    355439.964 9  22163524.890                        -940.755          48.000
  -1462596.337 9  23905133.082                        3441.711          43.000
   1071393.660 7  25184190.669                       -2598.390          36.000
    469203.545 7  25180954.563                       -1202.330          36.000
   -976507.604 9  20634401.404                        2271.972          53.000
    627610.312 9  21780866.526                       -1574.155          49.000
   1164022.987 9  25404478.475                       -2783.220          41.000
   -401916.970 9  20312137.247                         863.565          54.000
 17  4 10 16 17 40.0000000  0 10G21G31G02G05G06G14G29G12G24G25
  -1143360.676 7  25043047.831                        4373.063          37.000
  -1032692.805 9  22451903.304                        2359.904          49.000
    356380.862 9  22163703.928                        -941.258          48.000
  -1466037.798 9  23904478.182                        3441.237          43.000
   1073992.272 7  25184685.177                       -2598.815          36.000
    470405.439 7  25181183.277                       -1202.086          36.000
   -978779.441 9  20633969.081                        2271.580          54.000
    629184.654 9  21781166.127                       -1574.429          49.000
   1166806.250 9  25405008.139                       -2783.250          41.000
   -402780.179 9  20311972.986                         862.888          54.000
 17  4 10 16 17 41.0000000  0 10G21G31G02G05G06G14G29G12G24G25
  -1147734.103 7  25042215.582                        4373.331          37.000
  -1035052.379 9  22451454.282                        2359.156          49.000
    357322.123 9  22163883.039                        -941.454          48.000
  -1469479.008 9  23903823.336                        3441.573          43.000
   1076590.948 7  25185179.711                       -2598.476          36.000
    471607.574 7  25181412.027                       -1202.389          36.000
   -981050.958 9  20633536.821                        2271.465          54.000
    630759.281 9  21781465.791                       -1574.810          49.000
   1169589.380 9  25405537.777                       -2783.127          41.000
   -403642.944 9  20311808.806                         862.674          54.000
 17  4 10 16 17 42.0000000  0 10G21G31G02G05G06G14G29G12G24G25
  -1152107.507 8  25041383.323                        4373.658          38.000
  -1037411.444 9  22451005.359                        2359.162          49.000
    358263.754 9  22164062.220                        -941.696          48.000
  -1472919.919 9  23903168.543                        3441.243          43.000
   1079189.741 7  25185674.263                       -2598.733          36.000
    472809.933 7  25181640.813                       -1202.366          36.000
   -983322.144 9  20633104.623                        2271.147          54.000
    632334.176 9  21781765.499                       -1574.855          49.000
   1172372.366 9  25406067.388                       -2782.558          41.000
   -404505.253 9  20311644.714                         862.304          54.000
 17  4 10 16 17 43.0000000  0 10G21G31G02G05G06G14G29G12G24G25
  -1156480.982 7  25040551.064                        4373.283          37.000
  -1039770.081 9  22450556.516                        2358.355          49.000
    359205.611 9  22164241.446                        -942.074          48.000
  -1476360.680 9  23902513.778                        3440.612          43.000
   1081788.446 6  25186168.815                       -2598.524          35.000
    474012.377 7  25181869.608                       -1202.405          36.000
   -985593.141 9  20632672.460                        2270.868          54.000
    633909.227 9  21782065.243                       -1575.203          49.000
   1175155.127 9  25406596.954                       -2782.672          41.000
   -405367.249 9  20311480.686                         861.752          54.000
 17  4 10 16 17 44.0000000  0 10G21G31G02G05G06G14G29G12G24G25
  -1160854.458 8  25039718.806                        4373.223          38.000
  -1042128.217 9  22450107.780                        2357.695          49.000
    360147.824 9  22164420.744                        -942.562          48.000
  -1479801.183 9  23901859.057                        3440.199          43.000
   1084387.251 7  25186663.412                       -2598.931          36.000
    475215.051 7  25182098.439                       -1202.896          36.000
   -987863.822 9  20632240.360                        2270.297          54.000
    635484.542 9  21782365.032                       -1575.651          49.000
   1177937.727 9  25407126.494                       -2782.753          41.000
   -406228.799 9  20311316.737                         861.189          54.000
 17  4 10 16 17 45.0000000  0 10G21G31G02G05G06G14G29G12G24G25
  -1165227.682 7  25038886.610                        4373.371          37.000
  -1044485.609 9  22449659.178                        2357.322          49.000
    361090.607 9  22164600.149                        -942.724          48.000
  -1483241.204 9  23901204.425                        3440.140          43.000
   1086986.353 7  25187158.053                       -2599.072          36.000
    476418.159 6  25182327.350                       -1203.046          35.000
   -990133.982 9  20631808.359                        2270.211          54.000
    637060.339 9  21782664.909                       -1575.714          49.000
   1180720.401 9  25407656.043                       -2782.408          41.000
   -407089.706 9  20311152.923                         860.874          54.000
 17  4 10 16 17 46.0000000  0 10G21G31G02G05G06G14G29G12G24G25
  -1169600.907 7  25038054.422                        4373.179          37.000
  -1046842.505 9  22449210.665                        2356.758          48.000
    362033.731 9  22164779.608                        -943.190          48.000
  -1486680.973 9  23900549.838                        3439.783          43.000
   1089585.486 6  25187652.676                       -2599.116          35.000
    477621.448 6  25182556.297                       -1203.189          35.000
   -992403.842 9  20631376.420                        2269.848          54.000
    638636.388 9  21782964.832                       -1576.036          49.000
   1183502.890 9  25408185.546                       -2782.250          41.000
   -407950.188 9  20310989.180                         860.360          54.000
 17  4 10 16 17 47.0000000  0 10G21G31G02G05G06G14G29G12G24G25
  -1173974.092 8  25037222.262                        4373.190          38.000
  -1049198.847 9  22448762.269                        2356.179          48.000
    362977.231 9  22164959.147                        -943.592          48.000
  -1490120.456 9  23899895.305                        3439.469          43.000
   1092184.723 6  25188147.318                       -2599.205          35.000
    478824.981 7  25182785.306                       -1203.462          36.000
   -994673.364 9  20630944.535                        2269.498          54.000
    640212.736 9  21783264.817                       -1576.367          49.000
   1186285.288 9  25408715.050                       -2782.201          41.000
   -408810.215 9  20310825.527                         859.934          54.000
 17  4 10 16 17 48.0000000  0 10G21G31G02G05G06G14G29G12G24G25
  -1178347.196 8  25036390.093                        4373.158          38.000
  -1051554.591 9  22448313.980                        2355.513          48.000
    363921.140 9  22165138.766                        -944.013          48.000
  -1493559.618 9  23899240.834                        3439.078          43.000
   1094784.046 6  25188641.968                       -2599.200          35.000
    480028.791 7  25183014.369                       -1203.798          36.000
   -996942.519 9  20630512.730                        2269.108          54.000
    641789.402 9  21783564.856                       -1576.722          49.000
   1189067.598 9  25409244.527                       -2782.136          41.000
   -409669.747 9  20310661.963                         859.408          54.000
 17  4 10 16 17 49.0000000  0 10G21G31G02G05G06G14G29G12G24G25
  -1182720.098 8  25035557.977                        4373.150          38.000
  -1053909.635 9  22447865.825                        2355.149          49.000
    364865.599 9  22165318.493                        -944.345          48.000
  -1496998.328 9  23898586.443                        3438.836          43.000
   1097383.675 6  25189136.681                       -2599.364          35.000
    481232.994 7  25183243.504                       -1203.938          36.000
   -999211.164 9  20630081.014                        2268.807          54.000
    643366.523 9  21783864.975                       -1576.907          49.000
   1191849.971 9  25409774.013                       -2782.010          41.000
   -410528.644 9  20310498.515                         858.923          54.000
 17  4 10 16 17 50.0000000  0 10G21G31G02G05G06G14G29G12G24G25
  -1187092.933 8  25034725.888                        4372.920          38.000
  -1056264.121 9  22447417.777                        2354.209          49.000
    365810.436 9  22165498.282                        -945.041          48.000
  -1500436.751 9  23897932.116                        3438.310          43.000
   1099983.404 6  25189631.412                       -2599.781          35.000
    482437.442 7  25183472.692                       -1204.532          36.000
  -1001479.476 9  20629649.370                        2268.169          54.000
    644943.938 9  21784165.157                       -1577.561          49.000
   1194632.217 9  25410303.472                       -2782.167          41.000
   -411387.086 9  20310335.165                         858.243          54.000
 17  4 10 16 17 51.0000000  0 10G21G31G02G05G06G14G29G12G24G25
  -1191465.742 8  25033893.781                        4373.095          38.000
  -1058618.064 9  22446969.827                        2353.955          48.000
    366755.657 9  22165678.161                        -945.089          48.000
  -1503874.888 9  23897277.841                        3438.359          43.000
   1102583.199 6  25190126.169                       -2599.573          35.000
    483642.134 7  25183701.916                       -1204.528          36.000
  -1003747.446 9  20629217.788                        2268.125          53.000
    646521.645 9  21784465.392                       -1577.554          49.000
   1197414.365 9  25410832.922                       -2781.701          41.000
   -412245.059 9  20310171.896                         858.055          54.000
 17  4 10 16 17 52.0000000  0 10G21G31G02G05G06G14G29G12G24G25
  -1195838.597 8  25033061.674                        4372.590          38.000
  -1060971.574 9  22446521.967                        2353.145          49.000
    367701.147 9  22165858.084                        -945.747          48.000
  -1507312.832 9  23896623.594                        3437.740          43.000
   1105182.990 6  25190620.909                       -2600.033          35.000
    484846.939 7  25183931.158                       -1204.927          36.000
  -1006015.185 9  20628786.251                        2267.482          53.000
    648099.533 9  21784765.654                       -1578.128          49.000
   1200196.304 9  25411362.319                       -2781.937          41.000
   -413102.687 9  20310008.698                         857.320          54.000
 17  4 10 16 17 53.0000000  0 10G21G31G02G05G06G14G29G12G24G25
  -1200211.381 8  25032229.559                        4372.690          38.000
  -1063324.507 9  22446074.205                        2352.699          49.000
    368647.051 9  22166038.087                        -946.053          48.000
  -1510750.447 9  23895969.427                        3437.445          43.000
   1107782.929 6  25191115.675                       -2600.094          35.000
    486052.046 7  25184160.462                       -1205.270          36.000
  -1008282.555 9  20628354.777                        2267.219          54.000
    649677.746 9  21785065.988                       -1578.333          49.000
   1202978.147 9  25411891.707                       -2781.731          41.000
   -413959.807 9  20309845.590                         856.935          54.000
 17  4 10 16 17 54.0000000  0 10G21G31G02G05G06G14G29G12G24G25
  -1204584.142 8  25031397.443                        4372.781          38.000
  -1065676.917 9  22445626.550                        2352.286          48.000
    369593.316 9  22166218.162                        -946.309          48.000
  -1514187.804 9  23895315.304                        3437.353          43.000
   1110382.936 6  25191610.442                       -2600.044          35.000
    487257.353 7  25184389.820                       -1205.297          36.000
  -1010549.605 9  20627923.374                        2267.021          53.000
    651256.227 9  21785366.366                       -1578.449          49.000
   1205759.840 9  25412421.050                       -2781.368          41.000
   -414816.488 9  20309682.571                         856.573          54.000
 17  4 10 16 17 55.0000000  0 10G21G31G02G05G06G14G29G12G24G25
  -1208956.884 8  25030565.327                        4372.595          38.000
  -1068028.823 9  22445178.994                        2351.526          48.000
    370539.921 9  22166398.300                        -946.902          48.000
  -1517624.909 9  23894661.236                        3436.923          44.000
   1112982.959 6  25192105.208                       -2600.289          35.000
    488462.845 7  25184619.213                       -1205.614          36.000
  -1012816.358 9  20627492.016                        2266.522          54.000
    652834.964 9  21785666.798                       -1578.942          49.000
   1208541.422 9  25412950.375                       -2781.677          41.000
   -415672.748 9  20309519.632                         855.973          54.000
 17  4 10 16 17 56.0000000  0 10G21G31G02G05G06G14G29G12G24G25
  -1213329.569 8  25029733.229                        4372.846          38.000
  -1070380.159 9  22444731.554                        2351.201          49.000
    371486.929 9  22166578.527                        -947.107          49.000
  -1521061.686 9  23894007.238                        3436.780          43.000
   1115583.135 6  25192600.001                       -2599.995          35.000
    489668.627 7  25184848.660                       -1205.741          36.000
  -1015082.741 9  20627060.729                        2266.314          54.000
    654414.015 9  21785967.293                       -1579.098          49.000
   1211322.879 9  25413479.673                       -2781.195          41.000
   -416528.513 9  20309356.792                         855.665          54.000
 17  4 10 16 17 57.0000000  0 10G21G31G02G05G06G14G29G12G24G25
  -1217702.138 8  25028901.149                        4372.760          38.000
  -1072730.891 9  22444284.220                        2350.525          48.000
    372434.367 9  22166758.825                        -947.530          48.000
  -1524498.128 9  23893353.295                        3436.374          43.000
   1118183.461 6  25193094.830                       -2600.197          35.000
    490874.693 7  25185078.170                       -1206.138          36.000
  -1017348.736 9  20626629.523                        2265.896          53.000
    655993.414 9  21786267.858                       -1579.471          49.000
   1214104.304 9  25414008.972                       -2781.310          41.000
   -417383.762 9  20309194.049                         855.123          54.000
 17  4 10 16 17 58.0000000  0 10G21G31G02G05G06G14G29G12G24G25
  -1222074.658 8  25028069.078                        4372.623          39.000
  -1075081.099 9  22443836.995                        2350.055          48.000
    373382.177 9  22166939.195                        -947.903          49.000
  -1527934.300 9  23892699.413                        3436.187          43.000
   1120783.849 6  25193589.677                       -2600.132          35.000
    492080.992 7  25185307.725                       -1206.299          37.000
  -1019614.407 9  20626198.370                        2265.604          54.000
    657573.089 9  21786568.469                       -1579.713          49.000
   1216885.567 9  25414538.234                       -2781.178          41.000
   -418238.569 9  20309031.379                         854.648          54.000
 17  4 10 16 17 59.0000000  0 10G21G31G02G05G06G14G29G12G24G25
  -1226446.936 8  25027237.052                        4372.273          38.000
  -1077430.568 9  22443389.903                        2349.306          48.000
    374330.553 9  22167119.681                        -948.436          48.000
  -1531369.970 9  23892045.622                        3435.686          43.000
   1123384.560 6  25194084.578                       -2600.547          35.000
    493287.716 7  25185537.368                       -1206.767          37.000
  -1021879.550 9  20625767.325                        2265.086          54.000
    659153.247 9  21786869.187                       -1580.221          49.000
   1219666.924 9  25415067.515                       -2781.210          41.000
   -419092.719 9  20308868.842                         854.014          54.000
 17  4 10 16 18  0.0000000  0 10G21G31G02G05G06G14G29G12G24G25
  -1230819.216 8  25026405.026                        4372.404          38.000
  -1079779.510 9  22442942.918                        2348.878          48.000
    375279.288 9  22167300.230                        -948.677          49.000
  -1534805.386 9  23891391.892                        3435.544          43.000
   1125985.324 6  25194579.487                       -2600.483          35.000
    494494.654 7  25185767.057                       -1206.866          36.000
  -1024144.380 9  20625336.333                        2264.923          54.000
    660733.671 9  21787169.940                       -1580.365          49.000
   1222448.140 9  25415596.777                       -2780.936          41.000
   -419946.430 9  20308706.395                         853.699          54.000
 17  4 10 16 18  1.0000000  0 10G21G31G02G05G06G14G29G12G24G25
  -1235191.495 8  25025572.990                        4372.487          39.000
  -1082127.965 9  22442496.014                        2348.382          48.000
    376228.345 9  22167480.841                        -949.029          48.000
  -1538240.561 9  23890738.199                        3435.218          43.000
   1128586.113 6  25195074.405                       -2600.586          35.000
    495701.768 7  25185996.772                       -1206.945          37.000
  -1026408.917 9  20624905.403                        2264.575          53.000
    662314.337 9  21787470.747                       -1580.567          49.000
   1225229.205 9  25416126.004                       -2780.861          41.000
   -420799.732 9  20308544.019                         853.274          54.000
 17  4 10 16 18  2.0000000  0 10G21G31G02G05G06G14G29G12G24G25
  -1239563.775 8  25024740.964                        4372.332          38.000
  -1084475.930 9  22442049.217                        2347.834          49.000
    377177.729 9  22167661.515                        -949.402          49.000
  -1541675.509 9  23890084.550                        3435.016          43.000
   1131186.955 6  25195569.324                       -2600.573          35.000
    496909.055 7  25186226.523                       -1207.084          37.000
  -1028673.173 9  20624474.528                        2264.265          54.000
    663895.239 9  21787771.599                       -1580.891          49.000
   1228010.088 9  25416655.186                       -2780.640          41.000
   -421652.625 9  20308381.724                         852.846          54.000
 17  4 10 16 18  3.0000000  0 10G21G31G02G05G06G14G29G12G24G25
  -1243935.966 8  25023908.955                        4372.136          38.000
  -1086823.296 9  22441602.527                        2347.162          49.000
    378127.533 9  22167842.269                        -949.846          49.000
  -1545110.112 9  23889430.955                        3434.606          43.000
   1133787.946 6  25196064.269                       -2601.025          35.000
    498116.638 7  25186456.327                       -1207.605          37.000
  -1030937.044 9  20624043.723                        2263.812          54.000
    665476.471 9  21788072.514                       -1581.254          49.000
   1230790.891 9  25417184.359                       -2780.606          41.000
   -422505.017 9  20308219.518                         852.257          54.000
 17  4 10 16 18  4.0000000  0 10G21G31G02G05G06G14G29G12G24G25
  -1248307.985 8  25023076.974                        4372.009          38.000
  -1089169.993 9  22441155.962                        2346.458          49.000
    379077.850 9  22168023.121                        -950.415          48.000
  -1548544.307 9  23888777.440                        3434.142          43.000
   1136389.176 6  25196559.259                       -2601.341          35.000
    499324.581 7  25186686.212                       -1207.950          37.000
  -1033200.447 9  20623613.009                        2263.308          53.000
    667058.129 9  21788373.508                       -1581.738          49.000
   1233571.722 9  25417713.533                       -2780.664          41.000
   -423356.812 9  20308057.437                         851.625          54.000
 17  4 10 16 18  5.0000000  0 10G21G31G02G05G06G14G29G12G24G25
  -1252680.013 8  25022244.992                        4372.236          39.000
  -1091516.211 9  22440709.496                        2346.260          49.000
    380028.479 9  22168204.036                        -950.450          49.000
  -1551978.264 9  23888123.979                        3434.154          43.000
   1138990.399 6  25197054.240                       -2600.993          35.000
    500532.702 7  25186916.124                       -1207.940          37.000
  -1035463.578 9  20623182.347                        2263.284          54.000
    668640.011 9  21788674.539                       -1581.711          49.000
   1236352.353 9  25418242.670                       -2780.194          41.000
   -424208.207 9  20307895.418                         851.501          54.000
 17  4 10 16 18  6.0000000  0 10G21G31G02G05G06G14G29G12G24G25
  -1257052.123 8  25021412.992                        4371.920          38.000
  -1093862.003 9  22440263.110                        2345.498          48.000
    380979.362 9  22168384.996                        -951.155          49.000
  -1555412.051 9  23887470.544                        3433.493          43.000
   1141591.592 6  25197549.229                       -2601.358          35.000
    501740.935 7  25187146.072                       -1208.361          37.000
  -1037726.492 9  20622751.722                        2262.686          54.000
    670222.062 9  21788975.605                       -1582.283          49.000
   1239132.733 9  25418771.763                       -2780.255          41.000
   -425059.267 9  20307733.471                         850.782          54.000
 17  4 10 16 18  7.0000000  0 10G21G31G02G05G06G14G29G12G24G25
  -1261424.071 8  25020581.028                        4372.062          38.000
  -1096207.142 9  22439816.840                        2345.017          48.000
    381930.733 9  22168566.054                        -951.412          49.000
  -1558845.450 9  23886817.181                        3433.352          43.000
   1144192.988 6  25198044.255                       -2601.347          35.000
    502949.505 7  25187376.091                       -1208.512          37.000
  -1039988.959 9  20622321.185                        2262.445          54.000
    671804.507 9  21789276.743                       -1582.411          49.000
   1241913.120 9  25419300.865                       -2780.252          41.000
   -425909.757 9  20307571.631                         850.383          54.000
 17  4 10 16 18  8.0000000  0 10G21G31G02G05G06G14G29G12G24G25
  -1265796.076 8  25019749.056                        4372.015          39.000
  -1098551.856 9  22439370.650                        2344.574          48.000
    382882.366 9  22168747.156                        -951.667          49.000
  -1562278.669 9  23886163.854                        3433.238          43.000
   1146794.387 6  25198539.280                       -2601.438          35.000
    504158.193 7  25187606.119                       -1208.646          37.000
  -1042251.207 9  20621890.694                        2262.246          54.000
    673387.128 9  21789577.907                       -1582.605          49.000
   1244693.265 9  25419829.913                       -2779.863          40.000
   -426759.903 9  20307409.854                         850.101          54.000
 17  4 10 16 18  9.0000000  0 10G21G31G02G05G06G14G29G12G24G25
  -1270167.902 8  25018917.119                        4372.053          39.000
  -1100895.877 9  22438924.586                        2343.892          48.000
    383834.527 9  22168928.366                        -952.200          49.000
  -1565711.449 9  23885510.607                        3432.864          43.000
   1149395.997 6  25199034.342                       -2601.634          35.000
    505367.277 7  25187836.218                       -1208.999          37.000
  -1044512.959 9  20621460.292                        2261.736          53.000
    674970.195 9  21789879.152                       -1583.041          49.000
   1247473.443 9  25420358.970                       -2779.874          40.000
   -427609.422 9  20307248.193                         849.450          54.000
 17  4 10 16 18 10.0000000  0 10G21G31G02G05G06G14G29G12G24G25
  -1274539.563 8  25018085.217                        4371.631          39.000
  -1103239.266 9  22438478.646                        2343.160          49.000
    384787.153 9  22169109.656                        -952.774          49.000
  -1569143.840 9  23884857.432                        3432.263          43.000
   1151997.798 6  25199529.439                       -2601.728          35.000
    506576.689 7  25188066.380                       -1209.444          37.000
  -1046774.292 9  20621029.970                        2261.207          53.000
    676553.631 9  21790180.469                       -1583.513          49.000
   1250253.590 9  25420888.009                       -2780.047          40.000
   -428458.410 9  20307086.630                         848.778          54.000
 17  4 10 16 18 11.0000000  0 10G21G31G02G05G06G14G29G12G24G25
  -1278911.233 8  25017253.316                        4371.707          39.000
  -1105582.146 9  22438032.805                        2342.717          48.000
    385740.117 9  22169291.018                        -953.001          49.000
  -1572575.975 9  23884204.310                        3432.031          43.000
   1154599.644 6  25200024.554                       -2601.741          35.000
    507786.285 7  25188296.569                       -1209.601          37.000
  -1049035.323 9  20620599.702                        2260.950          54.000
    678137.329 9  21790481.839                       -1583.716          49.000
   1253033.599 9  25421417.040                       -2780.019          40.000
   -429306.962 9  20306925.157                         848.427          54.000
 17  4 10 16 18 12.0000000  0 10G21G31G02G05G06G14G29G12G24G25
  -1283282.807 8  25016421.424                        4371.556          39.000
  -1107924.430 9  22437587.071                        2342.185          48.000
    386693.515 9  22169472.460                        -953.456          48.000
  -1576007.776 9  23883551.251                        3431.790          43.000
   1157201.668 6  25200519.704                       -2601.949          35.000
    508996.185 7  25188526.811                       -1209.945          37.000
  -1051295.966 9  20620169.505                        2260.566          53.000
    679721.365 9  21790783.271                       -1584.066          49.000
   1255813.505 9  25421946.052                       -2779.764          40.000
   -430155.000 9  20306763.782                         847.938          54.000
 17  4 10 16 18 13.0000000  0 10G21G31G02G05G06G14G29G12G24G25
  -1287654.212 8  25015589.576                        4371.511          39.000
  -1110266.050 9  22437141.472                        2341.551          49.000
    387647.404 9  22169654.000                        -953.910          48.000
  -1579439.158 9  23882898.272                        3431.367          43.000
   1159803.867 6  25201014.891                       -2602.053          35.000
    510206.422 7  25188757.116                       -1210.211          37.000
  -1053556.161 9  20619739.389                        2260.195          53.000
    681305.806 9  21791084.775                       -1584.353          48.000
   1258593.446 9  25422475.073                       -2779.747          40.000
   -431002.452 9  20306602.514                         847.372          54.000
 17  4 10 16 18 14.0000000  0 10G21G31G02G05G06G14G29G12G24G25
  -1292025.720 8  25014757.702                        4371.364          39.000
  -1112607.270 9  22436695.943                        2340.948          48.000
    388601.521 9  22169835.576                        -954.306          48.000
  -1582870.405 9  23882245.329                        3431.087          43.000
   1162406.036 6  25201510.077                       -2602.318          35.000
    511416.742 7  25188987.448                       -1210.352          36.000
  -1055816.166 9  20619309.317                        2259.855          53.000
    682890.394 9  21791386.315                       -1584.722          49.000
   1261373.115 9  25423004.041                       -2779.758          40.000
   -431849.598 9  20306441.309                         846.927          54.000
 17  4 10 16 18 15.0000000  0 10G21G31G02G05G06G14G29G12G24G25
  -1296397.181 8  25013925.836                        4371.460          38.000
  -1114947.933 9  22436250.531                        2340.543          48.000
    389556.024 9  22170017.233                        -954.553          48.000
  -1586301.340 9  23881592.440                        3430.956          42.000
   1165008.288 6  25202005.299                       -2602.273          35.000
    512627.335 7  25189217.824                       -1210.604          36.000
  -1058075.820 9  20618879.308                        2259.629          53.000
    684475.281 9  21791687.899                       -1584.873          48.000
   1264152.656 9  25423532.982                       -2779.225          40.000
   -432696.269 9  20306280.184                         846.578          54.000
 17  4 10 16 18 16.0000000  0 10G21G31G02G05G06G14G29G12G24G25
  -1300768.541 8  25013093.988                        4371.265          38.000
  -1117288.014 9  22435805.217                        2339.937          48.000
    390510.932 9  22170198.961                        -954.963          48.000
  -1589731.949 9  23880939.613                        3430.549          42.000
   1167610.683 6  25202500.557                       -2602.421          35.000
    513838.184 7  25189448.236                       -1210.809          36.000
  -1060335.101 9  20618449.370                        2259.237          53.000
    686060.497 9  21791989.555                       -1585.217          48.000
   1266932.121 9  25424061.905                       -2779.150          40.000
   -433542.445 9  20306119.157                         846.097          54.000
 17  4 10 16 18 17.0000000  0 10G21G31G02G05G06G14G29G12G24G25
  -1305139.867 8  25012262.149                        4371.357          39.000
  -1119627.529 9  22435360.019                        2339.383          48.000
    391466.241 9  22170380.769                        -955.375          48.000
  -1593162.259 9  23880286.849                        3430.258          43.000
   1170213.173 6  25202995.815                       -2602.356          35.000
    515049.294 7  25189678.684                       -1211.113          36.000
  -1062594.026 9  20618019.504                        2258.865          53.000
    687646.017 9  21792291.265                       -1585.551          48.000
   1269711.483 9  25424590.828                       -2779.240          40.000
   -434388.144 9  20305958.228                         845.553          54.000
 17  4 10 16 18 18.0000000  0 10G21G31G02G05G06G14G29G12G24G25
  -1309511.070 8  25011430.338                        4371.360          39.000
  -1121966.434 9  22434914.938                        2338.848          49.000
    392421.984 9  22170562.658                        -955.686          48.000
  -1596592.210 9  23879634.156                        3430.019          43.000
   1172815.806 6  25203491.090                       -2602.448          35.000
    516260.675 7  25189909.186                       -1211.107          36.000
  -1064852.555 9  20617589.718                        2258.598          53.000
    689231.887 9  21792593.046                       -1585.780          48.000
   1272490.811 9  25425119.742                       -2779.032          40.000
   -435233.322 9  20305797.389                         845.150          54.000
 17  4 10 16 18 19.0000000  0 10G21G31G02G05G06G14G29G12G24G25
  -1313882.122 8  25010598.552                        4371.004          39.000
  -1124304.707 9  22434469.972                        2338.029          49.000
    393378.207 9  22170744.636                        -956.460          49.000
  -1600021.767 9  23878981.525                        3429.379          43.000
   1175418.642 6  25203986.420                       -2602.799          35.000
    517472.433 7  25190139.750                       -1212.031          36.000
  -1067110.658 9  20617160.004                        2257.958          54.000
    690818.136 9  21792894.889                       -1586.342          48.000
   1275270.126 9  25425648.657                       -2779.300          40.000
   -436077.939 9  20305636.658                         844.337          54.000
 17  4 10 16 18 20.0000000  0 11G21G20G31G02G05G06G14G29G12G24G25
  -1318252.949 8  25009766.812                        4370.821          39.000
    -29369.963 8  25197876.840                        4231.060          38.000
  -1126642.263 9  22434025.141                        2337.423          49.000
    394334.965 9  22170926.721                        -956.804          49.000
  -1603450.887 9  23878328.984                        3429.176          43.000
   1178021.747 6  25204481.785                       -2603.092          35.000
    518684.549 7  25190370.367                       -1212.080          36.000
  -1069368.254 9  20616730.397                        2257.537          54.000
    692404.842 9  21793196.822                       -1586.736          48.000
   1278049.461 9  25426177.562                       -2779.128          40.000
   -436921.935 9  20305476.051                         843.877          54.000
 17  4 10 16 18 21.0000000  0 11G21G20G31G02G05G06G14G29G12G24G25
  -1322623.726 8  25008935.089                        4370.778          39.000
    -33600.910 8  25197071.376                        4231.204          38.000
  -1128979.248 9  22433580.434                        2336.748          48.000
    395292.127 9  22171108.878                        -957.290          49.000
  -1606879.674 9  23877676.506                        3428.777          43.000
   1180624.935 6  25204977.150                       -2603.178          35.000
    519896.932 7  25190601.038                       -1212.419          36.000
  -1071625.490 9  20616300.861                        2257.135          54.000
    693991.865 9  21793498.818                       -1587.114          48.000
   1280828.726 9  25426706.458                       -2779.112          40.000
   -437765.446 9  20305315.533                         843.381          54.000
 17  4 10 16 18 22.0000000  0 11G21G20G31G02G05G06G14G29G12G24G25
  -1326994.372 8  25008103.394                        4370.485          39.000
    -37831.877 7  25196266.653                        4230.483          37.000
  -1131315.638 9  22433135.826                        2336.101          49.000
    396249.726 9  22171291.124                        -957.788          49.000
  -1610308.109 9  23877024.099                        3428.242          43.000
   1183228.290 6  25205472.560                       -2603.629          35.000
    521109.619 7  25190831.763                       -1212.956          36.000
  -1073882.332 9  20615871.388                        2256.642          54.000
    695579.229 9  21793800.885                       -1587.537          48.000
   1283607.938 9  25427235.336                       -2779.239          40.000
   -438608.426 9  20305155.114                         842.682          54.000
 17  4 10 16 18 23.0000000  0 11G21G20G31G02G05G06G14G29G12G24G25
  -1331364.916 8  25007271.716                        4370.627          39.000
    -42063.006 8  25195461.493                        4231.061          38.000
  -1133651.406 9  22432691.352                        2335.620          49.000
    397207.773 9  22171473.442                        -958.144          49.000
  -1613736.190 9  23876371.763                        3428.029          43.000
   1185831.819 6  25205967.987                       -2603.630          35.000
    522322.585 7  25191062.524                       -1212.977          36.000
  -1076138.768 9  20615442.005                        2256.413          54.000
    697166.954 9  21794103.014                       -1587.716          48.000
   1286387.094 9  25427764.206                       -2779.115          40.000
   -439450.884 9  20304994.793                         842.359          54.000
 17  4 10 16 18 24.0000000  0 11G21G20G31G02G05G06G14G29G12G24G25
  -1335735.441 8  25006440.038                        4370.405          39.000
    -46294.302 8  25194656.288                        4231.301          38.000
  -1135986.674 9  22432246.968                        2334.982          49.000
    398166.149 9  22171655.831                        -958.550          48.000
  -1617164.023 9  23875719.464                        3427.658          43.000
   1188435.365 6  25206463.433                       -2603.578          35.000
    523535.751 7  25191293.320                       -1213.219          36.000
  -1078394.910 9  20615012.675                        2255.987          53.000
    698754.928 9  21794405.197                       -1588.047          48.000
   1289166.047 9  25428293.040                       -2778.882          40.000
   -440292.920 9  20304834.553                         841.855          54.000
 17  4 10 16 18 25.0000000  0 11G21G20G31G02G05G06G14G29G12G24G25
  -1340105.998 8  25005608.351                        4370.730          39.000
    -50525.784 8  25193851.021                        4231.695          38.000
  -1138321.453 9  22431802.681                        2334.736          48.000
    399124.846 9  22171838.283                        -958.642          48.000
  -1620591.627 9  23875067.209                        3427.681          43.000
   1191038.941 6  25206958.896                       -2603.282          35.000
    524749.129 7  25191524.143                       -1213.268          36.000
  -1080650.776 9  20614583.398                        2255.950          54.000
    700343.131 9  21794707.416                       -1588.050          48.000
   1291944.855 9  25428821.838                       -2778.518          40.000
   -441134.545 9  20304674.393                         841.656          54.000
 17  4 10 16 18 26.0000000  0 11G21G20G31G02G05G06G14G29G12G24G25
  -1344476.574 8  25004776.646                        4370.548          39.000
    -54757.510 7  25193045.422                        4231.828          37.000
  -1140655.777 9  22431358.484                        2334.041          49.000
    400083.838 9  22172020.779                        -959.178          48.000
  -1624019.022 9  23874414.998                        3427.274          43.000
   1193642.574 6  25207454.359                       -2603.719          34.000
    525962.634 7  25191754.993                       -1213.662          36.000
  -1082906.389 9  20614154.166                        2255.423          54.000
    701931.545 9  21795009.679                       -1588.562          49.000
   1294723.459 9  25429350.600                       -2778.534          40.000
   -441975.795 9  20304514.304                         841.040          54.000
 17  4 10 16 18 27.0000000  0 11G21G20G31G02G05G06G14G29G12G24G25
  -1348847.076 9  25003944.959                        4370.592          40.000
    -58989.345 7  25192239.440                        4231.938          37.000
  -1142989.518 9  22430914.394                        2333.504          49.000
    401043.235 9  22172203.356                        -959.578          49.000
  -1627446.083 9  23873762.850                        3426.966          43.000
   1196246.314 6  25207949.841                       -2603.860          34.000
    527176.425 7  25191985.897                       -1214.013          36.000
  -1085161.637 9  20613725.015                        2255.131          54.000
    703520.281 9  21795312.005                       -1588.841          48.000
   1297501.973 9  25429879.353                       -2778.442          40.000
   -442816.560 9  20304354.314                         840.570          54.000
 17  4 10 16 18 28.0000000  0 11G21G20G31G02G05G06G14G29G12G24G25
  -1353217.428 9  25003113.299                        4370.337          40.000
    -63221.226 7  25191433.610                        4231.884          37.000
  -1145322.615 9  22430470.420                        2332.845          49.000
    402003.075 9  22172386.013                        -959.963          48.000
  -1630872.764 9  23873110.774                        3426.630          43.000
   1198850.205 6  25208445.349                       -2603.866          35.000
    528390.528 7  25192216.836                       -1214.281          36.000
  -1087416.446 9  20613295.935                        2254.668          54.000
    705109.400 9  21795614.403                       -1589.211          48.000
   1300280.461 9  25430408.089                       -2778.523          40.000
   -443656.756 9  20304194.422                         839.977          54.000
 17  4 10 16 18 29.0000000  0 11G21G20G31G02G05G06G14G29G12G24G25
  -1357587.657 9  25002281.657                        4370.423          40.000
    -67453.171 7  25190627.985                        4232.117          37.000
  -1147655.095 9  22430026.563                        2332.409          48.000
    402963.369 9  22172568.760                        -960.302          48.000
  -1634299.063 9  23872458.778                        3426.365          43.000
   1201454.276 6  25208940.901                       -2603.884          35.000
    529604.966 7  25192447.856                       -1214.577          36.000
  -1089670.844 9  20612866.935                        2254.406          54.000
    706698.887 9  21795916.872                       -1589.447          48.000
   1303058.900 9  25430936.815                       -2778.178          40.000
   -444496.423 9  20304034.637                         839.615          54.000
 17  4 10 16 18 30.0000000  0 11G21G20G31G02G05G06G14G29G12G24G25
  -1361957.754 9  25001450.050                        4370.060          40.000
    -71685.215 7  25189822.431                        4232.267          37.000
  -1149986.952 9  22429582.830                        2331.626          49.000
    403924.112 9  22172751.586                        -960.902          48.000
  -1637725.012 9  23871806.836                        3425.856          43.000
   1204058.530 6  25209436.472                       -2604.217          34.000
    530819.677 7  25192678.929                       -1214.904          36.000
  -1091924.834 9  20612438.025                        2253.857          54.000
    708288.736 9  21796219.403                       -1589.970          48.000
   1305837.309 9  25431465.533                       -2778.260          40.000
   -445335.544 9  20303874.959                         838.943          54.000
 17  4 10 16 18 31.0000000  0 11G21G20G31G02G05G06G14G29G12G24G25
  -1366327.933 9  25000618.426                        4370.441          40.000
    -75917.480 7  25189016.905                        4232.496          37.000
  -1152318.372 9  22429139.178                        2331.384          49.000
    404885.119 9  22172934.467                        -960.979          48.000
  -1641150.781 9  23871154.929                        3425.863          43.000
   1206662.732 6  25209932.024                       -2603.943          35.000
    532034.500 7  25192910.020                       -1214.548          36.000
  -1094178.597 9  20612009.142                        2253.819          54.000
    709878.757 9  21796521.970                       -1589.894          48.000
   1308615.492 9  25431994.215                       -2777.896          40.000
   -446174.321 9  20303715.344                         838.709          54.000
 17  4 10 16 18 32.0000000  0 11G21G20G31G02G05G06G14G29G12G24G25
  -1370698.041 9  24999786.811                        4369.986          40.000
    -80149.883 7  25188211.485                        4232.209          37.000
  -1154649.251 9  22428695.633                        2330.526          49.000
    405846.509 9  22173117.410                        -961.631          48.000
  -1644576.248 9  23870503.076                        3425.257          42.000
   1209267.079 6  25210427.613                       -2604.696          35.000
    533249.595 7  25193141.174                       -1215.318          36.000
  -1096432.019 9  20611580.339                        2253.172          54.000
    711469.073 9  21796824.591                       -1590.545          48.000
   1311393.558 9  25432522.870                       -2778.058          40.000
   -447012.630 9  20303555.819                         837.974          54.000
 17  4 10 16 18 33.0000000  0 11G21G20G31G02G05G06G14G29G12G24G25
  -1375068.001 9  24998955.222                        4370.087          40.000
    -84382.330 7  25187406.227                        4232.453          37.000
  -1156979.457 9  22428252.213                        2330.048          48.000
    406808.389 9  22173300.451                        -961.959          48.000
  -1648001.309 9  23869851.285                        3425.024          42.000
   1211871.583 6  25210923.237                       -2604.484          34.000
    534465.034 7  25193372.381                       -1215.499          36.000
  -1098684.987 9  20611151.608                        2252.918          54.000
    713059.801 9  21797127.293                       -1590.787          48.000
   1314171.628 9  25433051.534                       -2777.803          40.000
   -447850.365 9  20303396.400                         837.640          54.000
 17  4 10 16 18 34.0000000  0 11G21G20G31G02G05G06G14G29G12G24G25
  -1379437.817 9  24998123.660                        4369.867          40.000
    -88614.847 7  25186600.986                        4232.770          37.000
  -1159309.031 9  22427808.919                        2329.349          49.000
    407770.729 9  22173483.582                        -962.414          48.000
  -1651426.001 9  23869199.575                        3424.616          42.000
   1214476.272 6  25211418.879                       -2604.728          34.000
    535680.781 7  25193603.660                       -1215.824          36.000
  -1100937.533 9  20610722.965                        2252.456          54.000
    714650.893 9  21797430.056                       -1591.094          48.000
   1316949.687 9  25433580.198                       -2777.999          40.000
   -448687.552 9  20303237.089                         837.051          54.000
 17  4 10 16 18 35.0000000  0 11G21G20G31G02G05G06G14G29G12G24G25
  -1383807.595 9  24997292.099                        4369.783          40.000
    -92847.477 7  25185795.701                        4232.763          37.000
  -1161638.064 9  22427365.731                        2328.820          48.000
    408733.451 9  22173666.784                        -962.862          48.000
  -1654850.388 9  23868547.919                        3424.274          42.000
   1217081.054 6  25211914.548                       -2604.723          35.000
    536896.755 7  25193834.974                       -1216.032          36.000
  -1103189.742 9  20610294.386                        2252.085          54.000
    716242.288 9  21797732.874                       -1591.534          48.000
   1319727.599 9  25434108.835                       -2777.755          40.000
   -449524.275 9  20303077.867                         836.528          54.000
 17  4 10 16 18 36.0000000  0 11G21G20G31G02G05G06G14G29G12G24G25
  -1388177.378 9  24996460.546                        4369.940          40.000
    -97080.321 7  25184990.398                        4233.140          37.000
  -1163966.604 9  22426922.633                        2328.449          48.000
    409696.489 9  22173850.040                        -963.014          48.000
  -1658274.537 9  23867896.307                        3424.107          42.000
   1219685.863 6  25212410.217                       -2604.742          35.000
    538112.903 7  25194066.333                       -1216.027          36.000
  -1105441.672 9  20609865.860                        2251.943          53.000
    717833.910 9  21798035.736                       -1591.581          48.000
   1322505.328 9  25434637.427                       -2777.596          40.000
   -450360.594 9  20302918.726                         836.231          54.000
 17  4 10 16 18 37.0000000  0 11G21G20G31G02G05G06G14G29G12G24G25
  -1392547.221 9  24995628.993                        4369.877          40.000
   -101313.424 7  25184185.041                        4233.332          37.000
  -1166294.710 9  22426479.615                        2327.958          49.000
    410659.797 9  22174033.349                        -963.406          48.000
  -1661698.513 9  23867244.731                        3423.998          42.000
   1222290.688 6  25212905.877                       -2604.827          34.000
    539329.190 7  25194297.728                       -1216.258          36.000
  -1107693.376 9  20609437.379                        2251.646          53.000
    719425.714 9  21798338.634                       -1591.870          48.000
   1325282.806 9  25435165.984                       -2777.463          40.000
   -451196.569 9  20302759.638                         835.834          54.000
 17  4 10 16 18 38.0000000  0 11G21G20G31G02G05G06G14G29G12G24G25
  -1396916.970 9  24994797.449                        4369.797          41.000
   -105546.638 7  25183379.639                        4233.596          37.000
  -1168622.244 9  22426036.705                        2327.408          49.000
    411623.512 9  22174216.739                        -963.796          48.000
  -1665122.162 9  23866593.209                        3423.665          42.000
   1224895.590 6  25213401.545                       -2604.952          35.000
    540545.730 7  25194529.177                       -1216.560          36.000
  -1109944.717 9  20609008.969                        2251.302          53.000
    721017.826 9  21798641.585                       -1592.135          47.000
   1328060.190 9  25435694.523                       -2777.250          40.000
   -452032.035 9  20302600.657                         835.325          54.000
 17  4 10 16 18 39.0000000  0 11G21G20G31G02G05G06G14G29G12G24G25
  -1401286.580 9  24993965.923                        4369.581          41.000
   -109779.874 7  25182574.238                        4233.445          37.000
  -1170949.109 9  22425593.919                        2326.601          49.000
    412587.715 9  22174400.209                        -964.379          48.000
  -1668545.404 9  23865941.776                        3423.152          41.000
   1227500.697 6  25213897.259                       -2605.164          35.000
    541762.634 7  25194760.706                       -1217.176          36.000
  -1112195.604 9  20608580.639                        2250.729          54.000
    722610.345 9  21798944.617                       -1592.647          48.000
   1330837.583 9  25436223.062                       -2777.344          40.000
   -452866.938 9  20302441.774                         834.663          54.000
 17  4 10 16 18 40.0000000  0 11G21G20G31G02G05G06G14G29G12G24G25
  -1405656.066 9  24993134.441                        4369.517          41.000
   -114013.194 7  25181768.782                        4233.423          37.000
  -1173275.386 9  22425151.241                        2326.237          48.000
    413552.335 9  22174583.769                        -964.608          48.000
  -1671968.313 9  23865290.405                        3422.986          41.000
   1230105.966 6  25214392.999                       -2605.215          35.000
    542979.769 7  25194992.279                       -1217.053          37.000
  -1114446.112 9  20608152.381                        2250.547          54.000
    724203.203 9  21799247.702                       -1592.840          48.000
   1333614.906 9  25436751.574                       -2777.008          40.000
   -453701.331 9  20302282.990                         834.394          54.000
 17  4 10 16 18 41.0000000  0 11G21G20G31G02G05G06G14G29G12G24G25
  -1410025.430 9  24992302.978                        4369.298          41.000
   -118246.592 7  25180963.283                        4233.447          37.000
  -1175601.011 9  22424708.688                        2325.322          48.000
    414517.440 9  22174767.409                        -965.332          48.000
  -1675390.809 9  23864639.124                        3422.396          42.000
   1232711.409 6  25214888.757                       -2605.514          34.000
    544197.265 7  25195223.924                       -1217.631          37.000
  -1116696.182 9  20607724.213                        2249.909          54.000
    725796.448 9  21799550.877                       -1593.401          48.000
   1336392.227 9  25437280.095                       -2777.299          40.000
   -454535.154 9  20302124.322                         833.622          54.000
 17  4 10 16 18 42.0000000  0 11G21G20G31G02G05G06G14G29G12G24G25
  -1414394.695 9  24991471.532                        4369.353          41.000
   -122480.050 7  25180157.792                        4233.353          37.000
  -1177926.054 9  22424266.251                        2324.939          48.000
    415482.952 9  22174951.129                        -965.534          48.000
  -1678812.972 9  23863987.896                        3422.181          42.000
   1235316.977 6  25215384.542                       -2605.350          35.000
    545415.058 7  25195455.623                       -1217.940          37.000
  -1118945.872 9  20607296.116                        2249.653          54.000
    727390.030 9  21799854.105                       -1593.651          48.000
   1339169.444 9  25437808.589                       -2776.823          40.000
   -455368.478 9  20301965.744                         833.245          54.000
 17  4 10 16 18 43.0000000  0 11G21G20G31G02G05G06G14G29G12G24G25
  -1418763.713 9  24990640.131                        4369.029          41.000
   -126713.524 7  25179352.247                        4233.674          37.000
  -1180250.349 9  22423823.957                        2324.066          48.000
    416449.049 9  22175134.966                        -966.263          48.000
  -1682234.646 9  23863336.767                        3421.649          42.000
   1237922.832 6  25215880.390                       -2605.946          35.000
    546633.254 7  25195687.402                       -1218.306          37.000
  -1121195.033 9  20606868.117                        2249.056          54.000
    728984.090 9  21800157.432                       -1594.152          48.000
   1341946.755 9  25438337.110                       -2777.117          40.000
   -456201.138 9  20301807.290                         832.475          54.000
 17  4 10 16 18 44.0000000  0 11G21G20G31G02G05G06G14G29G12G24G25
  -1423132.657 9  24989808.730                        4368.902          41.000
   -130947.080 7  25178546.667                        4233.591          37.000
  -1182574.093 9  22423381.770                        2323.535          48.000
    417415.522 9  22175318.865                        -966.612          48.000
  -1685656.003 9  23862685.709                        3421.200          42.000
   1240528.780 6  25216376.255                       -2605.803          34.000
    547851.687 7  25195919.244                       -1218.439          37.000
  -1123443.846 9  20606440.190                        2248.701          54.000
    730578.442 9  21800460.821                       -1594.418          48.000
   1344723.958 9  25438865.604                       -2777.201          40.000
   -457033.329 9  20301648.926                         832.031          54.000
 17  4 10 16 18 45.0000000  0 11G21G20G31G02G05G06G14G29G12G24G25
  -1427501.584 9  24988977.347                        4368.895          41.000
   -135180.789 7  25177741.096                        4233.734          37.000
  -1184897.298 9  22422939.681                        2323.001          48.000
    418382.354 9  22175502.844                        -966.913          48.000
  -1689077.107 9  23862034.696                        3421.097          42.000
   1243134.854 6  25216872.156                       -2606.030          35.000
    549070.374 7  25196151.157                       -1218.803          37.000
  -1125692.338 9  20606012.316                        2248.415          54.000
    732173.081 9  21800764.255                       -1594.692          48.000
   1347500.981 9  25439394.072                       -2776.921          40.000
   -457865.074 9  20301490.651                         831.572          54.000
 17  4 10 16 18 46.0000000  0 11G21G20G31G02G05G06G14G29G12G24G25
  -1431870.564 9  24988145.946                        4369.204          42.000
   -139414.750 7  25176935.489                        4234.038          37.000
  -1187220.055 9  22422497.682                        2322.643          48.000
    419349.466 9  22175686.868                        -967.116          48.000
  -1692497.991 9  23861383.727                        3420.871          42.000
   1245740.853 6  25217368.031                       -2605.835          35.000
    550289.156 7  25196383.097                       -1218.751          37.000
  -1127940.591 9  20605584.487                        2248.259          53.000
    733767.901 9  21801067.725                       -1594.779          48.000
   1350277.824 9  25439922.504                       -2776.700          40.000
   -458696.455 9  20301332.439                         831.324          54.000
 17  4 10 16 18 47.0000000  0 11G21G20G31G02G05G06G14G29G12G24G25
  -1436239.361 9  24987314.590                        4368.802          42.000
   -143648.743 7  25176129.855                        4234.078          37.000
  -1189542.143 9  22422055.799                        2321.857          48.000
    420317.073 9  22175870.982                        -967.775          48.000
  -1695918.470 9  23860732.839                        3420.322          42.000
   1248347.097 6  25217863.968                       -2606.370          35.000
    551508.313 7  25196615.108                       -1219.250          37.000
  -1130188.387 9  20605156.747                        2247.662          54.000
    735363.142 9  21801371.266                       -1595.386          47.000
   1353054.679 9  25440450.935                       -2776.720          40.000
   -459527.249 9  20301174.343                         830.626          54.000
 17  4 10 16 18 48.0000000  0 11G21G20G31G02G05G06G14G29G12G24G25
  -1440608.094 9  24986483.252                        4368.816          42.000
   -147882.864 7  25175324.212                        4234.492          37.000
  -1191863.667 9  22421614.023                        2321.450          48.000
    421285.065 9  22176055.176                        -968.005          48.000
  -1699338.630 9  23860082.014                        3420.147          42.000
   1250953.423 6  25218359.922                       -2606.151          35.000
    552727.684 7  25196847.146                       -1219.103          37.000
  -1132435.830 9  20604729.070                        2247.432          53.000
    736958.678 9  21801674.878                       -1595.538          48.000
   1355831.449 9  25440979.358                       -2776.561          40.000
   -460357.569 9  20301016.336                         830.231          54.000
 17  4 10 16 18 49.0000000  0 11G21G20G31G02G05G06G14G29G12G24G25
  -1444976.804 9  24985651.913                        4368.826          42.000
   -152117.145 8  25174518.551                        4234.511          38.000
  -1194184.651 9  22421172.346                        2320.734          48.000
    422253.427 9  22176239.432                        -968.505          48.000
  -1702758.515 9  23859431.242                        3419.746          42.000
   1253559.836 7  25218855.895                       -2606.477          36.000
    553947.313 7  25197079.256                       -1219.628          36.000
  -1134682.954 9  20604301.455                        2247.044          53.000
    738554.481 9  21801978.527                       -1595.809          48.000
   1358608.050 9  25441507.736                       -2776.523          40.000
   -461187.439 9  20300858.418                         829.720          54.000
 17  4 10 16 18 50.0000000  0 11G21G20G31G02G05G06G14G29G12G24G25
  -1449345.540 9  24984820.566                        4368.720          42.000
   -156351.628 8  25173712.828                        4234.531          38.000
  -1196505.191 9  22420730.749                        2320.285          48.000
    423222.064 9  22176423.751                        -968.741          48.000
  -1706178.208 9  23858780.488                        3419.654          42.000
   1256166.241 6  25219351.868                       -2606.389          35.000
    555167.070 7  25197311.393                       -1219.838          37.000
  -1136929.831 9  20603873.894                        2246.766          54.000
    740150.486 9  21802282.229                       -1596.045          48.000
   1361384.452 9  25442036.070                       -2776.259          40.000
   -462016.940 9  20300700.572                         829.303          54.000
 17  4 10 16 18 51.0000000  0 11G21G20G31G02G05G06G14G29G12G24G25
  -1453714.225 9  24983989.227                        4368.955          42.000
   -160586.265 7  25172907.051                        4234.939          37.000
  -1198825.158 9  22420289.276                        2319.906          48.000
    424191.104 9  22176608.133                        -969.005          48.000
  -1709597.572 9  23858129.805                        3419.505          42.000
   1258772.752 7  25219847.849                       -2606.264          36.000
    556387.080 7  25197543.583                       -1219.894          37.000
  -1139176.349 9  20603446.396                        2246.554          54.000
    741746.805 9  21802585.975                       -1596.260          48.000
   1364160.707 9  25442564.376                       -2775.686          40.000
   -462845.960 9  20300542.807                         829.003          54.000
 17  4 10 16 18 52.0000000  0 11G21G20G31G02G05G06G14G29G12G24G25
  -1458082.725 9  24983157.925                        4368.562          42.000
   -164820.931 8  25172101.221                        4234.671          38.000
  -1201144.451 9  22419847.929                        2318.986          48.000
    425160.644 9  22176792.612                        -969.717          48.000
  -1713016.514 9  23857479.203                        3418.800          42.000
   1261379.485 6  25220343.884                       -2606.745          35.000
    557607.434 7  25197775.835                       -1220.344          37.000
  -1141422.405 9  20603018.986                        2245.904          53.000
    743343.528 9  21802889.811                       -1596.881          47.000
   1366937.014 9  25443092.692                       -2776.253          40.000
   -463674.385 9  20300385.166                         828.178          54.000
 17  4 10 16 18 53.0000000  0 11G21G20G31G02G05G06G14G29G12G24G25
  -1462451.028 9  24982326.667                        4368.409          42.000
   -169055.576 7  25171295.382                        4234.761          37.000
  -1203463.057 9  22419406.708                        2318.456          48.000
    426130.709 9  22176977.199                        -970.166          48.000
  -1716435.030 9  23856828.681                        3418.551          42.000
   1263986.443 6  25220839.955                       -2606.781          35.000
    558828.175 7  25198008.159                       -1220.699          37.000
  -1143667.977 9  20602591.667                        2245.517          53.000
    744940.686 9  21803193.728                       -1597.148          47.000
   1369713.310 9  25443621.007                       -2776.172          40.000
   -464502.205 9  20300227.624                         827.709          54.000
 17  4 10 16 18 54.0000000  0 11G21G20G31G02G05G06G14G29G12G24G25
  -1466819.280 9  24981495.418                        4368.222          42.000
   -173290.363 7  25170489.480                        4234.882          37.000
  -1205781.109 9  22418965.602                        2317.764          48.000
    427101.144 9  22177161.849                        -970.610          48.000
  -1719853.233 9  23856178.231                        3418.066          42.000
   1266593.520 6  25221336.053                       -2607.232          35.000
    560049.169 7  25198240.537                       -1221.259          37.000
  -1145913.208 9  20602164.409                        2245.038          53.000
    746538.138 9  21803497.697                       -1597.583          47.000
   1372489.508 9  25444149.305                       -2776.056          40.000
   -465329.568 9  20300070.180                         827.171          54.000
 17  4 10 16 18 55.0000000  0 11G21G20G31G02G05G06G14G29G12G24G25
  -1471187.568 9  24980664.160                        4368.256          42.000
   -177525.350 7  25169683.533                        4234.836          37.000
  -1208098.703 9  22418524.576                        2317.380          48.000
    428071.875 9  22177346.552                        -970.945          48.000
  -1723271.221 9  23855527.807                        3417.711          42.000
   1269200.563 7  25221832.150                       -2607.030          36.000
    561270.284 7  25198472.933                       -1221.405          37.000
  -1148158.190 9  20601737.197                        2244.809          53.000
    748135.797 9  21803801.703                       -1597.798          48.000
   1375265.498 9  25444677.549                       -2776.058          40.000
   -466156.543 9  20299912.807                         826.718          54.000
 17  4 10 16 18 56.0000000  0 11G21G20G31G02G05G06G14G29G12G24G25
  -1475555.727 9  24979832.928                        4368.324          42.000
   -181760.470 7  25168877.542                        4235.556          37.000
  -1210415.671 9  22418083.667                        2316.867          48.000
    429043.051 9  22177531.336                        -971.177          48.000
  -1726688.861 9  23854877.455                        3417.735          42.000
   1271807.807 6  25222328.284                       -2607.086          35.000
    562491.713 7  25198705.391                       -1221.368          37.000
  -1150402.763 9  20601310.064                        2244.588          53.000
    749733.814 9  21804105.780                       -1597.971          48.000
   1378041.406 9  25445205.784                       -2775.426          40.000
   -466982.978 9  20299755.542                         826.361          54.000
 17  4 10 16 18 57.0000000  0 11G21G20G31G02G05G06G14G29G12G24G25
  -1479923.761 9  24979001.715                        4368.047          42.000
   -185995.584 7  25168071.542                        4235.070          37.000
  -1212732.029 9  22417642.883                        2316.146          48.000
    430014.677 9  22177716.209                        -971.731          47.000
  -1730106.111 9  23854227.166                        3417.173          42.000
   1274415.193 6  25222824.435                       -2607.411          35.000
    563713.454 7  25198937.929                       -1221.889          37.000
  -1152646.927 9  20600883.013                        2244.070          53.000
    751332.192 9  21804409.920                       -1598.460          47.000
   1380817.289 9  25445734.019                       -2775.749          40.000
   -467808.891 9  20299598.366                         825.815          54.000
 17  4 10 16 18 58.0000000  0 11G21G20G31G02G05G06G14G29G12G24G25
  -1484291.816 9  24978170.502                        4368.048          43.000
   -190230.968 7  25167265.479                        4235.388          37.000
  -1215047.901 9  22417202.188                        2315.613          48.000
    430986.615 9  22177901.144                        -972.101          47.000
  -1733523.130 9  23853576.930                        3416.810          42.000
   1277022.607 7  25223320.586                       -2607.637          36.000
    564935.344 7  25199170.495                       -1221.855          37.000
  -1154890.817 9  20600456.015                        2243.698          53.000
    752930.801 9  21804714.104                       -1598.754          47.000
   1383592.998 9  25446262.219                       -2775.650          40.000
   -468634.394 9  20299441.280                         825.249          54.000
 17  4 10 16 18 59.0000000  0 10G21G20G31G02G05G06G14G29G12G25
  -1488659.755 9  24977339.306                        4367.942          43.000
   -194466.401 7  25166459.417                        4235.463          37.000
  -1217363.169 9  22416761.610                        2315.027          48.000
    431958.982 9  22178086.160                        -972.536          47.000
  -1736939.804 9  23852926.765                        3416.527          42.000
   1279630.137 6  25223816.773                       -2607.604          35.000
    566157.529 8  25199403.123                       -1222.136          38.000
  -1157134.323 9  20600029.088                        2243.362          54.000
    754529.748 9  21805018.351                       -1599.082          48.000
   -469459.386 9  20299284.282                         824.795          54.000
 17  4 10 16 19  0.0000000  0 10G21G20G31G02G05G06G14G29G12G25
  -1493027.440 9  24976508.164                        4367.731          43.000
   -198701.792 7  25165653.372                        4235.556          37.000
  -1219677.674 9  22416321.174                        2314.285          48.000
    432931.928 9  22178271.283                        -973.064          48.000
  -1740355.966 9  23852276.699                        3416.093          42.000
   1282237.997 6  25224313.023                       -2607.888          35.000
    567380.177 8  25199635.831                       -1222.635          38.000
  -1159377.275 9  20599602.268                        2242.877          54.000
    756129.198 9  21805322.697                       -1599.529          48.000
   -470283.693 9  20299127.419                         824.127          54.000
 17  4 10 16 19  1.0000000  0 10G21G20G31G02G05G06G14G29G12G25
  -1497395.114 9  24975677.023                        4367.597          43.000
   -202937.338 7  25164847.309                        4235.655          37.000
  -1221991.674 9  22415880.837                        2313.675          48.000
    433905.207 9  22178456.460                        -973.487          48.000
  -1743771.878 9  23851626.678                        3415.856          42.000
   1284845.885 7  25224809.273                       -2607.902          36.000
    568603.016 8  25199868.584                       -1223.075          38.000
  -1161619.934 9  20599175.502                        2242.493          54.000
    757728.891 9  21805627.095                       -1599.845          48.000
   -471107.586 9  20298970.636                         823.643          54.000
 17  4 10 16 19  2.0000000  0 10G21G20G31G02G05G06G14G29G12G25
  -1501762.691 9  24974845.907                        4367.682          43.000
   -207172.976 7  25164041.255                        4235.753          37.000
  -1224305.078 9  22415440.606                        2313.191          48.000
    434878.912 9  22178641.726                        -973.850          48.000
  -1747187.432 9  23850976.728                        3415.485          42.000
   1287453.913 7  25225305.558                       -2608.010          36.000
    569826.097 8  25200101.373                       -1223.103          38.000
  -1163862.209 9  20598748.817                        2242.187          53.000
    759328.924 9  21805931.557                       -1600.097          48.000
   -471930.961 9  20298813.952                         823.264          54.000
 17  4 10 16 19  3.0000000  0 10G21G20G31G02G05G06G14G29G12G25
  -1506130.134 9  24974014.801                        4367.370          43.000
   -211408.694 7  25163235.219                        4235.855          37.000
  -1226617.863 9  22415000.492                        2312.488          48.000
    435853.050 9  22178827.081                        -974.315          48.000
  -1750602.636 9  23850326.849                        3415.126          42.000
   1290062.124 6  25225801.861                       -2608.395          35.000
    571049.499 8  25200334.233                       -1223.555          38.000
  -1166104.078 9  20598322.194                        2241.714          53.000
    760929.313 9  21806236.081                       -1600.511          48.000
   -472753.809 9  20298657.366                         822.647          54.000
 17  4 10 16 19  4.0000000  0 10G21G20G31G02G05G06G14G29G12G25
  -1510497.496 9  24973183.722                        4367.578          43.000
   -215644.502 7  25162429.166                        4236.008          37.000
  -1228930.043 9  22414560.503                        2312.074          48.000
    436827.617 9  22179012.517                        -974.554          48.000
  -1754017.488 9  23849677.042                        3414.913          42.000
   1292670.443 6  25226298.182                       -2608.134          35.000
    572273.166 8  25200567.138                       -1223.509          38.000
  -1168345.559 9  20597895.652                        2241.519          54.000
    762530.039 9  21806540.667                       -1600.685          48.000
   -473576.145 9  20298500.878                         822.301          54.000
 17  4 10 16 19  5.0000000  0 10G21G20G31G02G05G06G14G29G12G25
  -1514864.787 9  24972352.643                        4367.329          43.000
   -219880.430 7  25161623.085                        4235.930          37.000
  -1231241.674 9  22414120.604                        2311.451          48.000
    437802.566 9  22179198.024                        -975.149          48.000
  -1757432.027 9  23849027.298                        3414.397          42.000
   1295278.862 7  25226794.521                       -2608.676          36.000
    573497.107 7  25200800.096                       -1224.212          37.000
  -1170586.694 9  20597469.181                        2240.968          54.000
    764131.063 9  21806845.325                       -1601.170          48.000
   -474398.004 9  20298344.479                         821.676          54.000
 17  4 10 16 19  6.0000000  0 10G21G20G31G02G05G06G14G29G12G25
  -1519232.087 9  24971521.572                        4367.368          43.000
   -224116.588 7  25160816.942                        4236.309          37.000
  -1233552.804 9  22413680.811                        2310.941          48.000
    438777.827 9  22179383.585                        -975.393          48.000
  -1760846.330 9  23848377.589                        3414.236          42.000
   1297887.293 7  25227290.869                       -2608.370          36.000
    574721.178 8  25201033.072                       -1224.216          38.000
  -1172827.552 9  20597042.754                        2240.778          53.000
    765732.313 9  21807150.019                       -1601.251          48.000
   -475219.459 9  20298188.161                         821.298          54.000
 17  4 10 16 19  7.0000000  0 10G21G20G31G02G05G06G14G29G12G25
  -1523599.394 9  24970690.493                        4367.382          43.000
   -228352.901 7  25160010.772                        4236.474          37.000
  -1235863.436 9  22413241.108                        2310.421          48.000
    439753.413 9  22179569.208                        -975.715          48.000
  -1764260.385 9  23847727.934                        3413.939          42.000
   1300495.797 7  25227787.217                       -2608.528          36.000
    575945.443 8  25201266.084                       -1224.330          38.000
  -1175068.120 9  20596616.381                        2240.481          53.000
    767333.816 9  21807454.757                       -1601.613          48.000
   -476040.500 9  20298031.923                         820.828          54.000
